% program    : MADOCALIB ver.2.0
% inp file   : tests/data/madocalib/MIZU00JPN_R_20250910000_01D_30S_MO.obs
% inp file   : tests/data/madocalib/BRDM00DLR_S_20250910000_01D_MN.rnx
% inp file   : tests/data/madocalib/2025091A.204.l6
% inp file   : tests/data/madocalib/2025091A.206.l6
% satantfile : 
% rcvantfile : tests/data/madocalib/igs20.atx
% obs start  : 2025/04/01 00:00:00.0 GPST (week2360 172800.0s)
% obs end    : 2025/04/01 00:59:30.0 GPST (week2360 176370.0s)
% pos mode   : PPP Kinematic
% freqs      : L1+2+3+4
% siggps     : L1/L2/L5
% sigqzs     : L1/L5/L2
% siggal     : E1/E5a/E5b/E6
% sigbds2    : B1I/B3I/B2I
% sigbds3    : B1I/B3I/B2a
% solution   : Forward
% elev mask  : 10.0 deg
% dynamics   : off
% tidecorr   : on
% ionos opt  : Estimate TEC
% tropo opt  : Estimate ZTD
% ephemeris  : Broadcast+SSR APC
% navi sys   : GPS GLONASS Galileo QZSS BDS
% amb mode   : Continuous
% ar sys     : GPS Galileo QZSS BDS
% val ratio  : 1.5
% max std pos: 1.5 m
% ionocorr   : off
% antenna1   :                       ( 0.0000  0.0000  0.0000)
%
% (lat/lon/height=WGS84/ellipsoidal,Q=1:fix,2:float,3:sbas,4:dgps,5:single,6:ppp,ns=# of satellites)
%  GPST                  latitude(deg) longitude(deg)  height(m)   Q  ns   sdn(m)   sde(m)   sdu(m)  sdne(m)  sdeu(m)  sdun(m) age(s)  ratio
2025/04/01 00:01:00.000   39.135149057  141.132875697   117.9839   6  10   5.2909   3.6299   8.2561   2.4603  -3.2633  -5.4269   0.00    0.0
2025/04/01 00:01:30.000   39.135153585  141.132875399   117.0870   6  10   3.0051   1.6769   4.6588  -0.9489   0.9630  -2.6670   0.00    0.0
2025/04/01 00:02:00.000   39.135155608  141.132874640   116.4868   6  11   2.3535   1.2481   3.0294  -0.4075  -1.0190  -1.9851   0.00    0.0
2025/04/01 00:02:30.000   39.135156681  141.132873596   116.3500   6  15   1.5764   1.0831   2.1282   0.3179  -1.0083  -1.0557   0.00    0.0
2025/04/01 00:03:00.000   39.135154174  141.132872540   116.8015   6  15   1.7055   0.9848   2.3410  -0.1927  -0.7691  -1.5312   0.00    0.0
2025/04/01 00:03:30.000   39.135153648  141.132873467   116.4741   6  16   1.1858   0.8736   1.7341   0.4066  -0.7495  -1.0443   0.00    0.0
2025/04/01 00:04:00.000   39.135152975  141.132872842   116.6056   6  22   0.9584   0.7465   1.4684   0.1069  -0.5333  -0.8161   0.00    0.0
2025/04/01 00:04:30.000   39.135152810  141.132872083   116.7350   6  21   0.8381   0.6762   1.3224  -0.1357  -0.4344  -0.7260   0.00    0.0
2025/04/01 00:05:00.000   39.135151362  141.132872910   117.1218   6  21   0.8239   0.6425   1.3328  -0.2739  -0.2288  -0.7978   0.00    0.0
2025/04/01 00:05:30.000   39.135150983  141.132873186   117.2339   6  22   0.7356   0.5985   1.2157  -0.2515  -0.1976  -0.7273   0.00    0.0
2025/04/01 00:06:00.000   39.135150649  141.132872108   117.4547   1  23   0.0343   0.0252   0.1292  -0.0125   0.0055  -0.0477   2.00    2.0
2025/04/01 00:06:30.000   39.135150702  141.132872094   117.4463   1  23   0.0337   0.0244   0.1228  -0.0123   0.0028  -0.0461   0.00    1.5
2025/04/01 00:07:00.000   39.135150700  141.132872038   117.4510   1  24   0.0320   0.0234   0.1173  -0.0096  -0.0114  -0.0434   0.00    1.8
2025/04/01 00:07:30.000   39.135150547  141.132872095   117.4812   1  24   0.0291   0.0226   0.0860  -0.0081  -0.0184  -0.0295   0.00    1.7
2025/04/01 00:08:00.000   39.135150559  141.132872153   117.4772   1  24   0.0289   0.0225   0.0838  -0.0083  -0.0178  -0.0291   0.00    1.8
2025/04/01 00:08:30.000   39.135150668  141.132871958   117.4893   1  23   0.0303   0.0243   0.0842  -0.0027  -0.0215  -0.0315   0.00    1.6
2025/04/01 00:09:00.000   39.135150605  141.132872041   117.4741   1  24   0.0305   0.0240   0.0828   0.0017  -0.0216  -0.0318   0.00    1.6
2025/04/01 00:09:30.000   39.135150609  141.132872156   117.4613   1  25   0.0295   0.0235   0.0806  -0.0004  -0.0209  -0.0300   0.00    1.6
2025/04/01 00:10:00.000   39.135150670  141.132872011   117.4973   1  25   0.0283   0.0228   0.0798   0.0018  -0.0210  -0.0279   1.00    1.7
2025/04/01 00:10:30.000   39.135150642  141.132872012   117.4845   1  25   0.0282   0.0242   0.0769  -0.0029  -0.0203  -0.0267   0.00    1.4
2025/04/01 00:11:00.000   39.135150707  141.132872098   117.4653   1  24   0.0281   0.0234   0.0757  -0.0032  -0.0212  -0.0259   0.00    1.4
2025/04/01 00:11:30.000   39.135150481  141.132872040   117.4887   1  24   0.0276   0.0230   0.0751   0.0033  -0.0212  -0.0256   0.00    1.3
2025/04/01 00:12:00.000   39.135150532  141.132872133   117.4536   1  23   0.0291   0.0243   0.0740   0.0064  -0.0217  -0.0257   0.00    1.4
2025/04/01 00:12:30.000   39.135150701  141.132872129   117.4642   1  23   0.0290   0.0233   0.0729   0.0045  -0.0214  -0.0252   0.00    1.4
2025/04/01 00:13:00.000   39.135150686  141.132872109   117.4565   1  23   0.0284   0.0237   0.0721   0.0050  -0.0209  -0.0246   0.00    1.3
2025/04/01 00:13:30.000   39.135150702  141.132872001   117.4267   1  27   0.0291   0.0231   0.0793   0.0030  -0.0188  -0.0273   2.00    3.6
2025/04/01 00:14:00.000   39.135150672  141.132872045   117.4273   1  27   0.0258   0.0201   0.0745  -0.0060  -0.0113  -0.0262   2.00    2.6
2025/04/01 00:14:30.000   39.135150795  141.132872002   117.3902   1  27   0.0244   0.0190   0.0666  -0.0053  -0.0149  -0.0214   1.00    1.2
2025/04/01 00:15:00.000   39.135150827  141.132871983   117.3725   1  27   0.0240   0.0180   0.0639  -0.0032  -0.0146  -0.0205   1.00    1.5
2025/04/01 00:15:30.000   39.135150788  141.132871888   117.3605   1  27   0.0242   0.0196   0.0595   0.0034  -0.0152  -0.0200   0.00    1.5
2025/04/01 00:16:00.000   39.135150774  141.132872003   117.3444   1  27   0.0243   0.0202   0.0586  -0.0042  -0.0161  -0.0202   0.00    1.5
2025/04/01 00:16:30.000   39.135150819  141.132872006   117.3305   1  27   0.0240   0.0181   0.0571  -0.0058  -0.0141  -0.0191   0.00    1.6
2025/04/01 00:17:00.000   39.135150704  141.132871925   117.3458   1  27   0.0242   0.0184   0.0568  -0.0034  -0.0165  -0.0193   0.00    1.6
2025/04/01 00:17:30.000   39.135150787  141.132871973   117.3592   1  27   0.0239   0.0205   0.0549  -0.0069  -0.0159  -0.0178   0.00    1.7
2025/04/01 00:18:00.000   39.135150885  141.132872042   117.3365   1  27   0.0240   0.0173   0.0550  -0.0030  -0.0155  -0.0191   0.00    1.8
2025/04/01 00:18:30.000   39.135150631  141.132871971   117.3872   1  28   0.0242   0.0195   0.0611  -0.0054  -0.0138  -0.0216   0.00    1.9
2025/04/01 00:19:00.000   39.135150648  141.132871905   117.3886   1  28   0.0237   0.0190   0.0594  -0.0023  -0.0143  -0.0200   0.00    1.9
2025/04/01 00:19:30.000   39.135150761  141.132872050   117.3794   1  28   0.0231   0.0186   0.0591  -0.0031  -0.0151  -0.0200   0.00    2.0
2025/04/01 00:20:00.000   39.135150804  141.132871983   117.3807   1  28   0.0229   0.0192   0.0587   0.0013  -0.0149  -0.0192   0.00    2.1
2025/04/01 00:20:30.000   39.135150782  141.132871912   117.3911   1  28   0.0233   0.0198   0.0579  -0.0034  -0.0157  -0.0186   0.00    2.2
2025/04/01 00:21:00.000   39.135150783  141.132871962   117.3633   1  28   0.0230   0.0190   0.0572   0.0029  -0.0150  -0.0185   0.00    2.2
2025/04/01 00:21:30.000   39.135150789  141.132872004   117.3884   1  28   0.0229   0.0187   0.0564  -0.0038  -0.0153  -0.0177   0.00    2.3
2025/04/01 00:22:00.000   39.135150664  141.132872059   117.3921   1  28   0.0228   0.0192   0.0563  -0.0030  -0.0148  -0.0179   0.00    2.4
2025/04/01 00:22:30.000   39.135150738  141.132872002   117.3855   1  28   0.0230   0.0178   0.0557  -0.0035  -0.0152  -0.0179   0.00    2.4
2025/04/01 00:23:00.000   39.135150710  141.132871948   117.3954   1  28   0.0227   0.0184   0.0533  -0.0048  -0.0161  -0.0200   0.00    2.1
2025/04/01 00:23:30.000   39.135150759  141.132872059   117.4032   1  28   0.0218   0.0197   0.0532  -0.0075  -0.0160  -0.0190   0.00    2.6
2025/04/01 00:24:00.000   39.135150752  141.132871983   117.4039   1  29   0.0205   0.0182   0.0528   0.0071  -0.0169  -0.0181   0.00    2.2
2025/04/01 00:24:30.000   39.135150780  141.132871917   117.4172   1  29   0.0209   0.0176   0.0529   0.0040  -0.0156  -0.0178   0.00    2.7
2025/04/01 00:25:00.000   39.135150751  141.132872054   117.3922   1  29   0.0215   0.0194   0.0517   0.0022  -0.0157  -0.0176   0.00    2.7
2025/04/01 00:25:30.000   39.135150761  141.132872041   117.3939   1  29   0.0208   0.0179   0.0519  -0.0012  -0.0153  -0.0171   0.00    2.7
2025/04/01 00:26:00.000   39.135150739  141.132871990   117.3921   1  31   0.0206   0.0184   0.0517   0.0008  -0.0165  -0.0173   0.00    2.0
2025/04/01 00:26:30.000   39.135150682  141.132871981   117.4082   1  31   0.0201   0.0191   0.0509   0.0038  -0.0169  -0.0177   0.00    2.5
2025/04/01 00:27:00.000   39.135150673  141.132872023   117.3924   1  31   0.0206   0.0170   0.0507   0.0048  -0.0158  -0.0173   0.00    2.5
2025/04/01 00:27:30.000   39.135150700  141.132872023   117.4111   1  31   0.0211   0.0149   0.0507   0.0071  -0.0155  -0.0177   1.00    1.3
2025/04/01 00:28:00.000   39.135150795  141.132871959   117.4042   1  31   0.0189   0.0184   0.0503  -0.0036  -0.0167  -0.0168   0.00    2.5
2025/04/01 00:28:30.000   39.135150804  141.132872042   117.3718   1  31   0.0207   0.0154   0.0502   0.0071  -0.0150  -0.0177   0.00    2.6
2025/04/01 00:29:00.000   39.135150750  141.132871979   117.3832   1  31   0.0196   0.0174   0.0495   0.0043  -0.0155  -0.0174   0.00    2.5
2025/04/01 00:29:30.000   39.135150709  141.132871972   117.3930   1  31   0.0198   0.0171   0.0493   0.0037  -0.0158  -0.0168   0.00    2.5
2025/04/01 00:30:00.000   39.135150729  141.132872075   117.3775   1  31   0.0200   0.0163   0.0489   0.0032  -0.0155  -0.0173   1.00    2.5
2025/04/01 00:30:30.000   39.135150800  141.132871996   117.3874   1  32   0.0206   0.0178   0.0484   0.0063  -0.0156  -0.0158   1.00    1.2
2025/04/01 00:31:00.000   39.135150825  141.132871936   117.3876   1  32   0.0203   0.0167   0.0481   0.0058  -0.0155  -0.0170   1.00    1.2
2025/04/01 00:31:30.000   39.135150754  141.132871886   117.3905   1  32   0.0203   0.0180   0.0482   0.0067  -0.0161  -0.0163   1.00    2.5
2025/04/01 00:32:00.000   39.135150722  141.132871952   117.3783   1  32   0.0199   0.0167   0.0467   0.0073  -0.0148  -0.0140   1.00    1.2
2025/04/01 00:32:30.000   39.135150769  141.132872031   117.3812   1  32   0.0204   0.0169   0.0479   0.0075  -0.0171  -0.0156   1.00    1.2
2025/04/01 00:33:00.000   39.135150740  141.132872015   117.3856   1  32   0.0186   0.0174   0.0466  -0.0016  -0.0164  -0.0146   1.00    2.5
2025/04/01 00:33:30.000   39.135150819  141.132871999   117.3811   1  32   0.0198   0.0177   0.0461   0.0034  -0.0159  -0.0147   1.00    2.6
2025/04/01 00:34:00.000   39.135150830  141.132872033   117.3602   1  32   0.0193   0.0159   0.0462   0.0066  -0.0159  -0.0154   1.00    2.5
2025/04/01 00:34:30.000   39.135150719  141.132871958   117.3675   1  31   0.0195   0.0185   0.0453   0.0046  -0.0165  -0.0150   1.00    2.5
2025/04/01 00:35:00.000   39.135150827  141.132872001   117.3688   1  31   0.0214   0.0160   0.0455   0.0080  -0.0167  -0.0151   1.00    2.5
2025/04/01 00:35:30.000   39.135150779  141.132872048   117.3845   1  31   0.0195   0.0174   0.0455   0.0079  -0.0161  -0.0148   1.00    2.4
2025/04/01 00:36:00.000   39.135150673  141.132871995   117.3782   1  31   0.0217   0.0146   0.0451   0.0070  -0.0165  -0.0153   1.00    2.4
2025/04/01 00:36:30.000   39.135150721  141.132871977   117.3629   1  31   0.0192   0.0159   0.0455   0.0022  -0.0163  -0.0155   1.00    2.4
2025/04/01 00:37:00.000   39.135150776  141.132871954   117.3674   1  31   0.0214   0.0181   0.0457   0.0022  -0.0181  -0.0119   1.00    2.4
2025/04/01 00:37:30.000   39.135150747  141.132871973   117.3567   1  31   0.0203   0.0160   0.0437   0.0008  -0.0180  -0.0131   1.00    2.2
2025/04/01 00:38:00.000   39.135150727  141.132872032   117.3564   1  31   0.0197   0.0162   0.0447  -0.0060  -0.0186  -0.0123   1.00    2.2
2025/04/01 00:38:30.000   39.135150817  141.132872002   117.3635   1  31   0.0201   0.0191   0.0442   0.0039  -0.0176  -0.0120   1.00    2.1
2025/04/01 00:39:00.000   39.135150765  141.132871887   117.3726   1  31   0.0209   0.0175   0.0429   0.0059  -0.0169  -0.0131   1.00    2.1
2025/04/01 00:39:30.000   39.135150749  141.132872029   117.3612   1  31   0.0216   0.0187   0.0446  -0.0015  -0.0175  -0.0114   1.00    2.2
2025/04/01 00:40:00.000   39.135150770  141.132872054   117.3657   1  31   0.0204   0.0184   0.0443   0.0036  -0.0176  -0.0125   2.00    2.4
2025/04/01 00:40:30.000   39.135150762  141.132871958   117.3703   1  31   0.0220   0.0177   0.0434   0.0048  -0.0169  -0.0108   1.00    2.2
2025/04/01 00:41:00.000   39.135150784  141.132871970   117.3523   1  31   0.0222   0.0163   0.0449   0.0016  -0.0186  -0.0107   3.00    2.5
2025/04/01 00:41:30.000   39.135150774  141.132871951   117.3565   1  31   0.0212   0.0202   0.0457  -0.0008  -0.0188  -0.0123   2.00    2.2
2025/04/01 00:42:00.000   39.135150795  141.132871991   117.3752   1  31   0.0201   0.0197   0.0465   0.0028  -0.0199  -0.0115   3.00    2.4
2025/04/01 00:42:30.000   39.135150735  141.132872014   117.3497   1  31   0.0208   0.0200   0.0455   0.0004  -0.0181  -0.0110   1.00    2.2
2025/04/01 00:43:00.000   39.135150821  141.132872044   117.3755   1  31   0.0221   0.0180   0.0451   0.0051  -0.0183  -0.0108   2.00    2.4
2025/04/01 00:43:30.000   39.135150762  141.132871990   117.3598   1  31   0.0208   0.0177   0.0452   0.0077  -0.0184  -0.0147   2.00    2.4
2025/04/01 00:44:00.000   39.135150700  141.132872051   117.3575   1  31   0.0206   0.0177   0.0454   0.0044  -0.0189  -0.0132   1.00    2.2
2025/04/01 00:44:30.000   39.135150807  141.132872002   117.3857   1  31   0.0214   0.0182   0.0465   0.0034  -0.0196  -0.0116   2.00    2.3
2025/04/01 00:45:00.000   39.135150756  141.132871992   117.3781   1  31   0.0202   0.0172   0.0446   0.0072  -0.0173  -0.0143   2.00    1.3
2025/04/01 00:45:30.000   39.135150738  141.132871932   117.3770   1  31   0.0226   0.0179   0.0466   0.0067  -0.0191  -0.0117   1.00    2.3
2025/04/01 00:46:00.000   39.135150721  141.132871935   117.3764   1  31   0.0210   0.0188   0.0461   0.0040  -0.0194  -0.0117   1.00    2.3
2025/04/01 00:46:30.000   39.135150778  141.132871947   117.3791   1  31   0.0210   0.0182   0.0461   0.0054  -0.0198  -0.0118   1.00    2.3
2025/04/01 00:47:00.000   39.135150735  141.132871918   117.3639   1  31   0.0204   0.0175   0.0451   0.0062  -0.0190  -0.0129   1.00    2.3
2025/04/01 00:47:30.000   39.135150770  141.132871935   117.3720   1  32   0.0203   0.0193   0.0446   0.0047  -0.0182  -0.0136   1.00    2.3
2025/04/01 00:48:00.000   39.135150517  141.132871862   117.4698   6  32   0.0375   0.0633   0.0875   0.0169  -0.0275  -0.0351  10.00    1.2
2025/04/01 00:48:30.000   39.135150785  141.132871994   117.3759   1  32   0.0203   0.0184   0.0449   0.0042  -0.0191  -0.0126   1.00    2.3
2025/04/01 00:49:00.000   39.135150720  141.132871938   117.3615   1  32   0.0216   0.0169   0.0446   0.0041  -0.0189  -0.0136   1.00    2.3
2025/04/01 00:49:30.000   39.135150730  141.132871949   117.3684   1  32   0.0219   0.0189   0.0448  -0.0014  -0.0197  -0.0126   1.00    2.4
2025/04/01 00:50:00.000   39.135150738  141.132872035   117.3732   1  32   0.0219   0.0177   0.0446   0.0031  -0.0194  -0.0124   1.00    2.4
2025/04/01 00:50:30.000   39.135150721  141.132872013   117.3693   1  32   0.0204   0.0172   0.0434   0.0043  -0.0185  -0.0135   0.00    1.2
2025/04/01 00:51:00.000   39.135150708  141.132871956   117.3625   1  32   0.0208   0.0180   0.0442   0.0044  -0.0191  -0.0128   0.00    1.2
2025/04/01 00:51:30.000   39.135150795  141.132871933   117.3690   1  32   0.0212   0.0189   0.0444   0.0051  -0.0185  -0.0124   0.00    1.2
2025/04/01 00:52:00.000   39.135150729  141.132872008   117.3637   1  32   0.0207   0.0179   0.0441   0.0020  -0.0198  -0.0135   0.00    1.2
2025/04/01 00:52:30.000   39.135150754  141.132871980   117.3721   1  32   0.0217   0.0179   0.0431   0.0068  -0.0192  -0.0149   0.00    1.2
2025/04/01 00:53:00.000   39.135150673  141.132871917   117.3562   1  32   0.0215   0.0187   0.0434  -0.0019  -0.0185  -0.0134   0.00    1.2
2025/04/01 00:53:30.000   39.135150705  141.132872000   117.3728   1  32   0.0221   0.0181   0.0436   0.0047  -0.0189  -0.0118   0.00    1.2
2025/04/01 00:54:00.000   39.135150713  141.132871992   117.3633   1  32   0.0216   0.0190   0.0429   0.0046  -0.0187  -0.0133   0.00    1.3
2025/04/01 00:54:30.000   39.135150729  141.132872013   117.3652   1  32   0.0227   0.0168   0.0435   0.0025  -0.0198  -0.0130   0.00    1.3
2025/04/01 00:55:00.000   39.135150775  141.132871970   117.3710   1  32   0.0224   0.0186   0.0438   0.0039  -0.0188  -0.0130   0.00    1.3
2025/04/01 00:55:30.000   39.135150641  141.132871961   117.3725   1  32   0.0217   0.0181   0.0436   0.0061  -0.0184  -0.0121   0.00    1.3
2025/04/01 00:56:00.000   39.135150617  141.132871915   117.3689   1  32   0.0220   0.0174   0.0430   0.0056  -0.0186  -0.0122   0.00    1.3
2025/04/01 00:56:30.000   39.135150698  141.132872007   117.3713   1  32   0.0216   0.0174   0.0434   0.0062  -0.0182  -0.0133   0.00    1.3
2025/04/01 00:57:00.000   39.135150745  141.132872013   117.3766   1  32   0.0223   0.0181   0.0432   0.0071  -0.0185  -0.0132   0.00    1.3
2025/04/01 00:57:30.000   39.135150655  141.132872021   117.3648   1  30   0.0216   0.0182   0.0433   0.0026  -0.0189  -0.0118   0.00    1.3
2025/04/01 00:58:00.000   39.135150682  141.132871962   117.3671   1  30   0.0221   0.0187   0.0434   0.0054  -0.0184  -0.0124   0.00    1.4
2025/04/01 00:58:30.000   39.135150746  141.132872021   117.3707   1  30   0.0212   0.0181   0.0431   0.0041  -0.0181  -0.0126   0.00    1.4
2025/04/01 00:59:00.000   39.135150712  141.132871964   117.3705   1  30   0.0217   0.0175   0.0432   0.0038  -0.0183  -0.0113   0.00    1.4
2025/04/01 00:59:30.000   39.135150712  141.132871996   117.3796   1  30   0.0220   0.0180   0.0430   0.0071  -0.0183  -0.0123   0.00    1.4
