% program    : MADOCALIB ver.2.0
% inp file   : tests/data/madocalib/MIZU00JPN_R_20250910000_01D_30S_MO.obs
% inp file   : tests/data/madocalib/BRDM00DLR_S_20250910000_01D_MN.rnx
% inp file   : tests/data/madocalib/2025091A.204.l6
% inp file   : tests/data/madocalib/2025091A.206.l6
% inp file   : tests/data/madocalib/2025091A.200.l6
% inp file   : tests/data/madocalib/2025091A.201.l6
% satantfile : 
% rcvantfile : tests/data/madocalib/igs20.atx
% obs start  : 2025/04/01 00:00:00.0 GPST (week2360 172800.0s)
% obs end    : 2025/04/01 00:59:30.0 GPST (week2360 176370.0s)
% pos mode   : PPP Kinematic
% freqs      : L1+2+3+4
% siggps     : L1/L2/L5
% sigqzs     : L1/L5/L2
% siggal     : E1/E5a/E5b/E6
% sigbds2    : B1I/B3I/B2I
% sigbds3    : B1I/B3I/B2a
% solution   : Forward
% elev mask  : 10.0 deg
% dynamics   : off
% tidecorr   : on
% ionos opt  : Estimate TEC
% tropo opt  : Estimate ZTD
% ephemeris  : Broadcast+SSR APC
% navi sys   : GPS GLONASS Galileo QZSS BDS
% amb mode   : Continuous
% ar sys     : GPS Galileo QZSS BDS
% val ratio  : 1.5
% max std pos: 1.5 m
% ionocorr   : on
% antenna1   :                       ( 0.0000  0.0000  0.0000)
%
% (lat/lon/height=WGS84/ellipsoidal,Q=1:fix,2:float,3:sbas,4:dgps,5:single,6:ppp,ns=# of satellites)
%  GPST                  latitude(deg) longitude(deg)  height(m)   Q  ns   sdn(m)   sde(m)   sdu(m)  sdne(m)  sdeu(m)  sdun(m) age(s)  ratio
2025/04/01 00:01:00.000   39.135150193  141.132871162   117.9186   6  10   0.4600   0.2568   0.9956  -0.2208   0.2836  -0.3107   0.00    0.0
2025/04/01 00:01:30.000   39.135151922  141.132870517   117.8743   6  10   0.2605   0.1810   0.6737  -0.0122   0.1331  -0.3499   1.00    1.4
2025/04/01 00:02:00.000   39.135151843  141.132870340   117.8915   6  11   0.2543   0.1766   0.6514   0.0322   0.1190  -0.3385   2.00    1.1
2025/04/01 00:02:30.000   39.135151839  141.132870404   117.8450   6  15   0.2504   0.1739   0.6371   0.0407   0.1098  -0.3307   2.00    1.1
2025/04/01 00:03:00.000   39.135151783  141.132870358   117.8131   6  15   0.2466   0.1716   0.6252   0.0446   0.1034  -0.3240   2.00    1.2
2025/04/01 00:03:30.000   39.135152006  141.132870283   117.7882   6  16   0.2439   0.1699   0.6154   0.0480   0.0972  -0.3189   2.00    1.2
2025/04/01 00:04:00.000   39.135152019  141.132870337   117.7591   6  22   0.2396   0.1677   0.6036   0.0477   0.0938  -0.3118   5.00    1.2
2025/04/01 00:04:30.000   39.135152106  141.132870381   117.7339   6  21   0.2359   0.1656   0.5927   0.0471   0.0902  -0.3063   5.00    1.4
2025/04/01 00:05:00.000   39.135152223  141.132870404   117.7576   6  21   0.2329   0.1640   0.5821   0.0473   0.0850  -0.3018   5.00    1.1
2025/04/01 00:05:30.000   39.135152141  141.132870425   117.7457   6  22   0.2301   0.1621   0.5707   0.0474   0.0786  -0.2977   5.00    1.2
2025/04/01 00:06:00.000   39.135152449  141.132870349   117.6344   6  23   0.1869   0.1471   0.4453   0.1028  -0.1291  -0.2064   7.00    2.5
2025/04/01 00:06:30.000   39.135152446  141.132870315   117.6156   6  23   0.1859   0.1454   0.4362   0.1017  -0.1306  -0.2066   6.00    1.6
2025/04/01 00:07:00.000   39.135152466  141.132870277   117.6115   6  24   0.1844   0.1438   0.4257   0.1005  -0.1319  -0.2059   7.00    2.2
2025/04/01 00:07:30.000   39.135152262  141.132870359   117.5618   6  24   0.1823   0.1423   0.4134   0.0997  -0.1324  -0.2064   9.00    2.7
2025/04/01 00:08:00.000   39.135152237  141.132870435   117.5443   6  24   0.1808   0.1408   0.4022   0.0985  -0.1328  -0.2053   9.00    3.3
2025/04/01 00:08:30.000   39.135152321  141.132870244   117.5536   6  23   0.1792   0.1396   0.3931   0.0974  -0.1318  -0.2037   9.00    3.5
2025/04/01 00:09:00.000   39.135152258  141.132870369   117.5449   6  24   0.1775   0.1381   0.3862   0.0959  -0.1312  -0.2029   9.00    2.3
2025/04/01 00:09:30.000   39.135152226  141.132870492   117.5236   6  25   0.1753   0.1369   0.3786   0.0945  -0.1305  -0.2012   9.00    2.5
2025/04/01 00:10:00.000   39.135152705  141.132869589   117.7671   1  25   0.0303   0.0248   0.1066  -0.0037  -0.0156  -0.0336   3.00    1.6
2025/04/01 00:10:30.000   39.135152160  141.132870389   117.5418   6  25   0.1702   0.1343   0.3619   0.0914  -0.1287  -0.1964   9.00    3.2
2025/04/01 00:11:00.000   39.135152195  141.132870497   117.5403   6  24   0.1673   0.1330   0.3531   0.0896  -0.1270  -0.1936   9.00    3.0
2025/04/01 00:11:30.000   39.135151865  141.132870404   117.5582   6  24   0.1644   0.1318   0.3444   0.0879  -0.1252  -0.1904   9.00    1.4
2025/04/01 00:12:00.000   39.135151826  141.132870471   117.5261   6  23   0.1616   0.1310   0.3369   0.0865  -0.1221  -0.1858   9.00    1.4
2025/04/01 00:12:30.000   39.135151868  141.132870519   117.5376   6  23   0.1582   0.1297   0.3301   0.0847  -0.1192  -0.1816   9.00    1.5
2025/04/01 00:13:00.000   39.135151801  141.132870538   117.5290   6  23   0.1550   0.1286   0.3232   0.0827  -0.1162  -0.1772   9.00    1.3
2025/04/01 00:13:30.000   39.135151731  141.132870450   117.5271   6  27   0.1515   0.1278   0.3160   0.0809  -0.1132  -0.1725   9.00    1.4
2025/04/01 00:14:00.000   39.135150670  141.132872046   117.4262   1  27   0.0257   0.0185   0.0743  -0.0075  -0.0104  -0.0264   2.00    1.6
2025/04/01 00:14:30.000   39.135150708  141.132872033   117.4260   1  27   0.0257   0.0197   0.0725  -0.0065  -0.0113  -0.0259   2.00    1.7
2025/04/01 00:15:00.000   39.135150750  141.132872010   117.4095   1  27   0.0252   0.0198   0.0712  -0.0068  -0.0128  -0.0256   2.00    1.8
2025/04/01 00:15:30.000   39.135150717  141.132871944   117.4113   1  27   0.0251   0.0199   0.0697  -0.0055  -0.0127  -0.0249   2.00    1.8
2025/04/01 00:16:00.000   39.135150700  141.132872039   117.3980   1  27   0.0250   0.0194   0.0686  -0.0068  -0.0126  -0.0243   2.00    1.8
2025/04/01 00:16:30.000   39.135150775  141.132872031   117.3653   1  27   0.0251   0.0190   0.0642  -0.0057  -0.0140  -0.0229   2.00    1.3
2025/04/01 00:17:00.000   39.135150665  141.132871962   117.3847   1  27   0.0251   0.0204   0.0636  -0.0019  -0.0146  -0.0226   2.00    1.3
2025/04/01 00:17:30.000   39.135150647  141.132872011   117.3982   1  27   0.0265   0.0194   0.0629  -0.0049  -0.0142  -0.0220   3.00    1.6
2025/04/01 00:18:00.000   39.135150887  141.132872035   117.3359   1  27   0.0234   0.0193   0.0551  -0.0050  -0.0157  -0.0192   0.00    1.5
2025/04/01 00:18:30.000   39.135150629  141.132871965   117.3866   1  28   0.0245   0.0188   0.0611  -0.0063  -0.0146  -0.0219   0.00    1.6
2025/04/01 00:19:00.000   39.135150645  141.132871901   117.3879   1  28   0.0239   0.0195   0.0600  -0.0052  -0.0135  -0.0205   0.00    1.6
2025/04/01 00:19:30.000   39.135150757  141.132872055   117.3786   1  28   0.0230   0.0190   0.0591  -0.0033  -0.0141  -0.0194   0.00    1.6
2025/04/01 00:20:00.000   39.135150801  141.132871984   117.3793   1  28   0.0231   0.0189   0.0582  -0.0063  -0.0149  -0.0186   0.00    1.7
2025/04/01 00:20:30.000   39.135150782  141.132871913   117.3896   1  28   0.0232   0.0192   0.0577  -0.0020  -0.0151  -0.0189   0.00    1.8
2025/04/01 00:21:00.000   39.135150781  141.132871959   117.3621   1  28   0.0224   0.0202   0.0573  -0.0036  -0.0158  -0.0178   0.00    1.8
2025/04/01 00:21:30.000   39.135150787  141.132872010   117.3880   1  28   0.0230   0.0188   0.0566  -0.0030  -0.0148  -0.0176   0.00    1.9
2025/04/01 00:22:00.000   39.135150663  141.132872060   117.3911   1  28   0.0226   0.0184   0.0560  -0.0046  -0.0147  -0.0185   0.00    2.0
2025/04/01 00:22:30.000   39.135150740  141.132872015   117.3845   1  28   0.0235   0.0173   0.0558  -0.0056  -0.0141  -0.0176   0.00    2.0
2025/04/01 00:23:00.000   39.135150708  141.132871946   117.3949   1  28   0.0228   0.0194   0.0527  -0.0036  -0.0151  -0.0192   0.00    1.8
2025/04/01 00:23:30.000   39.135150751  141.132872063   117.3955   1  28   0.0223   0.0196   0.0530   0.0044  -0.0144  -0.0192   0.00    1.9
2025/04/01 00:24:00.000   39.135150746  141.132871980   117.3963   1  29   0.0208   0.0183   0.0520  -0.0042  -0.0156  -0.0169   0.00    1.7
2025/04/01 00:24:30.000   39.135150778  141.132871922   117.4165   1  29   0.0209   0.0171   0.0527   0.0044  -0.0155  -0.0186   0.00    2.2
2025/04/01 00:25:00.000   39.135150754  141.132872068   117.3910   1  29   0.0215   0.0176   0.0519   0.0048  -0.0159  -0.0176   0.00    2.2
2025/04/01 00:25:30.000   39.135150761  141.132872037   117.3938   1  29   0.0208   0.0188   0.0516   0.0037  -0.0154  -0.0164   0.00    2.2
2025/04/01 00:26:00.000   39.135150737  141.132871994   117.3914   1  31   0.0213   0.0165   0.0514   0.0046  -0.0155  -0.0177   0.00    1.7
2025/04/01 00:26:30.000   39.135150682  141.132871986   117.4080   1  31   0.0207   0.0189   0.0517   0.0049  -0.0165  -0.0172   0.00    2.1
2025/04/01 00:27:00.000   39.135150673  141.132872030   117.3916   1  31   0.0210   0.0171   0.0515   0.0076  -0.0158  -0.0176   1.00    2.1
2025/04/01 00:27:30.000   39.135150693  141.132872013   117.4016   1  31   0.0213   0.0177   0.0507   0.0059  -0.0164  -0.0176   1.00    2.1
2025/04/01 00:28:00.000   39.135150798  141.132871961   117.4039   1  31   0.0201   0.0155   0.0506   0.0021  -0.0154  -0.0177   0.00    2.1
2025/04/01 00:28:30.000   39.135150804  141.132872047   117.3708   1  31   0.0207   0.0178   0.0494   0.0061  -0.0153  -0.0175   0.00    2.2
2025/04/01 00:29:00.000   39.135150747  141.132871984   117.3824   1  31   0.0205   0.0175   0.0497   0.0045  -0.0162  -0.0171   1.00    2.2
2025/04/01 00:29:30.000   39.135150722  141.132871990   117.3984   1  31   0.0197   0.0182   0.0496   0.0050  -0.0159  -0.0164   2.00    2.1
2025/04/01 00:30:00.000   39.135150728  141.132872076   117.3755   1  31   0.0203   0.0172   0.0484   0.0044  -0.0162  -0.0174   1.00    2.2
2025/04/01 00:30:30.000   39.135150797  141.132871983   117.3797   1  32   0.0201   0.0174   0.0483   0.0041  -0.0162  -0.0167   1.00    1.5
2025/04/01 00:31:00.000   39.135150819  141.132871925   117.3784   1  32   0.0200   0.0181   0.0485   0.0075  -0.0166  -0.0164   1.00    2.1
2025/04/01 00:31:30.000   39.135150759  141.132871887   117.3892   1  32   0.0196   0.0174   0.0479   0.0063  -0.0174  -0.0168   1.00    2.2
2025/04/01 00:32:00.000   39.135150707  141.132871927   117.3688   1  32   0.0203   0.0172   0.0469   0.0042  -0.0152  -0.0156   1.00    2.1
2025/04/01 00:32:30.000   39.135150754  141.132872020   117.3712   1  32   0.0198   0.0165   0.0475   0.0023  -0.0164  -0.0156   1.00    2.1
2025/04/01 00:33:00.000   39.135150740  141.132872012   117.3837   1  32   0.0188   0.0178   0.0466   0.0061  -0.0164  -0.0153   1.00    2.2
2025/04/01 00:33:30.000   39.135150816  141.132871991   117.3810   1  32   0.0215   0.0163   0.0468   0.0071  -0.0150  -0.0157   1.00    2.3
2025/04/01 00:34:00.000   39.135150831  141.132872038   117.3592   1  32   0.0208   0.0165   0.0467   0.0061  -0.0169  -0.0161   1.00    2.3
2025/04/01 00:34:30.000   39.135150718  141.132871960   117.3667   1  31   0.0207   0.0177   0.0458   0.0067  -0.0160  -0.0146   1.00    2.2
2025/04/01 00:35:00.000   39.135150825  141.132871998   117.3685   1  31   0.0208   0.0176   0.0458   0.0064  -0.0161  -0.0143   1.00    2.2
2025/04/01 00:35:30.000   39.135150777  141.132872047   117.3839   1  31   0.0209   0.0170   0.0456   0.0056  -0.0163  -0.0153   1.00    2.2
2025/04/01 00:36:00.000   39.135150673  141.132872003   117.3774   1  31   0.0207   0.0162   0.0450   0.0057  -0.0159  -0.0147   1.00    2.2
2025/04/01 00:36:30.000   39.135150726  141.132871974   117.3622   1  31   0.0202   0.0169   0.0445   0.0041  -0.0164  -0.0146   1.00    2.2
2025/04/01 00:37:00.000   39.135150780  141.132871957   117.3669   1  31   0.0219   0.0174   0.0461  -0.0047  -0.0170  -0.0116   1.00    2.3
2025/04/01 00:37:30.000   39.135150751  141.132871975   117.3567   1  31   0.0199   0.0171   0.0442   0.0042  -0.0171  -0.0114   1.00    2.1
2025/04/01 00:38:00.000   39.135150730  141.132872036   117.3563   1  31   0.0211   0.0174   0.0441   0.0050  -0.0176  -0.0126   1.00    2.1
2025/04/01 00:38:30.000   39.135150817  141.132872004   117.3636   1  31   0.0204   0.0180   0.0440   0.0066  -0.0169  -0.0121   1.00    2.1
2025/04/01 00:39:00.000   39.135150760  141.132871872   117.3735   1  31   0.0203   0.0173   0.0436   0.0064  -0.0166  -0.0129   1.00    2.0
2025/04/01 00:39:30.000   39.135150747  141.132872032   117.3609   1  31   0.0207   0.0185   0.0446   0.0041  -0.0190  -0.0111   2.00    2.1
2025/04/01 00:40:00.000   39.135150759  141.132872043   117.3616   1  31   0.0209   0.0172   0.0441   0.0051  -0.0173  -0.0126   2.00    2.1
2025/04/01 00:40:30.000   39.135150774  141.132871971   117.3735   1  31   0.0194   0.0168   0.0437   0.0065  -0.0166  -0.0121   2.00    2.3
2025/04/01 00:41:00.000   39.135150777  141.132871955   117.3498   1  31   0.0213   0.0172   0.0445   0.0061  -0.0182  -0.0109   2.00    2.2
2025/04/01 00:41:30.000   39.135150779  141.132871944   117.3575   1  31   0.0215   0.0179   0.0459   0.0030  -0.0195  -0.0127   2.00    2.1
2025/04/01 00:42:00.000   39.135150786  141.132871983   117.3713   1  31   0.0215   0.0178   0.0465   0.0002  -0.0200  -0.0108   1.00    2.1
2025/04/01 00:42:30.000   39.135150734  141.132872019   117.3500   1  31   0.0207   0.0193   0.0454   0.0053  -0.0191  -0.0120   1.00    2.2
2025/04/01 00:43:00.000   39.135150813  141.132872034   117.3721   1  31   0.0215   0.0164   0.0451   0.0054  -0.0188  -0.0109   2.00    2.1
2025/04/01 00:43:30.000   39.135150787  141.132871957   117.3656   1  31   0.0206   0.0177   0.0448   0.0057  -0.0186  -0.0147   2.00    1.4
2025/04/01 00:44:00.000   39.135150701  141.132872051   117.3577   1  31   0.0207   0.0183   0.0456   0.0068  -0.0192  -0.0136   1.00    2.2
2025/04/01 00:44:30.000   39.135150799  141.132871993   117.3824   1  31   0.0203   0.0181   0.0467   0.0058  -0.0203  -0.0110   2.00    2.1
2025/04/01 00:45:00.000   39.135150747  141.132871986   117.3747   1  31   0.0203   0.0186   0.0444   0.0063  -0.0181  -0.0142   1.00    1.3
2025/04/01 00:45:30.000   39.135150740  141.132871933   117.3772   1  31   0.0214   0.0191   0.0458   0.0064  -0.0191  -0.0102   1.00    2.2
2025/04/01 00:46:00.000   39.135150722  141.132871934   117.3765   1  31   0.0226   0.0180   0.0459   0.0010  -0.0198  -0.0124   1.00    2.2
2025/04/01 00:46:30.000   39.135150779  141.132871946   117.3790   1  31   0.0220   0.0191   0.0458   0.0049  -0.0196  -0.0120   1.00    2.2
2025/04/01 00:47:00.000   39.135150738  141.132871917   117.3637   1  31   0.0210   0.0172   0.0450   0.0060  -0.0189  -0.0124   1.00    2.2
2025/04/01 00:47:30.000   39.135150771  141.132871934   117.3722   1  32   0.0215   0.0179   0.0449   0.0060  -0.0186  -0.0138   1.00    2.2
2025/04/01 00:48:00.000   39.135150826  141.132871975   117.3678   1  32   0.0208   0.0185   0.0442   0.0053  -0.0189  -0.0138   1.00    2.2
2025/04/01 00:48:30.000   39.135150786  141.132871993   117.3761   1  32   0.0216   0.0185   0.0449   0.0040  -0.0191  -0.0131   1.00    2.3
2025/04/01 00:49:00.000   39.135150720  141.132871937   117.3618   1  32   0.0215   0.0182   0.0446   0.0062  -0.0185  -0.0122   1.00    2.2
2025/04/01 00:49:30.000   39.135150730  141.132871950   117.3687   1  32   0.0207   0.0193   0.0446  -0.0023  -0.0194  -0.0129   1.00    2.3
2025/04/01 00:50:00.000   39.135150740  141.132872032   117.3734   1  32   0.0217   0.0173   0.0443   0.0036  -0.0190  -0.0129   1.00    2.3
2025/04/01 00:50:30.000   39.135150729  141.132872028   117.3720   1  32   0.0218   0.0179   0.0441   0.0045  -0.0185  -0.0129   1.00    1.2
2025/04/01 00:51:00.000   39.135150709  141.132871955   117.3625   1  32   0.0225   0.0185   0.0441  -0.0021  -0.0191  -0.0134   0.00    1.2
2025/04/01 00:51:30.000   39.135150797  141.132871931   117.3692   1  32   0.0216   0.0181   0.0439   0.0052  -0.0187  -0.0128   0.00    1.2
2025/04/01 00:52:00.000   39.135150730  141.132872003   117.3638   1  32   0.0213   0.0195   0.0441   0.0030  -0.0186  -0.0127   0.00    1.2
2025/04/01 00:52:30.000   39.135150754  141.132871980   117.3723   1  32   0.0228   0.0173   0.0432   0.0048  -0.0183  -0.0130   0.00    1.2
2025/04/01 00:53:00.000   39.135150675  141.132871918   117.3564   1  32   0.0221   0.0176   0.0435   0.0057  -0.0187  -0.0115   0.00    1.2
2025/04/01 00:53:30.000   39.135150706  141.132871999   117.3727   1  32   0.0215   0.0184   0.0435   0.0027  -0.0194  -0.0125   0.00    1.2
2025/04/01 00:54:00.000   39.135150717  141.132871995   117.3635   1  32   0.0212   0.0182   0.0435   0.0046  -0.0184  -0.0113   0.00    1.2
2025/04/01 00:54:30.000   39.135150729  141.132872015   117.3654   1  32   0.0224   0.0181   0.0436   0.0067  -0.0188  -0.0135   0.00    1.3
2025/04/01 00:55:00.000   39.135150776  141.132871969   117.3710   1  32   0.0223   0.0182   0.0435   0.0053  -0.0184  -0.0128   0.00    1.3
2025/04/01 00:55:30.000   39.135150643  141.132871962   117.3726   1  32   0.0215   0.0181   0.0433   0.0043  -0.0185  -0.0137   0.00    1.3
2025/04/01 00:56:00.000   39.135150618  141.132871916   117.3691   1  32   0.0226   0.0192   0.0432   0.0058  -0.0185  -0.0126   0.00    1.3
2025/04/01 00:56:30.000   39.135150700  141.132872006   117.3716   1  32   0.0216   0.0193   0.0431   0.0052  -0.0181  -0.0145   0.00    1.3
2025/04/01 00:57:00.000   39.135150748  141.132872012   117.3768   1  32   0.0206   0.0186   0.0433   0.0061  -0.0179  -0.0116   0.00    1.3
2025/04/01 00:57:30.000   39.135150656  141.132872021   117.3649   1  30   0.0216   0.0182   0.0427   0.0048  -0.0183  -0.0126   0.00    1.3
2025/04/01 00:58:00.000   39.135150684  141.132871963   117.3668   1  30   0.0222   0.0174   0.0431   0.0055  -0.0184  -0.0132   0.00    1.3
2025/04/01 00:58:30.000   39.135150746  141.132872018   117.3702   1  30   0.0213   0.0171   0.0433   0.0050  -0.0182  -0.0126   0.00    1.3
2025/04/01 00:59:00.000   39.135150714  141.132871963   117.3705   1  30   0.0217   0.0175   0.0435   0.0046  -0.0185  -0.0111   0.00    1.3
2025/04/01 00:59:30.000   39.135150715  141.132871998   117.3801   1  30   0.0227   0.0181   0.0434   0.0037  -0.0185  -0.0125   0.00    1.4
