% program    : MADOCALIB ver.2.0
% inp file   : tests/data/madocalib/MIZU00JPN_R_20250910000_01D_30S_MO.obs
% inp file   : tests/data/madocalib/BRDM00DLR_S_20250910000_01D_MN.rnx
% inp file   : tests/data/madocalib/2025091A.204.l6
% inp file   : tests/data/madocalib/2025091A.206.l6
% satantfile : 
% rcvantfile : tests/data/madocalib/igs20.atx
% obs start  : 2025/04/01 00:00:00.0 GPST (week2360 172800.0s)
% obs end    : 2025/04/01 00:59:30.0 GPST (week2360 176370.0s)
% pos mode   : PPP Kinematic
% freqs      : L1+2+3+4
% siggps     : L1/L2/L5
% sigqzs     : L1/L5/L2
% siggal     : E1/E5a/E5b/E6
% sigbds2    : B1I/B3I/B2I
% sigbds3    : B1I/B3I/B2a
% solution   : Forward
% elev mask  : 10.0 deg
% dynamics   : off
% tidecorr   : on
% ionos opt  : Estimate TEC
% tropo opt  : Estimate ZTD
% ephemeris  : Broadcast+SSR APC
% navi sys   : GPS GLONASS Galileo QZSS BDS
% amb mode   : Continuous
% ar sys     : GPS Galileo QZSS BDS
% val ratio  : 1.5
% max std pos: 1.5 m
% ionocorr   : off
% antenna1   :                       ( 0.0000  0.0000  0.0000)
%
% (lat/lon/height=WGS84/ellipsoidal,Q=1:fix,2:float,3:sbas,4:dgps,5:single,6:ppp,ns=# of satellites)
%  GPST                  latitude(deg) longitude(deg)  height(m)   Q  ns   sdn(m)   sde(m)   sdu(m)  sdne(m)  sdeu(m)  sdun(m) age(s)  ratio
2025/04/01 00:01:00.000   39.135149057  141.132875697   117.9839   6  10   5.2909   3.6299   8.2561   2.4603  -3.2633  -5.4269   0.00    0.0
2025/04/01 00:01:30.000   39.135153585  141.132875399   117.0870   6  10   3.0051   1.6769   4.6588  -0.9489   0.9630  -2.6670   0.00    0.0
2025/04/01 00:02:00.000   39.135155608  141.132874640   116.4868   6  11   2.3535   1.2480   3.0294  -0.4076  -1.0191  -1.9851   0.00    0.0
2025/04/01 00:02:30.000   39.135156681  141.132873596   116.3500   6  15   1.5764   1.0831   2.1282   0.3179  -1.0083  -1.0557   0.00    0.0
2025/04/01 00:03:00.000   39.135154174  141.132872540   116.8015   6  15   1.7055   0.9848   2.3410  -0.1927  -0.7690  -1.5312   0.00    0.0
2025/04/01 00:03:30.000   39.135153648  141.132873467   116.4741   6  16   1.1858   0.8735   1.7341   0.4065  -0.7494  -1.0443   0.00    0.0
2025/04/01 00:04:00.000   39.135152975  141.132872843   116.6055   6  22   0.9584   0.7464   1.4684   0.1075  -0.5334  -0.8162   0.00    0.0
2025/04/01 00:04:30.000   39.135152810  141.132872084   116.7350   6  21   0.8381   0.6762   1.3224  -0.1356  -0.4345  -0.7261   0.00    0.0
2025/04/01 00:05:00.000   39.135151362  141.132872913   117.1216   6  21   0.8238   0.6425   1.3328  -0.2740  -0.2288  -0.7977   0.00    0.0
2025/04/01 00:05:30.000   39.135150983  141.132873186   117.2339   6  22   0.7356   0.5986   1.2156  -0.2516  -0.1976  -0.7273   0.00    0.0
2025/04/01 00:06:00.000   39.135150649  141.132872106   117.4548   1  23   0.0343   0.0248   0.1294  -0.0117   0.0055  -0.0476   2.00    2.0
2025/04/01 00:06:30.000   39.135150702  141.132872094   117.4463   1  23   0.0340   0.0244   0.1227  -0.0126   0.0030  -0.0464   0.00    1.5
2025/04/01 00:07:00.000   39.135150700  141.132872038   117.4509   1  24   0.0322   0.0233   0.1173  -0.0099  -0.0101  -0.0432   0.00    1.8
2025/04/01 00:07:30.000   39.135150547  141.132872094   117.4812   1  24   0.0289   0.0234   0.0859  -0.0075  -0.0191  -0.0295   0.00    1.7
2025/04/01 00:08:00.000   39.135150559  141.132872152   117.4773   1  24   0.0294   0.0229   0.0837  -0.0084  -0.0182  -0.0292   0.00    1.8
2025/04/01 00:08:30.000   39.135150668  141.132871958   117.4892   1  23   0.0307   0.0246   0.0843   0.0020  -0.0216  -0.0317   0.00    1.6
2025/04/01 00:09:00.000   39.135150606  141.132872041   117.4741   1  24   0.0304   0.0233   0.0829  -0.0034  -0.0207  -0.0315   0.00    1.6
2025/04/01 00:09:30.000   39.135150609  141.132872156   117.4612   1  25   0.0296   0.0238   0.0806  -0.0035  -0.0212  -0.0299   0.00    1.6
2025/04/01 00:10:00.000   39.135150669  141.132872013   117.4973   1  25   0.0287   0.0238   0.0795  -0.0028  -0.0215  -0.0281   1.00    1.7
2025/04/01 00:10:30.000   39.135150642  141.132872013   117.4844   1  25   0.0284   0.0238   0.0768   0.0029  -0.0209  -0.0271   0.00    1.4
2025/04/01 00:11:00.000   39.135150706  141.132872099   117.4653   1  24   0.0280   0.0237   0.0758  -0.0029  -0.0213  -0.0257   0.00    1.4
2025/04/01 00:11:30.000   39.135150482  141.132872044   117.4885   1  24   0.0279   0.0240   0.0746   0.0026  -0.0210  -0.0251   0.00    1.3
2025/04/01 00:12:00.000   39.135150532  141.132872131   117.4536   1  23   0.0289   0.0235   0.0740   0.0051  -0.0212  -0.0254   0.00    1.4
2025/04/01 00:12:30.000   39.135150700  141.132872128   117.4642   1  23   0.0294   0.0238   0.0724   0.0044  -0.0209  -0.0251   0.00    1.4
2025/04/01 00:13:00.000   39.135150686  141.132872111   117.4564   1  23   0.0290   0.0234   0.0718   0.0057  -0.0205  -0.0244   0.00    1.3
2025/04/01 00:13:30.000   39.135150703  141.132872005   117.4267   1  27   0.0297   0.0230   0.0796   0.0045  -0.0189  -0.0276   2.00    3.6
2025/04/01 00:14:00.000   39.135150671  141.132872045   117.4274   1  27   0.0263   0.0193   0.0747  -0.0063  -0.0114  -0.0267   2.00    2.6
2025/04/01 00:14:30.000   39.135150709  141.132872033   117.4271   1  27   0.0255   0.0198   0.0728  -0.0055  -0.0110  -0.0259   2.00    2.9
2025/04/01 00:15:00.000   39.135150826  141.132871979   117.3729   1  27   0.0249   0.0180   0.0636  -0.0070  -0.0141  -0.0200   1.00    1.5
2025/04/01 00:15:30.000   39.135150788  141.132871899   117.3598   1  27   0.0239   0.0192   0.0599  -0.0050  -0.0150  -0.0194   0.00    1.5
2025/04/01 00:16:00.000   39.135150773  141.132871993   117.3450   1  27   0.0240   0.0192   0.0587  -0.0043  -0.0152  -0.0199   0.00    1.5
2025/04/01 00:16:30.000   39.135150816  141.132872011   117.3308   1  27   0.0244   0.0200   0.0574  -0.0050  -0.0160  -0.0193   0.00    1.6
2025/04/01 00:17:00.000   39.135150709  141.132871939   117.3461   1  27   0.0242   0.0182   0.0566  -0.0064  -0.0155  -0.0190   0.00    1.6
2025/04/01 00:17:30.000   39.135150788  141.132871978   117.3585   1  27   0.0241   0.0182   0.0556  -0.0058  -0.0150  -0.0181   0.00    1.7
2025/04/01 00:18:00.000   39.135150889  141.132872034   117.3367   1  27   0.0239   0.0170   0.0549  -0.0081  -0.0146  -0.0182   0.00    1.8
2025/04/01 00:18:30.000   39.135150630  141.132871965   117.3875   1  28   0.0240   0.0186   0.0611  -0.0068  -0.0138  -0.0212   0.00    1.9
2025/04/01 00:19:00.000   39.135150646  141.132871900   117.3888   1  28   0.0242   0.0189   0.0601  -0.0058  -0.0140  -0.0198   0.00    1.9
2025/04/01 00:19:30.000   39.135150759  141.132872054   117.3795   1  28   0.0234   0.0185   0.0596  -0.0065  -0.0141  -0.0193   0.00    2.0
2025/04/01 00:20:00.000   39.135150803  141.132871984   117.3802   1  28   0.0236   0.0189   0.0588  -0.0070  -0.0148  -0.0190   0.00    2.1
2025/04/01 00:20:30.000   39.135150784  141.132871912   117.3904   1  28   0.0231   0.0196   0.0581  -0.0022  -0.0150  -0.0186   0.00    2.2
2025/04/01 00:21:00.000   39.135150782  141.132871958   117.3629   1  28   0.0227   0.0185   0.0570  -0.0056  -0.0147  -0.0179   0.00    2.2
2025/04/01 00:21:30.000   39.135150789  141.132872009   117.3888   1  28   0.0229   0.0196   0.0567  -0.0032  -0.0147  -0.0182   0.00    2.3
2025/04/01 00:22:00.000   39.135150665  141.132872059   117.3919   1  28   0.0232   0.0192   0.0562  -0.0052  -0.0156  -0.0181   0.00    2.4
2025/04/01 00:22:30.000   39.135150741  141.132872014   117.3853   1  28   0.0229   0.0196   0.0559   0.0025  -0.0149  -0.0183   0.00    2.4
2025/04/01 00:23:00.000   39.135150709  141.132871945   117.3953   1  28   0.0227   0.0191   0.0532  -0.0053  -0.0158  -0.0196   0.00    2.1
2025/04/01 00:23:30.000   39.135150758  141.132872058   117.4027   1  28   0.0224   0.0178   0.0536  -0.0048  -0.0150  -0.0190   0.00    2.6
2025/04/01 00:24:00.000   39.135150752  141.132871977   117.4037   1  29   0.0210   0.0187   0.0522  -0.0003  -0.0159  -0.0179   0.00    2.2
2025/04/01 00:24:30.000   39.135150779  141.132871921   117.4172   1  29   0.0208   0.0187   0.0528   0.0031  -0.0166  -0.0173   0.00    2.7
2025/04/01 00:25:00.000   39.135150754  141.132872067   117.3917   1  29   0.0208   0.0194   0.0521   0.0044  -0.0157  -0.0175   0.00    2.7
2025/04/01 00:25:30.000   39.135150762  141.132872036   117.3945   1  29   0.0212   0.0179   0.0517  -0.0030  -0.0145  -0.0174   0.00    2.7
2025/04/01 00:26:00.000   39.135150738  141.132871993   117.3921   1  31   0.0205   0.0166   0.0519   0.0045  -0.0154  -0.0173   0.00    2.0
2025/04/01 00:26:30.000   39.135150683  141.132871985   117.4086   1  31   0.0209   0.0174   0.0508   0.0033  -0.0162  -0.0180   0.00    2.5
2025/04/01 00:27:00.000   39.135150674  141.132872029   117.3924   1  31   0.0212   0.0166   0.0506   0.0047  -0.0152  -0.0182   0.00    2.5
2025/04/01 00:27:30.000   39.135150694  141.132872012   117.4023   1  31   0.0213   0.0170   0.0508   0.0038  -0.0156  -0.0175   1.00    2.4
2025/04/01 00:28:00.000   39.135150798  141.132871960   117.4045   1  31   0.0201   0.0175   0.0503   0.0068  -0.0151  -0.0171   0.00    2.5
2025/04/01 00:28:30.000   39.135150805  141.132872046   117.3715   1  31   0.0209   0.0162   0.0496   0.0021  -0.0159  -0.0172   0.00    2.6
2025/04/01 00:29:00.000   39.135150748  141.132871983   117.3832   1  31   0.0210   0.0163   0.0494   0.0063  -0.0149  -0.0179   0.00    2.5
2025/04/01 00:29:30.000   39.135150710  141.132871976   117.3927   1  31   0.0194   0.0167   0.0492   0.0055  -0.0151  -0.0166   0.00    2.5
2025/04/01 00:30:00.000   39.135150728  141.132872075   117.3762   1  31   0.0204   0.0168   0.0490   0.0017  -0.0155  -0.0172   1.00    2.5
2025/04/01 00:30:30.000   39.135150807  141.132871995   117.3886   1  32   0.0193   0.0169   0.0487   0.0052  -0.0174  -0.0161   1.00    1.2
2025/04/01 00:31:00.000   39.135150829  141.132871937   117.3874   1  32   0.0206   0.0175   0.0481   0.0052  -0.0163  -0.0163   1.00    1.2
2025/04/01 00:31:30.000   39.135150760  141.132871886   117.3898   1  32   0.0198   0.0168   0.0476   0.0060  -0.0174  -0.0156   1.00    2.5
2025/04/01 00:32:00.000   39.135150708  141.132871926   117.3694   1  32   0.0207   0.0170   0.0476   0.0060  -0.0156  -0.0155   1.00    2.4
2025/04/01 00:32:30.000   39.135150755  141.132872019   117.3718   1  32   0.0211   0.0180   0.0470   0.0069  -0.0155  -0.0161   1.00    2.3
2025/04/01 00:33:00.000   39.135150741  141.132872011   117.3844   1  32   0.0186   0.0170   0.0469   0.0065  -0.0162  -0.0147   1.00    2.5
2025/04/01 00:33:30.000   39.135150817  141.132871990   117.3817   1  32   0.0186   0.0155   0.0471   0.0061  -0.0156  -0.0149   1.00    2.6
2025/04/01 00:34:00.000   39.135150832  141.132872038   117.3598   1  32   0.0197   0.0183   0.0463   0.0058  -0.0169  -0.0150   1.00    2.5
2025/04/01 00:34:30.000   39.135150719  141.132871959   117.3673   1  31   0.0210   0.0156   0.0458   0.0059  -0.0166  -0.0151   1.00    2.5
2025/04/01 00:35:00.000   39.135150826  141.132871997   117.3692   1  31   0.0195   0.0171   0.0455   0.0058  -0.0164  -0.0146   1.00    2.5
2025/04/01 00:35:30.000   39.135150777  141.132872046   117.3846   1  31   0.0199   0.0172   0.0459   0.0052  -0.0164  -0.0148   1.00    2.4
2025/04/01 00:36:00.000   39.135150674  141.132872002   117.3781   1  31   0.0199   0.0155   0.0452   0.0045  -0.0160  -0.0144   1.00    2.4
2025/04/01 00:36:30.000   39.135150727  141.132871973   117.3629   1  31   0.0203   0.0172   0.0454   0.0038  -0.0169  -0.0152   1.00    2.4
2025/04/01 00:37:00.000   39.135150778  141.132871958   117.3672   1  31   0.0221   0.0183   0.0459  -0.0047  -0.0180  -0.0126   1.00    2.4
2025/04/01 00:37:30.000   39.135150750  141.132871975   117.3566   1  31   0.0204   0.0162   0.0444   0.0021  -0.0170  -0.0110   1.00    2.2
2025/04/01 00:38:00.000   39.135150729  141.132872037   117.3562   1  31   0.0210   0.0173   0.0446   0.0022  -0.0187  -0.0130   1.00    2.2
2025/04/01 00:38:30.000   39.135150816  141.132872004   117.3635   1  31   0.0198   0.0181   0.0440   0.0049  -0.0181  -0.0133   1.00    2.1
2025/04/01 00:39:00.000   39.135150759  141.132871873   117.3735   1  31   0.0209   0.0189   0.0440   0.0043  -0.0180  -0.0138   1.00    2.1
2025/04/01 00:39:30.000   39.135150749  141.132872029   117.3614   1  31   0.0217   0.0169   0.0447  -0.0033  -0.0184  -0.0113   1.00    2.2
2025/04/01 00:40:00.000   39.135150761  141.132872040   117.3621   1  31   0.0197   0.0178   0.0441   0.0063  -0.0177  -0.0112   1.00    2.2
2025/04/01 00:40:30.000   39.135150765  141.132871959   117.3699   1  31   0.0209   0.0178   0.0437   0.0054  -0.0158  -0.0120   1.00    2.2
2025/04/01 00:41:00.000   39.135150460  141.132872018   117.4615   6  31   0.0455   0.0747   0.1012   0.0225  -0.0337  -0.0429  10.00    1.2
2025/04/01 00:41:30.000   39.135150775  141.132871949   117.3567   1  31   0.0210   0.0170   0.0461   0.0068  -0.0194  -0.0129   2.00    2.2
2025/04/01 00:42:00.000   39.135150787  141.132871980   117.3717   1  31   0.0210   0.0184   0.0469   0.0045  -0.0202  -0.0115   2.00    2.2
2025/04/01 00:42:30.000   39.135150733  141.132872019   117.3499   1  31   0.0216   0.0189   0.0451   0.0052  -0.0182  -0.0111   1.00    2.2
2025/04/01 00:43:00.000   39.135150813  141.132872034   117.3720   1  31   0.0218   0.0193   0.0448   0.0044  -0.0186  -0.0116   1.00    2.2
2025/04/01 00:43:30.000   39.135150763  141.132871990   117.3601   1  31   0.0222   0.0184   0.0456   0.0043  -0.0199  -0.0141   2.00    2.4
2025/04/01 00:44:00.000   39.135150700  141.132872051   117.3576   1  31   0.0208   0.0175   0.0453   0.0080  -0.0180  -0.0122   1.00    2.2
2025/04/01 00:44:30.000   39.135150799  141.132871993   117.3824   1  31   0.0216   0.0195   0.0461   0.0054  -0.0202  -0.0127   1.00    2.2
2025/04/01 00:45:00.000   39.135150747  141.132871985   117.3748   1  31   0.0218   0.0177   0.0446   0.0060  -0.0177  -0.0138   1.00    1.3
2025/04/01 00:45:30.000   39.135150739  141.132871933   117.3771   1  31   0.0211   0.0202   0.0467   0.0034  -0.0197  -0.0110   1.00    2.3
2025/04/01 00:46:00.000   39.135150721  141.132871934   117.3764   1  31   0.0219   0.0175   0.0460   0.0066  -0.0196  -0.0116   1.00    2.3
2025/04/01 00:46:30.000   39.135150778  141.132871946   117.3789   1  31   0.0216   0.0182   0.0457   0.0043  -0.0195  -0.0128   1.00    2.3
2025/04/01 00:47:00.000   39.135150737  141.132871917   117.3635   1  31   0.0219   0.0184   0.0451   0.0040  -0.0186  -0.0128   1.00    2.3
2025/04/01 00:47:30.000   39.135150770  141.132871934   117.3720   1  32   0.0209   0.0179   0.0450   0.0072  -0.0186  -0.0143   1.00    2.3
2025/04/01 00:48:00.000   39.135150821  141.132871981   117.3669   1  32   0.0197   0.0183   0.0438   0.0054  -0.0177  -0.0136   1.00    2.1
2025/04/01 00:48:30.000   39.135150785  141.132871993   117.3759   1  32   0.0209   0.0197   0.0451  -0.0039  -0.0196  -0.0122   1.00    2.3
2025/04/01 00:49:00.000   39.135150719  141.132871937   117.3617   1  32   0.0207   0.0194   0.0445  -0.0017  -0.0191  -0.0130   1.00    2.3
2025/04/01 00:49:30.000   39.135150728  141.132871950   117.3685   1  32   0.0211   0.0184   0.0447   0.0039  -0.0191  -0.0131   1.00    2.4
2025/04/01 00:50:00.000   39.135150739  141.132872032   117.3732   1  32   0.0213   0.0188   0.0440   0.0057  -0.0184  -0.0118   1.00    2.4
2025/04/01 00:50:30.000   39.135150719  141.132872015   117.3693   1  32   0.0220   0.0178   0.0436   0.0051  -0.0188  -0.0136   0.00    1.2
2025/04/01 00:51:00.000   39.135150707  141.132871955   117.3624   1  32   0.0201   0.0191   0.0446   0.0050  -0.0189  -0.0123   0.00    1.2
2025/04/01 00:51:30.000   39.135150795  141.132871932   117.3691   1  32   0.0214   0.0183   0.0438   0.0055  -0.0187  -0.0129   0.00    1.2
2025/04/01 00:52:00.000   39.135150729  141.132872003   117.3636   1  32   0.0211   0.0181   0.0444   0.0053  -0.0190  -0.0118   0.00    1.2
2025/04/01 00:52:30.000   39.135150753  141.132871981   117.3722   1  32   0.0211   0.0186   0.0430   0.0064  -0.0186  -0.0142   0.00    1.2
2025/04/01 00:53:00.000   39.135150673  141.132871918   117.3563   1  32   0.0206   0.0190   0.0437   0.0035  -0.0183  -0.0132   0.00    1.2
2025/04/01 00:53:30.000   39.135150705  141.132871999   117.3726   1  32   0.0220   0.0186   0.0436   0.0007  -0.0191  -0.0124   0.00    1.2
2025/04/01 00:54:00.000   39.135150716  141.132871995   117.3634   1  32   0.0224   0.0180   0.0434   0.0042  -0.0188  -0.0142   0.00    1.3
2025/04/01 00:54:30.000   39.135150728  141.132872015   117.3653   1  32   0.0221   0.0193   0.0434   0.0033  -0.0193  -0.0134   0.00    1.3
2025/04/01 00:55:00.000   39.135150775  141.132871969   117.3709   1  32   0.0226   0.0188   0.0432   0.0037  -0.0183  -0.0121   0.00    1.3
2025/04/01 00:55:30.000   39.135150642  141.132871962   117.3725   1  32   0.0220   0.0187   0.0429   0.0016  -0.0181  -0.0118   0.00    1.3
2025/04/01 00:56:00.000   39.135150617  141.132871916   117.3690   1  32   0.0225   0.0178   0.0432   0.0033  -0.0190  -0.0136   0.00    1.3
2025/04/01 00:56:30.000   39.135150699  141.132872006   117.3715   1  32   0.0221   0.0180   0.0432   0.0048  -0.0187  -0.0135   0.00    1.3
2025/04/01 00:57:00.000   39.135150746  141.132872012   117.3767   1  32   0.0227   0.0192   0.0434   0.0029  -0.0189  -0.0130   0.00    1.3
2025/04/01 00:57:30.000   39.135150655  141.132872021   117.3648   1  30   0.0219   0.0199   0.0430   0.0028  -0.0180  -0.0109   0.00    1.3
2025/04/01 00:58:00.000   39.135150683  141.132871963   117.3667   1  30   0.0224   0.0183   0.0435   0.0051  -0.0182  -0.0117   0.00    1.4
2025/04/01 00:58:30.000   39.135150745  141.132872018   117.3701   1  30   0.0221   0.0177   0.0430   0.0065  -0.0178  -0.0127   0.00    1.4
2025/04/01 00:59:00.000   39.135150713  141.132871963   117.3704   1  30   0.0219   0.0196   0.0433   0.0029  -0.0182  -0.0114   0.00    1.4
2025/04/01 00:59:30.000   39.135150714  141.132871998   117.3800   1  30   0.0219   0.0186   0.0431   0.0070  -0.0178  -0.0117   0.00    1.4
