% program    : MADOCALIB ver.2.0
% inp file   : tests/data/madocalib/MIZU00JPN_R_20250910000_01D_30S_MO.obs
% inp file   : tests/data/madocalib/BRDM00DLR_S_20250910000_01D_MN.rnx
% inp file   : tests/data/madocalib/2025091A.204.l6
% inp file   : tests/data/madocalib/2025091A.206.l6
% inp file   : tests/data/madocalib/2025091A.200.l6
% inp file   : tests/data/madocalib/2025091A.201.l6
% satantfile : 
% rcvantfile : tests/data/madocalib/igs20.atx
% obs start  : 2025/04/01 00:00:00.0 GPST (week2360 172800.0s)
% obs end    : 2025/04/01 00:59:30.0 GPST (week2360 176370.0s)
% pos mode   : PPP Kinematic
% freqs      : L1+2+3+4
% siggps     : L1/L2/L5
% sigqzs     : L1/L5/L2
% siggal     : E1/E5a/E5b/E6
% sigbds2    : B1I/B3I/B2I
% sigbds3    : B1I/B3I/B2a
% solution   : Forward
% elev mask  : 10.0 deg
% dynamics   : off
% tidecorr   : on
% ionos opt  : Estimate TEC
% tropo opt  : Estimate ZTD
% ephemeris  : Broadcast+SSR APC
% navi sys   : GPS GLONASS Galileo QZSS BDS
% amb mode   : Continuous
% ar sys     : GPS Galileo QZSS BDS
% val ratio  : 1.5
% max std pos: 1.5 m
% ionocorr   : on
% antenna1   :                       ( 0.0000  0.0000  0.0000)
%
% (lat/lon/height=WGS84/ellipsoidal,Q=1:fix,2:float,3:sbas,4:dgps,5:single,6:ppp,ns=# of satellites)
%  GPST                  latitude(deg) longitude(deg)  height(m)   Q  ns   sdn(m)   sde(m)   sdu(m)  sdne(m)  sdeu(m)  sdun(m) age(s)  ratio
2025/04/01 00:01:00.000   39.135150193  141.132871162   117.9186   6  10   0.4600   0.2568   0.9956  -0.2208   0.2836  -0.3107   0.00    0.0
2025/04/01 00:01:30.000   39.135151922  141.132870517   117.8743   6  10   0.2605   0.1810   0.6737  -0.0119   0.1331  -0.3499   1.00    1.4
2025/04/01 00:02:00.000   39.135151843  141.132870340   117.8915   6  11   0.2543   0.1765   0.6514   0.0322   0.1190  -0.3385   2.00    1.1
2025/04/01 00:02:30.000   39.135151839  141.132870404   117.8450   6  15   0.2504   0.1739   0.6371   0.0407   0.1097  -0.3307   2.00    1.1
2025/04/01 00:03:00.000   39.135151784  141.132870361   117.8130   6  15   0.2466   0.1716   0.6252   0.0447   0.1034  -0.3240   2.00    1.2
2025/04/01 00:03:30.000   39.135152006  141.132870284   117.7883   6  16   0.2439   0.1699   0.6154   0.0480   0.0972  -0.3189   2.00    1.2
2025/04/01 00:04:00.000   39.135152019  141.132870337   117.7591   6  22   0.2396   0.1677   0.6036   0.0477   0.0938  -0.3118   5.00    1.2
2025/04/01 00:04:30.000   39.135152106  141.132870382   117.7339   6  21   0.2360   0.1656   0.5927   0.0471   0.0902  -0.3063   5.00    1.4
2025/04/01 00:05:00.000   39.135152223  141.132870403   117.7576   6  21   0.2329   0.1638   0.5821   0.0473   0.0850  -0.3018   5.00    1.1
2025/04/01 00:05:30.000   39.135152141  141.132870425   117.7457   6  22   0.2301   0.1622   0.5707   0.0476   0.0786  -0.2977   5.00    1.2
2025/04/01 00:06:00.000   39.135152449  141.132870351   117.6344   6  23   0.1869   0.1470   0.4454   0.1029  -0.1291  -0.2064   7.00    2.5
2025/04/01 00:06:30.000   39.135152446  141.132870315   117.6156   6  23   0.1859   0.1455   0.4362   0.1017  -0.1306  -0.2066   6.00    2.1
2025/04/01 00:07:00.000   39.135152468  141.132870276   117.6116   6  24   0.1844   0.1441   0.4257   0.1006  -0.1319  -0.2059   7.00    2.2
2025/04/01 00:07:30.000   39.135152262  141.132870360   117.5617   6  24   0.1823   0.1422   0.4134   0.0997  -0.1323  -0.2064   9.00    2.2
2025/04/01 00:08:00.000   39.135152237  141.132870436   117.5442   6  24   0.1808   0.1406   0.4023   0.0985  -0.1329  -0.2054   9.00    1.2
2025/04/01 00:08:30.000   39.135152321  141.132870244   117.5537   6  23   0.1793   0.1398   0.3930   0.0975  -0.1318  -0.2038   9.00    3.5
2025/04/01 00:09:00.000   39.135152258  141.132870370   117.5448   6  24   0.1775   0.1383   0.3862   0.0960  -0.1312  -0.2029   9.00    2.3
2025/04/01 00:09:30.000   39.135152226  141.132870492   117.5237   6  25   0.1753   0.1369   0.3786   0.0946  -0.1306  -0.2012   9.00    2.5
2025/04/01 00:10:00.000   39.135152765  141.132870704   117.6708   1  25   0.0301   0.0241   0.0826   0.0049  -0.0225  -0.0309   2.00    1.7
2025/04/01 00:10:30.000   39.135152161  141.132870389   117.5418   6  25   0.1702   0.1342   0.3618   0.0913  -0.1286  -0.1964   9.00    3.2
2025/04/01 00:11:00.000   39.135152195  141.132870497   117.5401   6  24   0.1674   0.1331   0.3532   0.0896  -0.1272  -0.1937   9.00    1.9
2025/04/01 00:11:30.000   39.135151865  141.132870402   117.5582   6  24   0.1643   0.1319   0.3445   0.0879  -0.1252  -0.1904   9.00    1.4
2025/04/01 00:12:00.000   39.135151827  141.132870472   117.5263   6  23   0.1616   0.1310   0.3369   0.0867  -0.1222  -0.1859   9.00    1.4
2025/04/01 00:12:30.000   39.135151867  141.132870517   117.5379   6  23   0.1583   0.1300   0.3301   0.0846  -0.1192  -0.1815   9.00    3.7
2025/04/01 00:13:00.000   39.135151800  141.132870537   117.5291   6  23   0.1549   0.1287   0.3232   0.0828  -0.1162  -0.1772   9.00    1.1
2025/04/01 00:13:30.000   39.135151732  141.132870449   117.5271   6  27   0.1514   0.1275   0.3160   0.0808  -0.1131  -0.1725   9.00    1.4
2025/04/01 00:14:00.000   39.135150670  141.132872049   117.4258   1  27   0.0258   0.0195   0.0743  -0.0047  -0.0114  -0.0266   2.00    1.6
2025/04/01 00:14:30.000   39.135150707  141.132872035   117.4259   1  27   0.0257   0.0180   0.0726  -0.0082  -0.0102  -0.0258   2.00    1.7
2025/04/01 00:15:00.000   39.135150751  141.132872014   117.4094   1  27   0.0253   0.0197   0.0709  -0.0074  -0.0120  -0.0251   2.00    1.8
2025/04/01 00:15:30.000   39.135150714  141.132871939   117.4111   1  27   0.0252   0.0191   0.0699  -0.0073  -0.0114  -0.0248   2.00    1.8
2025/04/01 00:16:00.000   39.135150697  141.132872034   117.3985   1  27   0.0246   0.0191   0.0688  -0.0079  -0.0134  -0.0243   2.00    1.8
2025/04/01 00:16:30.000   39.135150779  141.132872034   117.3648   1  27   0.0244   0.0176   0.0643  -0.0036  -0.0123  -0.0226   2.00    1.3
2025/04/01 00:17:00.000   39.135151207  141.132870554   117.5633   6  27   0.1258   0.1169   0.2634   0.0651  -0.0900  -0.1396  10.00    1.1
2025/04/01 00:17:30.000   39.135150752  141.132872006   117.3996   1  27   0.0240   0.0191   0.0628  -0.0047  -0.0136  -0.0219   2.00    1.4
2025/04/01 00:18:00.000   39.135150888  141.132872037   117.3353   1  27   0.0241   0.0189   0.0542  -0.0044  -0.0140  -0.0184   0.00    1.5
2025/04/01 00:18:30.000   39.135150629  141.132871957   117.3868   1  28   0.0247   0.0201   0.0610  -0.0040  -0.0133  -0.0219   0.00    1.6
2025/04/01 00:19:00.000   39.135150643  141.132871918   117.3879   1  28   0.0244   0.0203   0.0599  -0.0013  -0.0141  -0.0208   0.00    1.6
2025/04/01 00:19:30.000   39.135150760  141.132872050   117.3794   1  28   0.0237   0.0193   0.0586   0.0022  -0.0143  -0.0198   0.00    1.6
2025/04/01 00:20:00.000   39.135150798  141.132871982   117.3790   1  28   0.0231   0.0196   0.0584  -0.0049  -0.0149  -0.0192   0.00    1.7
2025/04/01 00:20:30.000   39.135150779  141.132871912   117.3898   1  28   0.0234   0.0193   0.0575  -0.0061  -0.0143  -0.0178   0.00    1.8
2025/04/01 00:21:00.000   39.135150782  141.132871951   117.3618   1  28   0.0231   0.0186   0.0565  -0.0070  -0.0135  -0.0177   0.00    1.8
2025/04/01 00:21:30.000   39.135150789  141.132872014   117.3870   1  28   0.0229   0.0183   0.0563  -0.0061  -0.0147  -0.0184   0.00    1.9
2025/04/01 00:22:00.000   39.135150665  141.132872058   117.3907   1  28   0.0232   0.0186   0.0561  -0.0037  -0.0159  -0.0179   0.00    2.0
2025/04/01 00:22:30.000   39.135150741  141.132872012   117.3846   1  28   0.0222   0.0181   0.0553  -0.0069  -0.0153  -0.0176   0.00    2.0
2025/04/01 00:23:00.000   39.135150701  141.132871939   117.3939   1  28   0.0232   0.0193   0.0537  -0.0047  -0.0160  -0.0194   0.00    1.8
2025/04/01 00:23:30.000   39.135150747  141.132872058   117.3954   1  28   0.0230   0.0184   0.0528   0.0033  -0.0141  -0.0201   0.00    1.9
2025/04/01 00:24:00.000   39.135150752  141.132871988   117.3958   1  29   0.0212   0.0186   0.0530   0.0042  -0.0164  -0.0185   0.00    1.7
2025/04/01 00:24:30.000   39.135150779  141.132871931   117.4167   1  29   0.0208   0.0180   0.0523   0.0042  -0.0158  -0.0173   0.00    2.2
2025/04/01 00:25:00.000   39.135150756  141.132872067   117.3914   1  29   0.0208   0.0181   0.0527   0.0053  -0.0156  -0.0178   0.00    2.2
2025/04/01 00:25:30.000   39.135150760  141.132872038   117.3938   1  29   0.0206   0.0180   0.0521   0.0049  -0.0158  -0.0178   0.00    2.2
2025/04/01 00:26:00.000   39.135150737  141.132872003   117.3916   1  31   0.0213   0.0175   0.0516   0.0028  -0.0165  -0.0172   0.00    1.7
2025/04/01 00:26:30.000   39.135150687  141.132871997   117.4079   1  31   0.0209   0.0176   0.0513   0.0082  -0.0161  -0.0183   0.00    2.1
2025/04/01 00:27:00.000   39.135150675  141.132872031   117.3911   1  31   0.0204   0.0155   0.0513   0.0046  -0.0155  -0.0177   1.00    2.1
2025/04/01 00:27:30.000   39.135150707  141.132872032   117.4081   1  31   0.0203   0.0163   0.0507   0.0063  -0.0151  -0.0177   2.00    1.7
2025/04/01 00:28:00.000   39.135150800  141.132871972   117.4033   1  31   0.0188   0.0168   0.0504   0.0032  -0.0153  -0.0165   0.00    2.1
2025/04/01 00:28:30.000   39.135150806  141.132872059   117.3704   1  31   0.0198   0.0146   0.0499   0.0048  -0.0154  -0.0180   0.00    2.2
2025/04/01 00:29:00.000   39.135150658  141.132871267   117.5514   6  31   0.0681   0.0864   0.1478   0.0370  -0.0509  -0.0709  10.00    1.2
2025/04/01 00:29:30.000   39.135150629  141.132871252   117.5598   6  31   0.0669   0.0858   0.1445   0.0365  -0.0511  -0.0692  10.00    1.2
2025/04/01 00:30:00.000   39.135150723  141.132872073   117.3763   1  31   0.0208   0.0159   0.0484   0.0041  -0.0159  -0.0171   1.00    2.2
2025/04/01 00:30:30.000   39.135150798  141.132871988   117.3795   1  32   0.0201   0.0191   0.0480   0.0052  -0.0159  -0.0161   1.00    1.5
2025/04/01 00:31:00.000   39.135150817  141.132871921   117.3789   1  32   0.0208   0.0178   0.0476   0.0069  -0.0162  -0.0166   1.00    2.1
2025/04/01 00:31:30.000   39.135150759  141.132871887   117.3898   1  32   0.0197   0.0174   0.0473  -0.0046  -0.0165  -0.0151   1.00    2.2
2025/04/01 00:32:00.000   39.135150704  141.132871933   117.3689   1  32   0.0212   0.0143   0.0471   0.0088  -0.0146  -0.0178   1.00    2.1
2025/04/01 00:32:30.000   39.135150767  141.132872038   117.3779   1  32   0.0208   0.0169   0.0469   0.0089  -0.0163  -0.0161   2.00    2.3
2025/04/01 00:33:00.000   39.135150742  141.132872017   117.3839   1  32   0.0207   0.0163   0.0464   0.0056  -0.0163  -0.0150   1.00    2.2
2025/04/01 00:33:30.000   39.135150813  141.132871992   117.3808   1  32   0.0197   0.0168   0.0463   0.0057  -0.0158  -0.0156   1.00    2.3
2025/04/01 00:34:00.000   39.135150834  141.132872039   117.3586   1  32   0.0195   0.0201   0.0462   0.0054  -0.0165  -0.0145   1.00    2.3
2025/04/01 00:34:30.000   39.135150719  141.132871959   117.3671   1  31   0.0214   0.0154   0.0458   0.0059  -0.0164  -0.0150   1.00    2.2
2025/04/01 00:35:00.000   39.135150826  141.132871999   117.3688   1  31   0.0195   0.0187   0.0450   0.0045  -0.0171  -0.0147   1.00    2.2
2025/04/01 00:35:30.000   39.135150774  141.132872053   117.3842   1  31   0.0206   0.0181   0.0452   0.0038  -0.0156  -0.0139   1.00    2.2
2025/04/01 00:36:00.000   39.135150664  141.132872009   117.3778   1  31   0.0201   0.0167   0.0459   0.0056  -0.0159  -0.0166   1.00    2.2
2025/04/01 00:36:30.000   39.135150727  141.132871976   117.3617   1  31   0.0190   0.0170   0.0447   0.0063  -0.0154  -0.0163   1.00    2.2
2025/04/01 00:37:00.000   39.135150778  141.132871957   117.3673   1  31   0.0227   0.0170   0.0459   0.0031  -0.0169  -0.0143   1.00    2.3
2025/04/01 00:37:30.000   39.135150753  141.132871972   117.3565   1  31   0.0199   0.0183   0.0438   0.0031  -0.0187  -0.0120   1.00    2.1
2025/04/01 00:38:00.000   39.135150725  141.132872040   117.3567   1  31   0.0199   0.0177   0.0446   0.0046  -0.0165  -0.0112   1.00    2.1
2025/04/01 00:38:30.000   39.135150816  141.132872004   117.3638   1  31   0.0203   0.0169   0.0437   0.0037  -0.0185  -0.0148   1.00    2.1
2025/04/01 00:39:00.000   39.135150762  141.132871881   117.3740   1  31   0.0200   0.0156   0.0432   0.0063  -0.0175  -0.0123   1.00    2.0
2025/04/01 00:39:30.000   39.135150472  141.132871840   117.4932   6  31   0.0477   0.0695   0.1040   0.0229  -0.0339  -0.0455  10.00    1.0
2025/04/01 00:40:00.000   39.135150486  141.132871889   117.4901   6  31   0.0460   0.0695   0.1021   0.0222  -0.0333  -0.0447  10.00    1.1
2025/04/01 00:40:30.000   39.135150767  141.132871959   117.3700   1  31   0.0207   0.0178   0.0433   0.0052  -0.0168  -0.0134   1.00    2.1
2025/04/01 00:41:00.000   39.135150784  141.132871965   117.3534   1  31   0.0214   0.0171   0.0447   0.0042  -0.0175  -0.0110   3.00    2.4
2025/04/01 00:41:30.000   39.135150779  141.132871943   117.3576   1  31   0.0204   0.0189   0.0465   0.0060  -0.0192  -0.0118   2.00    2.1
2025/04/01 00:42:00.000   39.135150786  141.132871984   117.3713   1  31   0.0208   0.0195   0.0468   0.0030  -0.0204  -0.0119   1.00    2.1
2025/04/01 00:42:30.000   39.135150735  141.132872017   117.3500   1  31   0.0206   0.0174   0.0455  -0.0018  -0.0195  -0.0116   1.00    2.2
2025/04/01 00:43:00.000   39.135150821  141.132872043   117.3754   1  31   0.0199   0.0186   0.0452  -0.0047  -0.0193  -0.0116   3.00    2.3
2025/04/01 00:43:30.000   39.135150789  141.132871959   117.3659   1  31   0.0197   0.0195   0.0445   0.0072  -0.0189  -0.0144   2.00    1.4
2025/04/01 00:44:00.000   39.135150701  141.132872049   117.3580   1  31   0.0199   0.0179   0.0450   0.0042  -0.0195  -0.0124   1.00    2.2
2025/04/01 00:44:30.000   39.135150802  141.132871990   117.3825   1  31   0.0213   0.0182   0.0461  -0.0017  -0.0200  -0.0132   2.00    2.1
2025/04/01 00:45:00.000   39.135150747  141.132871986   117.3748   1  31   0.0204   0.0179   0.0445   0.0061  -0.0176  -0.0142   1.00    1.3
2025/04/01 00:45:30.000   39.135150739  141.132871935   117.3773   1  31   0.0212   0.0180   0.0462   0.0037  -0.0201  -0.0125   1.00    2.2
2025/04/01 00:46:00.000   39.135150719  141.132871932   117.3763   1  31   0.0210   0.0198   0.0461   0.0040  -0.0202  -0.0109   1.00    2.2
2025/04/01 00:46:30.000   39.135150778  141.132871945   117.3792   1  31   0.0218   0.0191   0.0457   0.0036  -0.0205  -0.0113   1.00    2.2
2025/04/01 00:47:00.000   39.135150738  141.132871921   117.3638   1  31   0.0213   0.0171   0.0455   0.0075  -0.0191  -0.0129   1.00    2.2
2025/04/01 00:47:30.000   39.135150767  141.132871929   117.3715   1  32   0.0211   0.0176   0.0446   0.0074  -0.0189  -0.0131   1.00    2.2
2025/04/01 00:48:00.000   39.135150827  141.132871974   117.3675   1  32   0.0199   0.0176   0.0441   0.0044  -0.0182  -0.0139   1.00    2.2
2025/04/01 00:48:30.000   39.135150788  141.132871991   117.3763   1  32   0.0211   0.0190   0.0447   0.0029  -0.0187  -0.0113   1.00    2.3
2025/04/01 00:49:00.000   39.135150721  141.132871938   117.3618   1  32   0.0217   0.0181   0.0445   0.0055  -0.0195  -0.0122   1.00    2.2
2025/04/01 00:49:30.000   39.135150739  141.132871968   117.3728   1  32   0.0214   0.0182   0.0443   0.0020  -0.0197  -0.0109   1.00    1.2
2025/04/01 00:50:00.000   39.135150741  141.132872035   117.3734   1  32   0.0208   0.0182   0.0446   0.0039  -0.0202  -0.0120   1.00    2.3
2025/04/01 00:50:30.000   39.135150720  141.132872013   117.3686   1  32   0.0223   0.0170   0.0438   0.0042  -0.0183  -0.0130   1.00    2.4
2025/04/01 00:51:00.000   39.135150709  141.132871954   117.3626   1  32   0.0212   0.0201   0.0443  -0.0022  -0.0193  -0.0121   0.00    1.2
2025/04/01 00:51:30.000   39.135150797  141.132871927   117.3691   1  32   0.0215   0.0189   0.0444   0.0016  -0.0192  -0.0119   0.00    1.2
2025/04/01 00:52:00.000   39.135150730  141.132872003   117.3637   1  32   0.0213   0.0188   0.0437   0.0055  -0.0187  -0.0124   0.00    1.2
2025/04/01 00:52:30.000   39.135150753  141.132871977   117.3722   1  32   0.0199   0.0180   0.0433   0.0031  -0.0179  -0.0140   0.00    1.2
2025/04/01 00:53:00.000   39.135150674  141.132871917   117.3564   1  32   0.0227   0.0171   0.0439   0.0058  -0.0187  -0.0115   0.00    1.2
2025/04/01 00:53:30.000   39.135150706  141.132872000   117.3727   1  32   0.0203   0.0190   0.0439  -0.0024  -0.0191  -0.0123   0.00    1.2
2025/04/01 00:54:00.000   39.135150715  141.132871992   117.3633   1  32   0.0204   0.0187   0.0437   0.0032  -0.0183  -0.0137   0.00    1.2
2025/04/01 00:54:30.000   39.135150729  141.132872013   117.3650   1  32   0.0219   0.0179   0.0435   0.0062  -0.0183  -0.0137   0.00    1.3
2025/04/01 00:55:00.000   39.135150774  141.132871970   117.3710   1  32   0.0221   0.0204   0.0434   0.0038  -0.0185  -0.0119   0.00    1.3
2025/04/01 00:55:30.000   39.135150642  141.132871962   117.3726   1  32   0.0210   0.0183   0.0428   0.0008  -0.0185  -0.0132   0.00    1.3
2025/04/01 00:56:00.000   39.135150618  141.132871918   117.3690   1  32   0.0222   0.0186   0.0432   0.0037  -0.0194  -0.0129   0.00    1.3
2025/04/01 00:56:30.000   39.135150700  141.132872006   117.3715   1  32   0.0219   0.0168   0.0431   0.0059  -0.0182  -0.0132   0.00    1.3
2025/04/01 00:57:00.000   39.135150749  141.132872012   117.3768   1  32   0.0223   0.0178   0.0429   0.0052  -0.0181  -0.0123   0.00    1.3
2025/04/01 00:57:30.000   39.135150656  141.132872023   117.3652   1  30   0.0223   0.0190   0.0430   0.0060  -0.0179  -0.0127   0.00    1.3
2025/04/01 00:58:00.000   39.135150682  141.132871960   117.3666   1  30   0.0211   0.0181   0.0436   0.0050  -0.0184  -0.0117   0.00    1.3
2025/04/01 00:58:30.000   39.135150746  141.132872015   117.3708   1  30   0.0220   0.0182   0.0431   0.0025  -0.0188  -0.0128   0.00    1.3
2025/04/01 00:59:00.000   39.135150710  141.132871964   117.3699   1  30   0.0228   0.0171   0.0426   0.0042  -0.0179  -0.0132   0.00    1.3
2025/04/01 00:59:30.000   39.135150717  141.132871993   117.3804   1  30   0.0224   0.0188   0.0434   0.0028  -0.0187  -0.0122   0.00    1.4
