% program    : MADOCALIB ver.2.0
% inp file   : tests/data/madocalib/MIZU00JPN_R_20250910000_01D_30S_MO.obs
% inp file   : tests/data/madocalib/BRDM00DLR_S_20250910000_01D_MN.rnx
% inp file   : tests/data/madocalib/2025091A.204.l6
% inp file   : tests/data/madocalib/2025091A.206.l6
% satantfile : 
% rcvantfile : tests/data/madocalib/igs20.atx
% obs start  : 2025/04/01 00:00:00.0 GPST (week2360 172800.0s)
% obs end    : 2025/04/01 00:59:30.0 GPST (week2360 176370.0s)
% pos mode   : PPP Kinematic
% freqs      : L1+2
% siggps     : L1/L2/L5
% sigqzs     : L1/L5/L2
% siggal     : E1/E5a/E5b/E6
% sigbds2    : B1I/B3I/B2I
% sigbds3    : B1I/B3I/B2a
% solution   : Forward
% elev mask  : 10.0 deg
% dynamics   : off
% tidecorr   : on
% ionos opt  : Iono-Free LC
% tropo opt  : Estimate ZTD
% ephemeris  : Broadcast+SSR APC
% navi sys   : GPS GLONASS Galileo QZSS
% amb mode   : OFF
% ar sys     : GPS Galileo QZSS BDS
% val ratio  : 1.5
% max std pos: 1.5 m
% ionocorr   : off
% antenna1   :                       ( 0.0000  0.0000  0.0000)
%
% (lat/lon/height=WGS84/ellipsoidal,Q=1:fix,2:float,3:sbas,4:dgps,5:single,6:ppp,ns=# of satellites)
%  GPST                  latitude(deg) longitude(deg)  height(m)   Q  ns   sdn(m)   sde(m)   sdu(m)  sdne(m)  sdeu(m)  sdun(m) age(s)  ratio
2025/04/01 00:01:00.000   39.135147222  141.132876746   118.1864   6  10   6.1096   4.3537  10.1142   2.8855  -3.8564  -6.4790   0.00    0.0
2025/04/01 00:01:30.000   39.135155888  141.132884069   116.9642   6  10   4.1319   3.0036   6.9246   1.9142  -2.6190  -4.4842   0.00    0.0
2025/04/01 00:02:00.000   39.135158175  141.132886035   117.1723   6  11   3.1418   2.2712   5.3687   1.3433  -1.9946  -3.5192   0.00    0.0
2025/04/01 00:02:30.000   39.135155996  141.132880028   117.3222   6  15   2.4892   1.8153   4.0971   0.9679  -1.4859  -2.7442   0.00    0.0
2025/04/01 00:03:00.000   39.135151253  141.132873115   118.4777   6  15   2.0068   1.5197   3.1867   0.7320  -1.1534  -2.1805   0.00    0.0
2025/04/01 00:03:30.000   39.135152384  141.132874089   117.6685   6  15   1.6205   1.3056   2.5196   0.5700  -0.9262  -1.7421   0.00    0.0
2025/04/01 00:04:00.000   39.135154066  141.132874074   117.0886   6  15   1.3218   1.1415   2.0444   0.4612  -0.7729  -1.4151   0.00    0.0
2025/04/01 00:04:30.000   39.135153703  141.132873550   117.1565   6  14   1.0972   1.0119   1.7112   0.3898  -0.6711  -1.1789   0.00    0.0
2025/04/01 00:05:00.000   39.135150594  141.132877191   117.6935   6  14   0.9300   0.9060   1.4765   0.3443  -0.6013  -1.0103   0.00    0.0
2025/04/01 00:05:30.000   39.135149039  141.132877147   117.8359   6  14   0.8051   0.8180   1.3086   0.3154  -0.5522  -0.8893   0.00    0.0
2025/04/01 00:06:00.000   39.135151458  141.132875347   117.3976   6  13   0.7113   0.7442   1.1855   0.2962  -0.5161  -0.8016   0.00    0.0
2025/04/01 00:06:30.000   39.135150324  141.132875792   117.5115   6  13   0.6399   0.6814   1.0929   0.2837  -0.4890  -0.7367   0.00    0.0
2025/04/01 00:07:00.000   39.135150467  141.132874581   117.4997   6  13   0.5846   0.6275   1.0211   0.2751  -0.4676  -0.6875   0.00    0.0
2025/04/01 00:07:30.000   39.135151376  141.132872955   117.3505   6  13   0.5410   0.5807   0.9632   0.2686  -0.4497  -0.6489   0.00    0.0
2025/04/01 00:08:00.000   39.135151651  141.132872966   117.2236   6  13   0.5056   0.5398   0.9141   0.2627  -0.4338  -0.6169   0.00    0.0
2025/04/01 00:08:30.000   39.135150627  141.132872810   117.5093   6  13   0.4762   0.5038   0.8714   0.2572  -0.4191  -0.5896   0.00    0.0
2025/04/01 00:09:00.000   39.135150733  141.132872242   117.5133   6  14   0.4510   0.4718   0.8325   0.2516  -0.4050  -0.5651   0.00    0.0
2025/04/01 00:09:30.000   39.135151349  141.132872093   117.3772   6  14   0.4271   0.4428   0.7928   0.2444  -0.3896  -0.5398   0.00    0.0
2025/04/01 00:10:00.000   39.135151385  141.132871923   117.4461   6  14   0.4035   0.4162   0.7509   0.2352  -0.3723  -0.5127   0.00    0.0
2025/04/01 00:10:30.000   39.135150911  141.132871949   117.4968   6  14   0.3795   0.3915   0.7064   0.2239  -0.3529  -0.4834   0.00    0.0
2025/04/01 00:11:00.000   39.135150812  141.132872097   117.5560   6  13   0.3554   0.3756   0.6606   0.2132  -0.3345  -0.4529   0.00    0.0
2025/04/01 00:11:30.000   39.135149715  141.132871309   117.7092   6  13   0.3317   0.3603   0.6145   0.2017  -0.3150  -0.4220   0.00    0.0
2025/04/01 00:12:00.000   39.135150169  141.132870943   117.5643   6  12   0.3090   0.3464   0.5745   0.1902  -0.2987  -0.3918   0.00    0.0
2025/04/01 00:12:30.000   39.135150015  141.132871547   117.6230   6  12   0.2878   0.3330   0.5375   0.1792  -0.2832  -0.3637   0.00    0.0
2025/04/01 00:13:00.000   39.135150201  141.132871729   117.5523   6  12   0.2684   0.3202   0.5026   0.1687  -0.2680  -0.3373   0.00    0.0
2025/04/01 00:13:30.000   39.135150485  141.132871236   117.4848   6  16   0.2507   0.3073   0.4698   0.1583  -0.2529  -0.3127   0.00    0.0
2025/04/01 00:14:00.000   39.135150112  141.132870994   117.5560   6  16   0.2348   0.2951   0.4395   0.1490  -0.2388  -0.2904   0.00    0.0
2025/04/01 00:14:30.000   39.135149825  141.132870887   117.6204   6  16   0.2208   0.2836   0.4120   0.1409  -0.2259  -0.2702   0.00    0.0
2025/04/01 00:15:00.000   39.135149658  141.132871050   117.6497   6  16   0.2084   0.2727   0.3871   0.1338  -0.2141  -0.2521   0.00    0.0
2025/04/01 00:15:30.000   39.135149478  141.132870492   117.6722   6  16   0.1974   0.2624   0.3645   0.1277  -0.2033  -0.2358   0.00    0.0
2025/04/01 00:16:00.000   39.135149539  141.132870392   117.6390   6  16   0.1875   0.2525   0.3440   0.1225  -0.1934  -0.2213   0.00    0.0
2025/04/01 00:16:30.000   39.135149715  141.132870877   117.5710   6  16   0.1787   0.2430   0.3254   0.1180  -0.1844  -0.2083   0.00    0.0
2025/04/01 00:17:00.000   39.135149639  141.132870118   117.5958   6  16   0.1708   0.2341   0.3086   0.1142  -0.1761  -0.1966   0.00    0.0
2025/04/01 00:17:30.000   39.135149610  141.132870590   117.6496   6  16   0.1636   0.2255   0.2932   0.1109  -0.1684  -0.1861   0.00    0.0
2025/04/01 00:18:00.000   39.135149724  141.132871574   117.5892   6  16   0.1570   0.2174   0.2792   0.1080  -0.1614  -0.1766   0.00    0.0
2025/04/01 00:18:30.000   39.135149351  141.132871106   117.6650   6  17   0.1510   0.2097   0.2665   0.1054  -0.1549  -0.1680   0.00    0.0
2025/04/01 00:19:00.000   39.135149190  141.132870091   117.7120   6  17   0.1452   0.2024   0.2547   0.1030  -0.1489  -0.1601   0.00    0.0
2025/04/01 00:19:30.000   39.135149361  141.132870358   117.6872   6  17   0.1400   0.1955   0.2439   0.1009  -0.1433  -0.1529   0.00    0.0
2025/04/01 00:20:00.000   39.135149399  141.132870761   117.6906   6  17   0.1350   0.1890   0.2340   0.0988  -0.1382  -0.1464   0.00    0.0
2025/04/01 00:20:30.000   39.135149414  141.132870581   117.7241   6  17   0.1304   0.1828   0.2249   0.0969  -0.1333  -0.1404   0.00    0.0
2025/04/01 00:21:00.000   39.135149753  141.132870254   117.6165   6  17   0.1260   0.1769   0.2165   0.0951  -0.1288  -0.1349   0.00    0.0
2025/04/01 00:21:30.000   39.135149600  141.132870558   117.6757   6  17   0.1218   0.1714   0.2086   0.0932  -0.1246  -0.1298   0.00    0.0
2025/04/01 00:22:00.000   39.135149340  141.132870886   117.6989   6  17   0.1179   0.1661   0.2013   0.0915  -0.1207  -0.1251   0.00    0.0
2025/04/01 00:22:30.000   39.135149526  141.132871161   117.6945   6  17   0.1142   0.1611   0.1946   0.0898  -0.1170  -0.1207   0.00    0.0
2025/04/01 00:23:00.000   39.135149302  141.132870380   117.6933   6  17   0.1106   0.1564   0.1883   0.0880  -0.1135  -0.1166   0.00    0.0
2025/04/01 00:23:30.000   39.135149386  141.132870719   117.7014   6  17   0.1072   0.1519   0.1824   0.0864  -0.1103  -0.1127   0.00    0.0
2025/04/01 00:24:00.000   39.135149421  141.132870694   117.7005   6  18   0.1041   0.1477   0.1769   0.0847  -0.1073  -0.1092   0.00    0.0
2025/04/01 00:24:30.000   39.135149182  141.132870401   117.7546   6  18   0.1007   0.1436   0.1716   0.0831  -0.1044  -0.1056   0.00    0.0
2025/04/01 00:25:00.000   39.135149167  141.132870441   117.7133   6  18   0.0976   0.1398   0.1667   0.0815  -0.1017  -0.1024   0.00    0.0
2025/04/01 00:25:30.000   39.135149362  141.132870471   117.7035   6  18   0.0947   0.1361   0.1620   0.0799  -0.0990  -0.0993   0.00    0.0
2025/04/01 00:26:00.000   39.135149330  141.132870184   117.6937   6  20   0.0919   0.1326   0.1576   0.0782  -0.0965  -0.0963   0.00    0.0
2025/04/01 00:26:30.000   39.135149040  141.132869740   117.7472   6  20   0.0892   0.1291   0.1533   0.0766  -0.0942  -0.0936   0.00    0.0
2025/04/01 00:27:00.000   39.135149032  141.132869675   117.7214   6  20   0.0866   0.1259   0.1493   0.0750  -0.0919  -0.0910   0.00    0.0
2025/04/01 00:27:30.000   39.135149066  141.132869507   117.7442   6  20   0.0842   0.1228   0.1455   0.0734  -0.0897  -0.0886   0.00    0.0
2025/04/01 00:28:00.000   39.135149135  141.132869520   117.7570   6  20   0.0818   0.1197   0.1417   0.0718  -0.0876  -0.0862   0.00    0.0
2025/04/01 00:28:30.000   39.135149197  141.132869894   117.6981   6  20   0.0795   0.1169   0.1382   0.0703  -0.0856  -0.0839   0.00    0.0
2025/04/01 00:29:00.000   39.135149217  141.132869746   117.6835   6  20   0.0773   0.1141   0.1348   0.0687  -0.0836  -0.0818   0.00    0.0
2025/04/01 00:29:30.000   39.135149165  141.132869585   117.7063   6  20   0.0752   0.1114   0.1315   0.0672  -0.0817  -0.0797   0.00    0.0
2025/04/01 00:30:00.000   39.135149287  141.132869912   117.6705   6  20   0.0731   0.1089   0.1283   0.0657  -0.0800  -0.0778   0.00    0.0
2025/04/01 00:30:30.000   39.135149340  141.132869913   117.6792   6  21   0.0712   0.1064   0.1253   0.0643  -0.0783  -0.0759   0.00    0.0
2025/04/01 00:31:00.000   39.135149337  141.132869656   117.6733   6  21   0.0692   0.1040   0.1223   0.0629  -0.0766  -0.0740   0.00    0.0
2025/04/01 00:31:30.000   39.135149294  141.132869571   117.7007   6  21   0.0674   0.1017   0.1194   0.0615  -0.0749  -0.0722   0.00    0.0
2025/04/01 00:32:00.000   39.135149371  141.132869544   117.6546   6  21   0.0657   0.0996   0.1167   0.0601  -0.0734  -0.0705   0.00    0.0
2025/04/01 00:32:30.000   39.135149525  141.132869781   117.6443   6  21   0.0640   0.0974   0.1140   0.0588  -0.0718  -0.0688   0.00    0.0
2025/04/01 00:33:00.000   39.135149458  141.132869864   117.6652   6  21   0.0623   0.0953   0.1115   0.0575  -0.0704  -0.0673   0.00    0.0
2025/04/01 00:33:30.000   39.135149550  141.132870057   117.6716   6  21   0.0608   0.0934   0.1090   0.0562  -0.0690  -0.0658   0.00    0.0
2025/04/01 00:34:00.000   39.135149614  141.132870249   117.6274   6  21   0.0593   0.0915   0.1066   0.0550  -0.0676  -0.0642   0.00    0.0
2025/04/01 00:34:30.000   39.135149563  141.132870093   117.6258   6  20   0.0579   0.0898   0.1044   0.0538  -0.0660  -0.0629   0.00    0.0
2025/04/01 00:35:00.000   39.135149753  141.132870266   117.6205   6  20   0.0566   0.0883   0.1023   0.0527  -0.0643  -0.0614   0.00    0.0
2025/04/01 00:35:30.000   39.135149713  141.132870390   117.6418   6  20   0.0552   0.0866   0.1004   0.0517  -0.0627  -0.0598   0.00    0.0
2025/04/01 00:36:00.000   39.135149594  141.132870341   117.6290   6  20   0.0539   0.0852   0.0985   0.0507  -0.0611  -0.0584   0.00    0.0
2025/04/01 00:36:30.000   39.135149725  141.132870227   117.6017   6  20   0.0528   0.0838   0.0967   0.0497  -0.0597  -0.0571   0.00    0.0
2025/04/01 00:37:00.000   39.135149802  141.132870242   117.5928   6  20   0.0517   0.0824   0.0955   0.0485  -0.0584  -0.0555   0.00    0.0
2025/04/01 00:37:30.000   39.135149734  141.132870312   117.5977   6  20   0.0505   0.0809   0.0937   0.0477  -0.0569  -0.0545   0.00    0.0
2025/04/01 00:38:00.000   39.135149758  141.132870488   117.5875   6  20   0.0495   0.0795   0.0920   0.0468  -0.0555  -0.0533   0.00    0.0
2025/04/01 00:38:30.000   39.135149884  141.132870544   117.5930   6  20   0.0484   0.0782   0.0904   0.0458  -0.0542  -0.0521   0.00    0.0
2025/04/01 00:39:00.000   39.135149886  141.132870398   117.5895   6  20   0.0474   0.0769   0.0889   0.0449  -0.0528  -0.0510   0.00    0.0
2025/04/01 00:39:30.000   39.135149942  141.132870638   117.5630   6  20   0.0466   0.0757   0.0877   0.0438  -0.0518  -0.0497   0.00    0.0
2025/04/01 00:40:00.000   39.135150011  141.132870780   117.5633   6  20   0.0455   0.0743   0.0862   0.0430  -0.0505  -0.0487   0.00    0.0
2025/04/01 00:40:30.000   39.135150000  141.132870673   117.5665   6  20   0.0445   0.0731   0.0848   0.0422  -0.0492  -0.0479   0.00    0.0
2025/04/01 00:41:00.000   39.135150020  141.132870681   117.5378   6  20   0.0439   0.0719   0.0837   0.0412  -0.0483  -0.0467   0.00    0.0
2025/04/01 00:41:30.000   39.135150007  141.132870598   117.5466   6  20   0.0431   0.0715   0.0833   0.0410  -0.0484  -0.0465   0.00    0.0
2025/04/01 00:42:00.000   39.135150063  141.132870745   117.5566   6  20   0.0424   0.0706   0.0823   0.0402  -0.0477  -0.0453   0.00    0.0
2025/04/01 00:42:30.000   39.135150004  141.132870742   117.5276   6  20   0.0416   0.0698   0.0807   0.0395  -0.0465  -0.0443   0.00    0.0
2025/04/01 00:43:00.000   39.135150095  141.132870856   117.5535   6  20   0.0409   0.0688   0.0794   0.0389  -0.0455  -0.0435   0.00    0.0
2025/04/01 00:43:30.000   39.135150055  141.132870750   117.5291   6  20   0.0402   0.0679   0.0787   0.0383  -0.0448  -0.0431   0.00    0.0
2025/04/01 00:44:00.000   39.135149998  141.132870832   117.5299   6  20   0.0394   0.0671   0.0775   0.0377  -0.0438  -0.0423   0.00    0.0
2025/04/01 00:44:30.000   39.135150139  141.132870805   117.5527   6  20   0.0389   0.0663   0.0768   0.0369  -0.0431  -0.0412   0.00    0.0
2025/04/01 00:45:00.000   39.135150042  141.132870801   117.5453   6  20   0.0382   0.0654   0.0758   0.0362  -0.0422  -0.0403   0.00    0.0
2025/04/01 00:45:30.000   39.135150091  141.132870816   117.5346   6  20   0.0376   0.0645   0.0747   0.0357  -0.0415  -0.0397   0.00    0.0
2025/04/01 00:46:00.000   39.135150090  141.132870862   117.5309   6  20   0.0371   0.0637   0.0738   0.0350  -0.0406  -0.0390   0.00    0.0
2025/04/01 00:46:30.000   39.135150175  141.132870939   117.5237   6  20   0.0364   0.0629   0.0729   0.0344  -0.0398  -0.0383   0.00    0.0
2025/04/01 00:47:00.000   39.135150180  141.132870876   117.4954   6  20   0.0358   0.0620   0.0718   0.0339  -0.0389  -0.0377   0.00    0.0
2025/04/01 00:47:30.000   39.135150190  141.132870877   117.5080   6  21   0.0352   0.0612   0.0708   0.0334  -0.0380  -0.0372   0.00    0.0
2025/04/01 00:48:00.000   39.135150261  141.132870956   117.5018   6  21   0.0345   0.0605   0.0697   0.0327  -0.0371  -0.0365   0.00    0.0
2025/04/01 00:48:30.000   39.135150216  141.132871014   117.5119   6  21   0.0341   0.0596   0.0692   0.0319  -0.0366  -0.0355   0.00    0.0
2025/04/01 00:49:00.000   39.135150141  141.132870866   117.4877   6  21   0.0336   0.0588   0.0683   0.0313  -0.0359  -0.0351   0.00    0.0
2025/04/01 00:49:30.000   39.135150216  141.132870892   117.4829   6  21   0.0332   0.0581   0.0675   0.0308  -0.0352  -0.0345   0.00    0.0
2025/04/01 00:50:00.000   39.135150268  141.132871109   117.4876   6  21   0.0328   0.0573   0.0667   0.0303  -0.0345  -0.0339   0.00    0.0
2025/04/01 00:50:30.000   39.135150258  141.132871106   117.4758   6  21   0.0321   0.0565   0.0657   0.0298  -0.0336  -0.0334   0.00    0.0
2025/04/01 00:51:00.000   39.135150246  141.132870991   117.4584   6  21   0.0317   0.0558   0.0652   0.0292  -0.0331  -0.0326   0.00    0.0
2025/04/01 00:51:30.000   39.135150395  141.132871006   117.4598   6  21   0.0314   0.0551   0.0644   0.0286  -0.0325  -0.0322   0.00    0.0
2025/04/01 00:52:00.000   39.135150311  141.132871127   117.4555   6  21   0.0309   0.0544   0.0637   0.0280  -0.0318  -0.0316   0.00    0.0
2025/04/01 00:52:30.000   39.135150391  141.132871143   117.4640   6  21   0.0303   0.0537   0.0627   0.0277  -0.0310  -0.0313   0.00    0.0
2025/04/01 00:53:00.000   39.135150289  141.132870957   117.4351   6  21   0.0302   0.0529   0.0624   0.0271  -0.0306  -0.0307   0.00    0.0
2025/04/01 00:53:30.000   39.135150386  141.132871160   117.4505   6  21   0.0297   0.0523   0.0617   0.0267  -0.0300  -0.0301   0.00    0.0
2025/04/01 00:54:00.000   39.135150420  141.132871251   117.4332   6  21   0.0293   0.0517   0.0611   0.0262  -0.0294  -0.0297   0.00    0.0
2025/04/01 00:54:30.000   39.135150423  141.132871256   117.4373   6  21   0.0291   0.0510   0.0603   0.0255  -0.0289  -0.0293   0.00    0.0
2025/04/01 00:55:00.000   39.135150472  141.132871241   117.4440   6  21   0.0288   0.0504   0.0598   0.0251  -0.0285  -0.0288   0.00    0.0
2025/04/01 00:55:30.000   39.135150287  141.132871200   117.4463   6  21   0.0282   0.0497   0.0592   0.0247  -0.0278  -0.0283   0.00    0.0
2025/04/01 00:56:00.000   39.135150310  141.132871120   117.4314   6  21   0.0280   0.0490   0.0586   0.0243  -0.0274  -0.0280   0.00    0.0
2025/04/01 00:56:30.000   39.135150461  141.132871339   117.4357   6  21   0.0277   0.0484   0.0580   0.0239  -0.0268  -0.0277   0.00    0.0
2025/04/01 00:57:00.000   39.135150545  141.132871443   117.4333   6  21   0.0272   0.0479   0.0575   0.0234  -0.0264  -0.0271   0.00    0.0
2025/04/01 00:57:30.000   39.135150393  141.132871435   117.4186   6  19   0.0272   0.0474   0.0569   0.0229  -0.0261  -0.0268   0.00    0.0
2025/04/01 00:58:00.000   39.135150457  141.132871306   117.4134   6  19   0.0270   0.0467   0.0564   0.0226  -0.0255  -0.0265   0.00    0.0
2025/04/01 00:58:30.000   39.135150548  141.132871412   117.4171   6  19   0.0266   0.0463   0.0560   0.0221  -0.0249  -0.0261   0.00    0.0
2025/04/01 00:59:00.000   39.135150499  141.132871321   117.4140   6  19   0.0264   0.0459   0.0555   0.0218  -0.0244  -0.0255   0.00    0.0
2025/04/01 00:59:30.000   39.135150512  141.132871411   117.4272   6  19   0.0261   0.0453   0.0551   0.0216  -0.0239  -0.0253   0.00    0.0
