% program    : MADOCALIB ver.2.0
% inp file   : tests/data/madocalib/MIZU00JPN_R_20250910000_01D_30S_MO.obs
% inp file   : tests/data/madocalib/BRDM00DLR_S_20250910000_01D_MN.rnx
% inp file   : tests/data/madocalib/2025091A.204.mdc003.l6
% inp file   : tests/data/madocalib/2025091A.206.mdc003.l6
% satantfile : 
% rcvantfile : tests/data/madocalib/igs20.atx
% obs start  : 2025/04/01 00:00:00.0 GPST (week2360 172800.0s)
% obs end    : 2025/04/01 00:59:30.0 GPST (week2360 176370.0s)
% pos mode   : PPP Kinematic
% freqs      : L1+2+3+4
% siggps     : L1/L2/L5
% sigqzs     : L1/L5/L2
% siggal     : E1/E5a/E5b/E6
% sigbds2    : B1I/B3I/B2I
% sigbds3    : B1I/B3I/B2a
% solution   : Forward
% elev mask  : 10.0 deg
% dynamics   : off
% tidecorr   : on
% ionos opt  : Estimate TEC
% tropo opt  : Estimate ZTD
% ephemeris  : Broadcast+SSR APC
% navi sys   : GPS GLONASS Galileo QZSS BDS
% amb mode   : Continuous
% ar sys     : GPS Galileo QZSS BDS
% val ratio  : 1.5
% max std pos: 1.5 m
% ionocorr   : off
% antenna1   :                       ( 0.0000  0.0000  0.0000)
%
% (lat/lon/height=WGS84/ellipsoidal,Q=1:fix,2:float,3:sbas,4:dgps,5:single,6:ppp,ns=# of satellites)
%  GPST                  latitude(deg) longitude(deg)  height(m)   Q  ns   sdn(m)   sde(m)   sdu(m)  sdne(m)  sdeu(m)  sdun(m) age(s)  ratio
2025/04/01 00:00:30.000   39.135152582  141.132871651   117.7993   6  10   5.2653   3.6282   8.2354   2.4558  -3.2572  -5.3989   0.00    0.0
2025/04/01 00:01:00.000   39.135155183  141.132873930   116.8697   6  10   3.0142   1.6782   4.6508  -0.9398   0.9566  -2.6806   0.00    0.0
2025/04/01 00:01:30.000   39.135153328  141.132874717   116.5097   6  10   2.1704   1.2522   3.0630   0.4302  -0.9258  -2.0312   0.00    0.0
2025/04/01 00:02:00.000   39.135154910  141.132874588   116.3154   6  11   1.5098   1.0855   2.1244   0.5442  -0.9788  -1.2138   0.00    0.0
2025/04/01 00:02:30.000   39.135154846  141.132874049   116.3987   6  15   1.3445   0.9739   1.9358   0.4816  -0.8655  -1.1352   0.00    0.0
2025/04/01 00:03:00.000   39.135153643  141.132872848   116.6789   6  15   1.2202   0.8892   1.7858   0.4380  -0.7755  -1.0741   0.00    0.0
2025/04/01 00:03:30.000   39.135153132  141.132872955   116.7732   6  15   1.1136   0.8200   1.6558   0.4008  -0.6992  -1.0162   0.00    0.0
2025/04/01 00:04:00.000   39.135153053  141.132872836   116.8218   6  15   1.0179   0.7617   1.5389   0.3669  -0.6329  -0.9592   0.00    0.0
2025/04/01 00:04:30.000   39.135153473  141.132872279   116.8233   6  14   0.9314   0.7124   1.4344   0.3347  -0.5767  -0.9028   0.00    0.0
2025/04/01 00:05:00.000   39.135153431  141.132872642   116.9871   6  14   0.8535   0.6691   1.3406   0.3062  -0.5279  -0.8497   0.00    0.0
2025/04/01 00:05:30.000   39.135152340  141.132872902   117.1560   6  14   0.7841   0.6310   1.2577   0.2815  -0.4864  -0.8010   0.00    0.0
2025/04/01 00:06:00.000   39.135152948  141.132873096   117.0803   6  13   0.7240   0.5972   1.1856   0.2604  -0.4516  -0.7579   0.00    0.0
2025/04/01 00:06:30.000   39.135152065  141.132873294   117.2277   6  13   0.6723   0.5670   1.1232   0.2434  -0.4229  -0.7209   4.00    1.2
2025/04/01 00:07:00.000   39.135151833  141.132873235   117.2708   6  13   0.6282   0.5397   1.0695   0.2304  -0.3998  -0.6894   4.00    1.1
2025/04/01 00:07:30.000   39.135151609  141.132873089   117.2775   6  13   0.5909   0.5150   1.0234   0.2207  -0.3812  -0.6630   4.00    1.2
2025/04/01 00:08:00.000   39.135151423  141.132873195   117.2237   6  13   0.5595   0.4924   0.9835   0.2136  -0.3663  -0.6408   4.00    1.2
2025/04/01 00:08:30.000   39.135150993  141.132873039   117.3475   6  13   0.5329   0.4717   0.9486   0.2087  -0.3542  -0.6219   4.00    1.3
2025/04/01 00:09:00.000   39.135151064  141.132873019   117.3480   6  14   0.5099   0.4526   0.9168   0.2054  -0.3446  -0.6048   4.00    1.1
2025/04/01 00:09:30.000   39.135151287  141.132872873   117.3040   6  14   0.4891   0.4349   0.8860   0.2022  -0.3355  -0.5880   4.00    1.4
2025/04/01 00:10:00.000   39.135151592  141.132872625   117.3280   6  14   0.4694   0.4182   0.8549   0.1985  -0.3262  -0.5705   4.00    1.1
2025/04/01 00:10:30.000   39.135151491  141.132872605   117.3439   6  14   0.4501   0.4024   0.8223   0.1938  -0.3160  -0.5514   4.00    1.2
2025/04/01 00:11:00.000   39.135151886  141.132872755   117.3305   6  13   0.4306   0.3912   0.7879   0.1888  -0.3060  -0.5305   4.00    1.0
2025/04/01 00:11:30.000   39.135151140  141.132872517   117.4188   6  13   0.4110   0.3804   0.7519   0.1831  -0.2939  -0.5079   4.00    1.1
2025/04/01 00:12:00.000   39.135151234  141.132872437   117.3571   6  12   0.3920   0.3701   0.7177   0.1763  -0.2824  -0.4835   4.00    1.1
2025/04/01 00:12:30.000   39.135150853  141.132872487   117.4341   6  12   0.3730   0.3602   0.6849   0.1693  -0.2712  -0.4594   4.00    1.1
2025/04/01 00:13:00.000   39.135150791  141.132872538   117.4137   6  12   0.3548   0.3507   0.6528   0.1620  -0.2599  -0.4358   4.00    1.1
2025/04/01 00:13:30.000   39.135150919  141.132872349   117.3790   6  15   0.3376   0.3406   0.6213   0.1543  -0.2475  -0.4127   4.00    1.3
2025/04/01 00:14:00.000   39.135150687  141.132872103   117.4199   6  15   0.3215   0.3310   0.5911   0.1471  -0.2356  -0.3909   4.00    1.0
2025/04/01 00:14:30.000   39.135150406  141.132871964   117.4745   6  15   0.3070   0.3220   0.5627   0.1407  -0.2246  -0.3705   4.00    1.3
2025/04/01 00:15:00.000   39.135150175  141.132872051   117.5203   6  15   0.2937   0.3128   0.5361   0.1351  -0.2139  -0.3516   5.00    4.6
2025/04/01 00:15:30.000   39.135149960  141.132871790   117.5635   6  15   0.2818   0.3044   0.5115   0.1304  -0.2045  -0.3341   5.00    1.5
2025/04/01 00:16:00.000   39.135149944  141.132871647   117.5690   6  15   0.2709   0.2964   0.4886   0.1266  -0.1959  -0.3181   5.00    2.0
2025/04/01 00:16:30.000   39.135150078  141.132871751   117.5201   6  15   0.2610   0.2888   0.4675   0.1233  -0.1880  -0.3034   5.00    1.8
2025/04/01 00:17:00.000   39.135150019  141.132871408   117.5274   6  15   0.2519   0.2814   0.4481   0.1208  -0.1808  -0.2899   5.00    1.7
2025/04/01 00:17:30.000   39.135150041  141.132871540   117.5526   6  15   0.2436   0.2743   0.4301   0.1188  -0.1743  -0.2775   5.00    1.5
2025/04/01 00:18:00.000   39.135150377  141.132872034   117.4852   6  15   0.2359   0.2673   0.4135   0.1171  -0.1682  -0.2660   5.00    1.4
2025/04/01 00:18:30.000   39.135150099  141.132872033   117.5424   6  16   0.2286   0.2608   0.3980   0.1159  -0.1629  -0.2554   5.00    1.3
2025/04/01 00:19:00.000   39.135149935  141.132871562   117.5741   6  16   0.2217   0.2544   0.3835   0.1150  -0.1579  -0.2453   5.00    1.6
2025/04/01 00:19:30.000   39.135149928  141.132871582   117.5748   6  16   0.2152   0.2482   0.3702   0.1142  -0.1534  -0.2361   5.00    1.5
2025/04/01 00:20:00.000   39.135149900  141.132871738   117.5839   6  16   0.2092   0.2422   0.3579   0.1134  -0.1493  -0.2276   5.00    1.5
2025/04/01 00:20:30.000   39.135149866  141.132871635   117.6259   6  16   0.2034   0.2366   0.3464   0.1128  -0.1455  -0.2196   5.00    1.7
2025/04/01 00:21:00.000   39.135150159  141.132871574   117.5386   6  16   0.1979   0.2311   0.3358   0.1121  -0.1420  -0.2122   5.00    1.3
2025/04/01 00:21:30.000   39.135150166  141.132871695   117.5568   6  16   0.1928   0.2258   0.3258   0.1115  -0.1387  -0.2052   5.00    1.3
2025/04/01 00:22:00.000   39.135149989  141.132871854   117.5646   6  16   0.1877   0.2207   0.3165   0.1108  -0.1356  -0.1986   5.00    1.3
2025/04/01 00:22:30.000   39.135150016  141.132872028   117.5864   6  16   0.1828   0.2157   0.3078   0.1101  -0.1326  -0.1924   5.00    1.4
2025/04/01 00:23:00.000   39.135150683  141.132871858   117.3867   1  16   0.0292   0.0204   0.0666   0.0070  -0.0176  -0.0274   0.00    1.7
2025/04/01 00:23:30.000   39.135150781  141.132871998   117.3908   1  16   0.0291   0.0210   0.0664   0.0076  -0.0177  -0.0271   0.00    1.7
2025/04/01 00:24:00.000   39.135150770  141.132871906   117.3891   1  17   0.0289   0.0207   0.0661   0.0077  -0.0175  -0.0271   0.00    1.8
2025/04/01 00:24:30.000   39.135150842  141.132871856   117.4018   1  17   0.0257   0.0205   0.0651   0.0099  -0.0178  -0.0238   0.00    2.0
2025/04/01 00:25:00.000   39.135150825  141.132871970   117.3819   1  17   0.0257   0.0208   0.0645   0.0107  -0.0181  -0.0237   0.00    2.0
2025/04/01 00:25:30.000   39.135150852  141.132871936   117.3842   1  17   0.0259   0.0210   0.0642   0.0103  -0.0177  -0.0232   0.00    1.9
2025/04/01 00:26:00.000   39.135150834  141.132871942   117.3670   1  19   0.0256   0.0208   0.0641   0.0109  -0.0174  -0.0229   0.00    1.9
2025/04/01 00:26:30.000   39.135150797  141.132871913   117.3869   1  19   0.0255   0.0193   0.0636   0.0103  -0.0170  -0.0238   0.00    1.8
2025/04/01 00:27:00.000   39.135150727  141.132871958   117.3691   1  19   0.0250   0.0194   0.0633   0.0098  -0.0170  -0.0236   0.00    1.8
2025/04/01 00:27:30.000   39.135150733  141.132871950   117.3814   1  19   0.0247   0.0199   0.0630   0.0099  -0.0163  -0.0232   0.00    1.7
2025/04/01 00:28:00.000   39.135150832  141.132871900   117.3904   1  19   0.0247   0.0184   0.0626   0.0085  -0.0172  -0.0229   0.00    1.8
2025/04/01 00:28:30.000   39.135150858  141.132871976   117.3592   1  19   0.0246   0.0194   0.0619   0.0089  -0.0166  -0.0226   0.00    1.9
2025/04/01 00:29:00.000   39.135150839  141.132871922   117.3663   1  19   0.0244   0.0208   0.0612   0.0101  -0.0168  -0.0224   0.00    1.8
2025/04/01 00:29:30.000   39.135150790  141.132871905   117.3720   1  19   0.0242   0.0197   0.0608   0.0086  -0.0170  -0.0222   0.00    1.8
2025/04/01 00:30:00.000   39.135150785  141.132872016   117.3574   1  19   0.0248   0.0199   0.0603   0.0103  -0.0164  -0.0223   0.00    1.8
2025/04/01 00:30:30.000   39.135150803  141.132871940   117.3651   1  19   0.0250   0.0200   0.0604   0.0088  -0.0176  -0.0222   0.00    1.9
2025/04/01 00:31:00.000   39.135150875  141.132871904   117.3536   1  20   0.0251   0.0195   0.0601   0.0105  -0.0170  -0.0224   0.00    1.8
2025/04/01 00:31:30.000   39.135150784  141.132871823   117.3762   1  20   0.0246   0.0193   0.0590   0.0098  -0.0169  -0.0213   0.00    1.8
2025/04/01 00:32:00.000   39.135150727  141.132871818   117.3626   1  20   0.0246   0.0194   0.0576   0.0098  -0.0184  -0.0208   1.00    1.7
2025/04/01 00:32:30.000   39.135150770  141.132871906   117.3614   1  20   0.0244   0.0185   0.0571   0.0120  -0.0175  -0.0216   1.00    1.7
2025/04/01 00:33:00.000   39.135150716  141.132871904   117.3674   1  20   0.0243   0.0185   0.0569   0.0114  -0.0183  -0.0216   0.00    2.0
2025/04/01 00:33:30.000   39.135150788  141.132871894   117.3771   1  20   0.0246   0.0189   0.0558   0.0113  -0.0176  -0.0214   0.00    2.1
2025/04/01 00:34:00.000   39.135150855  141.132871964   117.3543   1  20   0.0237   0.0188   0.0550   0.0097  -0.0181  -0.0200   0.00    2.6
2025/04/01 00:34:30.000   39.135150767  141.132871890   117.3594   1  19   0.0256   0.0190   0.0547   0.0114  -0.0179  -0.0202   0.00    2.6
2025/04/01 00:35:00.000   39.135150904  141.132871946   117.3535   1  19   0.0255   0.0195   0.0547   0.0110  -0.0182  -0.0201   0.00    2.7
2025/04/01 00:35:30.000   39.135150867  141.132871967   117.3766   1  19   0.0256   0.0191   0.0542   0.0109  -0.0182  -0.0204   0.00    2.8
2025/04/01 00:36:00.000   39.135150730  141.132871940   117.3772   1  19   0.0256   0.0182   0.0540   0.0100  -0.0186  -0.0203   0.00    3.0
2025/04/01 00:36:30.000   39.135150728  141.132871946   117.3622   1  19   0.0264   0.0182   0.0535   0.0107  -0.0182  -0.0202   0.00    3.1
2025/04/01 00:37:00.000   39.135150813  141.132871934   117.3526   1  19   0.0273   0.0202   0.0544   0.0096  -0.0192  -0.0173   0.00    2.7
2025/04/01 00:37:30.000   39.135150830  141.132871893   117.3298   1  19   0.0261   0.0194   0.0512   0.0103  -0.0198  -0.0169   0.00    2.3
2025/04/01 00:38:00.000   39.135150814  141.132871950   117.3291   1  19   0.0267   0.0188   0.0510   0.0100  -0.0195  -0.0180   0.00    2.3
2025/04/01 00:38:30.000   39.135150922  141.132871976   117.3345   1  19   0.0257   0.0186   0.0507   0.0103  -0.0194  -0.0177   0.00    2.3
2025/04/01 00:39:00.000   39.135150850  141.132871819   117.3469   1  19   0.0254   0.0190   0.0502   0.0105  -0.0191  -0.0178   0.00    2.2
2025/04/01 00:39:30.000   39.135150835  141.132871961   117.3382   1  19   0.0266   0.0199   0.0515   0.0099  -0.0202  -0.0149   0.00    2.4
2025/04/01 00:40:00.000   39.135150835  141.132871992   117.3390   1  19   0.0263   0.0195   0.0510   0.0099  -0.0202  -0.0176   0.00    2.4
2025/04/01 00:40:30.000   39.135150796  141.132871929   117.3479   1  19   0.0266   0.0187   0.0501   0.0100  -0.0190  -0.0179   0.00    2.3
2025/04/01 00:41:00.000   39.135150873  141.132871906   117.3341   1  19   0.0269   0.0195   0.0514   0.0093  -0.0204  -0.0163   1.00    2.2
2025/04/01 00:41:30.000   39.135150844  141.132871867   117.3352   1  19   0.0263   0.0210   0.0539   0.0115  -0.0229  -0.0192   1.00    2.2
2025/04/01 00:42:00.000   39.135150906  141.132871898   117.3449   1  19   0.0270   0.0208   0.0546   0.0096  -0.0240  -0.0179   1.00    2.2
2025/04/01 00:42:30.000   39.135150827  141.132871914   117.3278   1  19   0.0269   0.0207   0.0529   0.0091  -0.0223  -0.0170   0.00    2.2
2025/04/01 00:43:00.000   39.135150919  141.132871966   117.3472   1  19   0.0268   0.0209   0.0520   0.0104  -0.0217  -0.0166   0.00    2.2
2025/04/01 00:43:30.000   39.135150853  141.132871900   117.3380   1  19   0.0265   0.0209   0.0536   0.0116  -0.0232  -0.0190   0.00    2.2
2025/04/01 00:44:00.000   39.135150806  141.132871965   117.3411   1  19   0.0266   0.0204   0.0530   0.0118  -0.0225  -0.0201   0.00    2.3
2025/04/01 00:44:30.000   39.135150911  141.132871925   117.3605   1  19   0.0271   0.0210   0.0544   0.0095  -0.0242  -0.0184   0.00    2.3
2025/04/01 00:45:00.000   39.135150807  141.132871960   117.3491   1  19   0.0263   0.0203   0.0523   0.0130  -0.0214  -0.0203   0.00    1.2
2025/04/01 00:45:30.000   39.135150839  141.132871880   117.3576   1  19   0.0266   0.0212   0.0543   0.0100  -0.0239  -0.0181   0.00    2.3
2025/04/01 00:46:00.000   39.135150765  141.132871882   117.3605   1  19   0.0270   0.0213   0.0544   0.0101  -0.0241  -0.0184   0.00    2.3
2025/04/01 00:46:30.000   39.135150827  141.132871898   117.3652   1  19   0.0272   0.0213   0.0543   0.0104  -0.0240  -0.0183   0.00    2.4
2025/04/01 00:47:00.000   39.135150803  141.132871900   117.3432   1  19   0.0263   0.0207   0.0533   0.0112  -0.0231  -0.0196   0.00    2.4
2025/04/01 00:47:30.000   39.135150845  141.132871892   117.3510   1  20   0.0267   0.0211   0.0528   0.0113  -0.0230  -0.0200   0.00    2.4
2025/04/01 00:48:00.000   39.135150903  141.132871958   117.3388   1  20   0.0269   0.0194   0.0516   0.0128  -0.0215  -0.0212   0.00    1.8
2025/04/01 00:48:30.000   39.135150932  141.132871942   117.3525   1  20   0.0263   0.0207   0.0529   0.0104  -0.0232  -0.0190   0.00    2.4
2025/04/01 00:49:00.000   39.135150866  141.132871887   117.3366   1  20   0.0270   0.0209   0.0525   0.0109  -0.0234  -0.0189   0.00    2.4
2025/04/01 00:49:30.000   39.135150836  141.132871882   117.3406   1  20   0.0280   0.0206   0.0521   0.0110  -0.0228  -0.0190   0.00    2.5
2025/04/01 00:50:00.000   39.135150813  141.132871928   117.3493   1  20   0.0267   0.0210   0.0523   0.0101  -0.0233  -0.0190   0.00    2.5
2025/04/01 00:50:30.000   39.135150809  141.132871942   117.3468   1  20   0.0266   0.0211   0.0513   0.0114  -0.0225  -0.0203   0.00    2.5
2025/04/01 00:51:00.000   39.135150770  141.132871914   117.3442   1  20   0.0271   0.0207   0.0519   0.0109  -0.0229  -0.0193   0.00    2.6
2025/04/01 00:51:30.000   39.135150868  141.132871879   117.3499   1  20   0.0272   0.0211   0.0518   0.0109  -0.0229  -0.0194   0.00    2.6
2025/04/01 00:52:00.000   39.135150799  141.132871920   117.3392   1  20   0.0273   0.0201   0.0518   0.0108  -0.0231  -0.0195   0.00    2.7
2025/04/01 00:52:30.000   39.135150865  141.132871923   117.3489   1  20   0.0266   0.0208   0.0508   0.0119  -0.0221  -0.0201   0.00    2.8
2025/04/01 00:53:00.000   39.135150755  141.132871858   117.3314   1  20   0.0262   0.0212   0.0516   0.0111  -0.0230  -0.0195   0.00    2.8
2025/04/01 00:53:30.000   39.135150802  141.132871902   117.3514   1  20   0.0267   0.0208   0.0512   0.0113  -0.0229  -0.0194   0.00    2.8
2025/04/01 00:54:00.000   39.135150811  141.132871911   117.3362   1  20   0.0272   0.0206   0.0514   0.0113  -0.0230  -0.0197   0.00    2.8
2025/04/01 00:54:30.000   39.135150838  141.132871960   117.3397   1  20   0.0273   0.0206   0.0512   0.0106  -0.0224  -0.0191   0.00    3.0
2025/04/01 00:55:00.000   39.135150945  141.132871956   117.3389   1  20   0.0271   0.0209   0.0509   0.0107  -0.0227  -0.0197   0.00    3.1
2025/04/01 00:55:30.000   39.135150841  141.132871940   117.3457   1  20   0.0269   0.0213   0.0509   0.0111  -0.0231  -0.0198   0.00    3.1
2025/04/01 00:56:00.000   39.135150771  141.132871873   117.3392   1  20   0.0267   0.0210   0.0511   0.0110  -0.0227  -0.0194   0.00    3.2
2025/04/01 00:56:30.000   39.135150825  141.132871936   117.3452   1  20   0.0263   0.0215   0.0509   0.0119  -0.0227  -0.0193   0.00    3.2
2025/04/01 00:57:00.000   39.135150924  141.132871934   117.3517   1  20   0.0274   0.0205   0.0506   0.0107  -0.0230  -0.0196   0.00    3.3
2025/04/01 00:57:30.000   39.135150779  141.132871941   117.3501   1  18   0.0278   0.0207   0.0511   0.0106  -0.0231  -0.0188   0.00    3.4
2025/04/01 00:58:00.000   39.135150784  141.132871885   117.3493   1  18   0.0278   0.0210   0.0510   0.0122  -0.0220  -0.0190   0.00    3.5
2025/04/01 00:58:30.000   39.135150830  141.132871937   117.3481   1  18   0.0277   0.0214   0.0509   0.0110  -0.0223  -0.0192   0.00    3.6
2025/04/01 00:59:00.000   39.135150795  141.132871863   117.3484   1  18   0.0281   0.0212   0.0510   0.0110  -0.0229  -0.0195   0.00    3.6
2025/04/01 00:59:30.000   39.135150816  141.132871896   117.3561   1  18   0.0278   0.0214   0.0509   0.0113  -0.0224  -0.0190   0.00    3.7
