$GPRMC,005942.00,A,3606.2181858,N,14005.1791158,E,0.02,0.00,151219,0.0,E,D*39
$GPGGA,005942.00,3606.2181858,N,14005.1791158,E,5,11,0.9,31.847,M,38.037,M,0.0,*7D
$GPRMC,005943.00,A,3606.2181959,N,14005.1791632,E,0.01,0.00,151219,0.0,E,D*30
$GPGGA,005943.00,3606.2181959,N,14005.1791632,E,5,11,0.9,31.800,M,38.037,M,1.0,*75
$GPRMC,005944.00,A,3606.2181756,N,14005.1791576,E,0.03,0.00,151219,0.0,E,D*37
$GPGGA,005944.00,3606.2181756,N,14005.1791576,E,5,11,0.9,31.747,M,38.037,M,2.0,*7F
$GPRMC,005945.00,A,3606.2181651,N,14005.1791437,E,0.03,0.00,151219,0.0,E,D*34
$GPGGA,005945.00,3606.2181651,N,14005.1791437,E,5,11,0.9,31.754,M,38.037,M,3.0,*7F
$GPRMC,005946.00,A,3606.2181581,N,14005.1791390,E,0.02,0.00,151219,0.0,E,D*32
$GPGGA,005946.00,3606.2181581,N,14005.1791390,E,5,11,0.9,31.753,M,38.037,M,4.0,*78
$GPRMC,005947.00,A,3606.2180265,N,14005.1791203,E,0.04,0.00,151219,0.0,E,D*32
$GPGGA,005947.00,3606.2180265,N,14005.1791203,E,4,11,0.9,31.741,M,38.037,M,0.0,*78
$GPRMC,005948.00,A,3606.2180271,N,14005.1791218,E,0.02,0.00,151219,0.0,E,D*34
$GPGGA,005948.00,3606.2180271,N,14005.1791218,E,4,11,0.9,31.739,M,38.037,M,1.0,*76
$GPRMC,005949.00,A,3606.2180272,N,14005.1791201,E,0.06,0.00,151219,0.0,E,D*3A
$GPGGA,005949.00,3606.2180272,N,14005.1791201,E,4,11,0.9,31.746,M,38.037,M,2.0,*77
$GPRMC,005950.00,A,3606.2180276,N,14005.1791195,E,0.02,0.00,151219,0.0,E,D*3C
$GPGGA,005950.00,3606.2180276,N,14005.1791195,E,4,11,0.9,31.744,M,38.037,M,3.0,*76
$GPRMC,005951.00,A,3606.2180279,N,14005.1791215,E,0.01,0.00,151219,0.0,E,D*3A
$GPGGA,005951.00,3606.2180279,N,14005.1791215,E,4,11,0.9,31.739,M,38.037,M,4.0,*7E
$GPRMC,005952.00,A,3606.2180225,N,14005.1791245,E,0.04,0.00,151219,0.0,E,D*30
$GPGGA,005952.00,3606.2180225,N,14005.1791245,E,4,11,0.9,31.750,M,38.037,M,0.0,*7A
$GPRMC,005953.00,A,3606.2180216,N,14005.1791235,E,0.02,0.00,151219,0.0,E,D*30
$GPGGA,005953.00,3606.2180216,N,14005.1791235,E,4,11,0.9,31.760,M,38.037,M,1.0,*7E
$GPRMC,005954.00,A,3606.2180217,N,14005.1791229,E,0.05,0.00,151219,0.0,E,D*3C
$GPGGA,005954.00,3606.2180217,N,14005.1791229,E,4,11,0.9,31.751,M,38.037,M,2.0,*74
$GPRMC,005955.00,A,3606.2180233,N,14005.1791222,E,0.02,0.00,151219,0.0,E,D*37
$GPGGA,005955.00,3606.2180233,N,14005.1791222,E,4,11,0.9,31.750,M,38.037,M,3.0,*78
$GPRMC,005956.00,A,3606.2180222,N,14005.1791211,E,0.03,0.00,151219,0.0,E,D*35
$GPGGA,005956.00,3606.2180222,N,14005.1791211,E,4,11,0.9,31.758,M,38.037,M,4.0,*74
$GPRMC,005957.00,A,3606.2180187,N,14005.1791193,E,0.05,0.00,151219,0.0,E,D*37
$GPGGA,005957.00,3606.2180187,N,14005.1791193,E,4,11,0.9,31.768,M,38.037,M,0.0,*77
$GPRMC,005958.00,A,3606.2180190,N,14005.1791191,E,0.02,0.00,151219,0.0,E,D*3B
$GPGGA,005958.00,3606.2180190,N,14005.1791191,E,4,11,0.9,31.761,M,38.037,M,1.0,*74
$GPRMC,005959.00,A,3606.2180196,N,14005.1791192,E,0.03,0.00,151219,0.0,E,D*3E
$GPGGA,005959.00,3606.2180196,N,14005.1791192,E,4,11,0.9,31.759,M,38.037,M,2.0,*78
$GPRMC,010000.00,A,3606.2180228,N,14005.1791173,E,0.03,0.00,151219,0.0,E,D*36
$GPGGA,010000.00,3606.2180228,N,14005.1791173,E,4,11,0.9,31.762,M,38.037,M,3.0,*79
$GPRMC,010001.00,A,3606.2180239,N,14005.1791147,E,0.01,0.00,151219,0.0,E,D*32
$GPGGA,010001.00,3606.2180239,N,14005.1791147,E,4,11,0.9,31.757,M,38.037,M,4.0,*7E
$GPRMC,010002.00,A,3606.2180202,N,14005.1791139,E,0.02,0.00,151219,0.0,E,D*33
$GPGGA,010002.00,3606.2180202,N,14005.1791139,E,4,11,0.9,31.760,M,38.037,M,0.0,*7C
$GPRMC,010003.00,A,3606.2180241,N,14005.1791095,E,0.04,0.00,151219,0.0,E,D*34
$GPGGA,010003.00,3606.2180241,N,14005.1791095,E,4,11,0.9,31.761,M,38.037,M,1.0,*7D
$GPRMC,010004.00,A,3606.2180247,N,14005.1791092,E,0.03,0.00,151219,0.0,E,D*35
$GPGGA,010004.00,3606.2180247,N,14005.1791092,E,4,11,0.9,31.753,M,38.037,M,2.0,*79
$GPRMC,010005.00,A,3606.2180231,N,14005.1791084,E,0.00,0.00,151219,0.0,E,D*31
$GPGGA,010005.00,3606.2180231,N,14005.1791084,E,4,11,0.9,31.760,M,38.037,M,3.0,*7F
$GPRMC,010006.00,A,3606.2180243,N,14005.1791076,E,0.02,0.00,151219,0.0,E,D*38
$GPGGA,010006.00,3606.2180243,N,14005.1791076,E,4,11,0.9,31.756,M,38.037,M,4.0,*76
$GPRMC,010007.00,A,3606.2180258,N,14005.1791061,E,0.03,0.00,151219,0.0,E,D*34
$GPGGA,010007.00,3606.2180258,N,14005.1791061,E,4,11,0.9,31.754,M,38.037,M,0.0,*7D
$GPRMC,010008.00,A,3606.2180258,N,14005.1791074,E,0.01,0.00,151219,0.0,E,D*3D
$GPGGA,010008.00,3606.2180258,N,14005.1791074,E,4,11,0.9,31.749,M,38.037,M,1.0,*7B
$GPRMC,010009.00,A,3606.2180267,N,14005.1791051,E,0.02,0.00,151219,0.0,E,D*34
$GPGGA,010009.00,3606.2180267,N,14005.1791051,E,4,11,0.9,31.746,M,38.037,M,2.0,*7D
$GPRMC,010010.00,A,3606.2180266,N,14005.1791034,E,0.03,0.00,151219,0.0,E,D*3F
$GPGGA,010010.00,3606.2180266,N,14005.1791034,E,4,11,0.9,31.747,M,38.037,M,3.0,*77
$GPRMC,010011.00,A,3606.2180246,N,14005.1791028,E,0.04,0.00,151219,0.0,E,D*36
$GPGGA,010011.00,3606.2180246,N,14005.1791028,E,4,11,0.9,31.749,M,38.037,M,4.0,*70
$GPRMC,010012.00,A,3606.2180256,N,14005.1791002,E,0.03,0.00,151219,0.0,E,D*3B
$GPGGA,010012.00,3606.2180256,N,14005.1791002,E,4,11,0.9,31.747,M,38.037,M,0.0,*70
$GPRMC,010013.00,A,3606.2180260,N,14005.1790985,E,0.04,0.00,151219,0.0,E,D*3F
$GPGGA,010013.00,3606.2180260,N,14005.1790985,E,4,11,0.9,31.747,M,38.037,M,1.0,*72
$GPRMC,010014.00,A,3606.2180263,N,14005.1790990,E,0.04,0.00,151219,0.0,E,D*3F
$GPGGA,010014.00,3606.2180263,N,14005.1790990,E,4,11,0.9,31.741,M,38.037,M,2.0,*77
$GPRMC,010015.00,A,3606.2180264,N,14005.1790971,E,0.04,0.00,151219,0.0,E,D*36
$GPGGA,010015.00,3606.2180264,N,14005.1790971,E,4,11,0.9,31.740,M,38.037,M,3.0,*7E
$GPRMC,010016.00,A,3606.2180241,N,14005.1790981,E,0.02,0.00,151219,0.0,E,D*3B
$GPGGA,010016.00,3606.2180241,N,14005.1790981,E,4,11,0.9,31.744,M,38.037,M,4.0,*76
$GPRMC,010017.00,A,3606.2180216,N,14005.1791019,E,0.00,0.00,151219,0.0,E,D*33
$GPGGA,010017.00,3606.2180216,N,14005.1791019,E,4,11,0.9,31.749,M,38.037,M,0.0,*75
$GPRMC,010018.00,A,3606.2180205,N,14005.1791011,E,0.04,0.00,151219,0.0,E,D*32
$GPGGA,010018.00,3606.2180205,N,14005.1791011,E,4,11,0.9,31.745,M,38.037,M,1.0,*7D
$GPRMC,010019.00,A,3606.2180231,N,14005.1790999,E,0.02,0.00,151219,0.0,E,D*3A
$GPGGA,010019.00,3606.2180231,N,14005.1790999,E,4,11,0.9,31.750,M,38.037,M,2.0,*74
$GPRMC,010020.00,A,3606.2180224,N,14005.1791000,E,0.02,0.00,151219,0.0,E,D*3C
$GPGGA,010020.00,3606.2180224,N,14005.1791000,E,4,11,0.9,31.751,M,38.037,M,3.0,*72
$GPRMC,010021.00,A,3606.2180214,N,14005.1790988,E,0.06,0.00,151219,0.0,E,D*32
$GPGGA,010021.00,3606.2180214,N,14005.1790988,E,4,11,0.9,31.752,M,38.037,M,4.0,*7C
$GPRMC,010022.00,A,3606.2180200,N,14005.1791011,E,0.01,0.00,151219,0.0,E,D*3B
$GPGGA,010022.00,3606.2180200,N,14005.1791011,E,4,11,0.9,31.747,M,38.037,M,0.0,*72
$GPRMC,010023.00,A,3606.2180205,N,14005.1791006,E,0.03,0.00,151219,0.0,E,D*3B
$GPGGA,010023.00,3606.2180205,N,14005.1791006,E,4,11,0.9,31.746,M,38.037,M,1.0,*70
$GPRMC,010024.00,A,3606.2180190,N,14005.1791012,E,0.03,0.00,151219,0.0,E,D*36
$GPGGA,010024.00,3606.2180190,N,14005.1791012,E,4,11,0.9,31.750,M,38.037,M,2.0,*79
$GPRMC,010025.00,A,3606.2180198,N,14005.1791021,E,0.01,0.00,151219,0.0,E,D*3D
$GPGGA,010025.00,3606.2180198,N,14005.1791021,E,4,11,0.9,31.747,M,38.037,M,3.0,*77
$GPRMC,010026.00,A,3606.2180200,N,14005.1791010,E,0.04,0.00,151219,0.0,E,D*3B
$GPGGA,010026.00,3606.2180200,N,14005.1791010,E,4,11,0.9,31.746,M,38.037,M,4.0,*72
$GPRMC,010027.00,A,3606.2180177,N,14005.1791115,E,0.05,0.00,151219,0.0,E,D*3C
$GPGGA,010027.00,3606.2180177,N,14005.1791115,E,4,11,0.9,31.739,M,38.037,M,0.0,*78
$GPRMC,010028.00,A,3606.2180164,N,14005.1791107,E,0.03,0.00,151219,0.0,E,D*34
$GPGGA,010028.00,3606.2180164,N,14005.1791107,E,4,11,0.9,31.742,M,38.037,M,1.0,*7B
$GPRMC,010029.00,A,3606.2180146,N,14005.1791119,E,0.06,0.00,151219,0.0,E,D*3F
$GPGGA,010029.00,3606.2180146,N,14005.1791119,E,4,11,0.9,31.744,M,38.037,M,2.0,*70
$GPRMC,010030.00,A,3606.2180132,N,14005.1791141,E,0.03,0.00,151219,0.0,E,D*3C
$GPGGA,010030.00,3606.2180132,N,14005.1791141,E,4,11,0.9,31.744,M,38.037,M,3.0,*77
$GPRMC,010031.00,A,3606.2180151,N,14005.1791115,E,0.01,0.00,151219,0.0,E,D*3B
$GPGGA,010031.00,3606.2180151,N,14005.1791115,E,4,11,0.9,31.736,M,38.037,M,4.0,*70
$GPRMC,010032.00,A,3606.2180159,N,14005.1791167,E,0.02,0.00,151219,0.0,E,D*36
$GPGGA,010032.00,3606.2180159,N,14005.1791167,E,4,11,0.9,31.746,M,38.037,M,0.0,*7D
$GPRMC,010033.00,A,3606.2180138,N,14005.1791194,E,0.03,0.00,151219,0.0,E,D*3D
$GPGGA,010033.00,3606.2180138,N,14005.1791194,E,4,11,0.9,31.742,M,38.037,M,1.0,*72
$GPRMC,010034.00,A,3606.2180158,N,14005.1791167,E,0.01,0.00,151219,0.0,E,D*32
$GPGGA,010034.00,3606.2180158,N,14005.1791167,E,4,11,0.9,31.743,M,38.037,M,2.0,*7D
$GPRMC,010035.00,A,3606.2180127,N,14005.1791160,E,0.02,0.00,151219,0.0,E,D*3F
$GPGGA,010035.00,3606.2180127,N,14005.1791160,E,4,11,0.9,31.751,M,38.037,M,3.0,*71
$GPRMC,010036.00,A,3606.2180112,N,14005.1791173,E,0.03,0.00,151219,0.0,E,D*39
$GPGGA,010036.00,3606.2180112,N,14005.1791173,E,4,11,0.9,31.754,M,38.037,M,4.0,*74
$GPRMC,010037.00,A,3606.2180129,N,14005.1791188,E,0.01,0.00,151219,0.0,E,D*36
$GPGGA,010037.00,3606.2180129,N,14005.1791188,E,4,11,0.9,31.746,M,38.037,M,0.0,*7E
$GPRMC,010038.00,A,3606.2180143,N,14005.1791177,E,0.02,0.00,151219,0.0,E,D*36
$GPGGA,010038.00,3606.2180143,N,14005.1791177,E,4,11,0.9,31.744,M,38.037,M,1.0,*7E
$GPRMC,010039.00,A,3606.2180096,N,14005.1791167,E,0.01,0.00,151219,0.0,E,D*3C
$GPGGA,010039.00,3606.2180096,N,14005.1791167,E,4,11,0.9,31.751,M,38.037,M,2.0,*70
$GPRMC,010040.00,A,3606.2180129,N,14005.1791132,E,0.04,0.00,151219,0.0,E,D*32
$GPGGA,010040.00,3606.2180129,N,14005.1791132,E,4,11,0.9,31.750,M,38.037,M,3.0,*7B
$GPRMC,010041.00,A,3606.2180136,N,14005.1791157,E,0.02,0.00,151219,0.0,E,D*38
$GPGGA,010041.00,3606.2180136,N,14005.1791157,E,4,11,0.9,31.746,M,38.037,M,4.0,*77
$GPRMC,010042.00,A,3606.2180114,N,14005.1791164,E,0.03,0.00,151219,0.0,E,D*3A
$GPGGA,010042.00,3606.2180114,N,14005.1791164,E,4,11,0.9,31.741,M,38.037,M,0.0,*77
$GPRMC,010043.00,A,3606.2180098,N,14005.1791176,E,0.02,0.00,151219,0.0,E,D*3C
$GPGGA,010043.00,3606.2180098,N,14005.1791176,E,4,11,0.9,31.745,M,38.037,M,1.0,*75
$GPRMC,010044.00,A,3606.2180086,N,14005.1791175,E,0.01,0.00,151219,0.0,E,D*34
$GPGGA,010044.00,3606.2180086,N,14005.1791175,E,4,11,0.9,31.749,M,38.037,M,2.0,*71
$GPRMC,010045.00,A,3606.2180074,N,14005.1791183,E,0.01,0.00,151219,0.0,E,D*31
$GPGGA,010045.00,3606.2180074,N,14005.1791183,E,4,11,0.9,31.751,M,38.037,M,3.0,*7C
$GPRMC,010046.00,A,3606.2180064,N,14005.1791180,E,0.03,0.00,151219,0.0,E,D*32
$GPGGA,010046.00,3606.2180064,N,14005.1791180,E,4,11,0.9,31.747,M,38.037,M,4.0,*7D
$GPRMC,010047.00,A,3606.2180087,N,14005.1791165,E,0.03,0.00,151219,0.0,E,D*35
$GPGGA,010047.00,3606.2180087,N,14005.1791165,E,4,11,0.9,31.749,M,38.037,M,0.0,*70
$GPRMC,010048.00,A,3606.2180081,N,14005.1791164,E,0.02,0.00,151219,0.0,E,D*3C
$GPGGA,010048.00,3606.2180081,N,14005.1791164,E,4,11,0.9,31.750,M,38.037,M,1.0,*71
$GPRMC,010049.00,A,3606.2180052,N,14005.1791183,E,0.06,0.00,151219,0.0,E,D*3E
$GPGGA,010049.00,3606.2180052,N,14005.1791183,E,4,11,0.9,31.759,M,38.037,M,2.0,*7D
$GPRMC,010050.00,A,3606.2180057,N,14005.1791147,E,0.02,0.00,151219,0.0,E,D*3F
$GPGGA,010050.00,3606.2180057,N,14005.1791147,E,4,11,0.9,31.759,M,38.037,M,3.0,*79
$GPRMC,010051.00,A,3606.2180075,N,14005.1791151,E,0.01,0.00,151219,0.0,E,D*3A
$GPGGA,010051.00,3606.2180075,N,14005.1791151,E,4,11,0.9,31.748,M,38.037,M,4.0,*78
$GPRMC,010052.00,A,3606.2180096,N,14005.1791157,E,0.01,0.00,151219,0.0,E,D*32
$GPGGA,010052.00,3606.2180096,N,14005.1791157,E,4,11,0.9,31.751,M,38.037,M,0.0,*7C
$GPRMC,010053.00,A,3606.2180118,N,14005.1791151,E,0.03,0.00,151219,0.0,E,D*30
$GPGGA,010053.00,3606.2180118,N,14005.1791151,E,4,11,0.9,31.756,M,38.037,M,1.0,*7A
$GPRMC,010054.00,A,3606.2180119,N,14005.1791132,E,0.04,0.00,151219,0.0,E,D*34
$GPGGA,010054.00,3606.2180119,N,14005.1791132,E,4,11,0.9,31.753,M,38.037,M,2.0,*7F
$GPRMC,010055.00,A,3606.2180127,N,14005.1791137,E,0.03,0.00,151219,0.0,E,D*3A
$GPGGA,010055.00,3606.2180127,N,14005.1791137,E,4,11,0.9,31.741,M,38.037,M,3.0,*74
$GPRMC,010056.00,A,3606.2180099,N,14005.1791142,E,0.04,0.00,151219,0.0,E,D*38
$GPGGA,010056.00,3606.2180099,N,14005.1791142,E,4,11,0.9,31.755,M,38.037,M,4.0,*73
$GPRMC,010057.00,A,3606.2180182,N,14005.1791124,E,0.05,0.00,151219,0.0,E,D*33
$GPGGA,010057.00,3606.2180182,N,14005.1791124,E,4,11,0.9,31.743,M,38.037,M,0.0,*7A
$GPRMC,010058.00,A,3606.2180167,N,14005.1791112,E,0.02,0.00,151219,0.0,E,D*35
$GPGGA,010058.00,3606.2180167,N,14005.1791112,E,4,11,0.9,31.743,M,38.037,M,1.0,*7A
$GPRMC,010059.00,A,3606.2180157,N,14005.1791135,E,0.02,0.00,151219,0.0,E,D*32
$GPGGA,010059.00,3606.2180157,N,14005.1791135,E,4,11,0.9,31.743,M,38.037,M,2.0,*7E
$GPRMC,010100.00,A,3606.2180178,N,14005.1791104,E,0.01,0.00,151219,0.0,E,D*33
$GPGGA,010100.00,3606.2180178,N,14005.1791104,E,4,11,0.9,31.742,M,38.037,M,3.0,*7C
$GPRMC,010101.00,A,3606.2180136,N,14005.1791131,E,0.01,0.00,151219,0.0,E,D*3E
$GPGGA,010101.00,3606.2180136,N,14005.1791131,E,4,11,0.9,31.753,M,38.037,M,4.0,*76
$GPRMC,010102.00,A,3606.2180171,N,14005.1791119,E,0.05,0.00,151219,0.0,E,D*30
$GPGGA,010102.00,3606.2180171,N,14005.1791119,E,4,11,0.9,31.747,M,38.037,M,0.0,*7D
$GPRMC,010103.00,A,3606.2180170,N,14005.1791133,E,0.01,0.00,151219,0.0,E,D*3C
$GPGGA,010103.00,3606.2180170,N,14005.1791133,E,4,11,0.9,31.741,M,38.037,M,1.0,*72
$GPRMC,010104.00,A,3606.2180155,N,14005.1791112,E,0.04,0.00,151219,0.0,E,D*3A
$GPGGA,010104.00,3606.2180155,N,14005.1791112,E,4,11,0.9,31.743,M,38.037,M,2.0,*70
$GPRMC,010105.00,A,3606.2180173,N,14005.1791111,E,0.02,0.00,151219,0.0,E,D*3A
$GPGGA,010105.00,3606.2180173,N,14005.1791111,E,4,11,0.9,31.738,M,38.037,M,3.0,*7B
$GPRMC,010106.00,A,3606.2180156,N,14005.1791116,E,0.01,0.00,151219,0.0,E,D*3A
$GPGGA,010106.00,3606.2180156,N,14005.1791116,E,4,11,0.9,31.743,M,38.037,M,4.0,*73
$GPRMC,010107.00,A,3606.2180152,N,14005.1791141,E,0.02,0.00,151219,0.0,E,D*3E
$GPGGA,010107.00,3606.2180152,N,14005.1791141,E,4,11,0.9,31.751,M,38.037,M,0.0,*73
$GPRMC,010108.00,A,3606.2180137,N,14005.1791144,E,0.01,0.00,151219,0.0,E,D*34
$GPGGA,010108.00,3606.2180137,N,14005.1791144,E,4,11,0.9,31.747,M,38.037,M,1.0,*7C
$GPRMC,010109.00,A,3606.2180149,N,14005.1791141,E,0.03,0.00,151219,0.0,E,D*3B
$GPGGA,010109.00,3606.2180149,N,14005.1791141,E,4,11,0.9,31.738,M,38.037,M,2.0,*7A
$GPRMC,010110.00,A,3606.2180145,N,14005.1791125,E,0.03,0.00,151219,0.0,E,D*3D
$GPGGA,010110.00,3606.2180145,N,14005.1791125,E,4,11,0.9,31.744,M,38.037,M,3.0,*76
$GPRMC,010111.00,A,3606.2180134,N,14005.1791143,E,0.04,0.00,151219,0.0,E,D*3D
$GPGGA,010111.00,3606.2180134,N,14005.1791143,E,4,11,0.9,31.754,M,38.037,M,4.0,*77
$GPRMC,010112.00,A,3606.2180133,N,14005.1791148,E,0.03,0.00,151219,0.0,E,D*35
$GPGGA,010112.00,3606.2180133,N,14005.1791148,E,4,11,0.9,31.744,M,38.037,M,0.0,*7D
$GPRMC,010113.00,A,3606.2180141,N,14005.1791142,E,0.04,0.00,151219,0.0,E,D*3C
$GPGGA,010113.00,3606.2180141,N,14005.1791142,E,4,11,0.9,31.745,M,38.037,M,1.0,*73
$GPRMC,010114.00,A,3606.2180135,N,14005.1791143,E,0.01,0.00,151219,0.0,E,D*3C
$GPGGA,010114.00,3606.2180135,N,14005.1791143,E,4,11,0.9,31.751,M,38.037,M,2.0,*70
$GPRMC,010115.00,A,3606.2180110,N,14005.1791161,E,0.02,0.00,151219,0.0,E,D*39
$GPGGA,010115.00,3606.2180110,N,14005.1791161,E,4,11,0.9,31.753,M,38.037,M,3.0,*75
$GPRMC,010116.00,A,3606.2180138,N,14005.1791164,E,0.02,0.00,151219,0.0,E,D*35
$GPGGA,010116.00,3606.2180138,N,14005.1791164,E,4,11,0.9,31.738,M,38.037,M,4.0,*73
$GPRMC,010117.00,A,3606.2180105,N,14005.1791166,E,0.02,0.00,151219,0.0,E,D*38
$GPGGA,010117.00,3606.2180105,N,14005.1791166,E,4,11,0.9,31.742,M,38.037,M,0.0,*77
$GPRMC,010118.00,A,3606.2180108,N,14005.1791169,E,0.04,0.00,151219,0.0,E,D*33
$GPGGA,010118.00,3606.2180108,N,14005.1791169,E,4,11,0.9,31.748,M,38.037,M,1.0,*71
$GPRMC,010119.00,A,3606.2180106,N,14005.1791173,E,0.02,0.00,151219,0.0,E,D*31
$GPGGA,010119.00,3606.2180106,N,14005.1791173,E,4,11,0.9,31.748,M,38.037,M,2.0,*76
$GPRMC,010120.00,A,3606.2180099,N,14005.1791173,E,0.02,0.00,151219,0.0,E,D*3C
$GPGGA,010120.00,3606.2180099,N,14005.1791173,E,4,11,0.9,31.742,M,38.037,M,3.0,*70
$GPRMC,010121.00,A,3606.2180102,N,14005.1791191,E,0.02,0.00,151219,0.0,E,D*32
$GPGGA,010121.00,3606.2180102,N,14005.1791191,E,4,11,0.9,31.743,M,38.037,M,4.0,*78
$GPRMC,010122.00,A,3606.2180094,N,14005.1791175,E,0.03,0.00,151219,0.0,E,D*34
$GPGGA,010122.00,3606.2180094,N,14005.1791175,E,4,11,0.9,31.747,M,38.037,M,0.0,*7F
$GPRMC,010123.00,A,3606.2180057,N,14005.1791214,E,0.01,0.00,151219,0.0,E,D*3C
$GPGGA,010123.00,3606.2180057,N,14005.1791214,E,4,11,0.9,31.748,M,38.037,M,1.0,*7B
$GPRMC,010124.00,A,3606.2180091,N,14005.1791194,E,0.02,0.00,151219,0.0,E,D*39
$GPGGA,010124.00,3606.2180091,N,14005.1791194,E,4,11,0.9,31.752,M,38.037,M,2.0,*75
$GPRMC,010125.00,A,3606.2180083,N,14005.1791186,E,0.06,0.00,151219,0.0,E,D*3C
$GPGGA,010125.00,3606.2180083,N,14005.1791186,E,4,11,0.9,31.754,M,38.037,M,3.0,*73
$GPRMC,010126.00,A,3606.2180069,N,14005.1791193,E,0.02,0.00,151219,0.0,E,D*3B
$GPGGA,010126.00,3606.2180069,N,14005.1791193,E,4,11,0.9,31.754,M,38.037,M,4.0,*77
$GPRMC,010127.00,A,3606.2180133,N,14005.1791167,E,0.05,0.00,151219,0.0,E,D*38
$GPGGA,010127.00,3606.2180133,N,14005.1791167,E,4,11,0.9,31.755,M,38.037,M,0.0,*76
$GPRMC,010128.00,A,3606.2180109,N,14005.1791200,E,0.01,0.00,151219,0.0,E,D*38
$GPGGA,010128.00,3606.2180109,N,14005.1791200,E,4,11,0.9,31.750,M,38.037,M,1.0,*76
$GPRMC,010129.00,A,3606.2180100,N,14005.1791182,E,0.01,0.00,151219,0.0,E,D*39
$GPGGA,010129.00,3606.2180100,N,14005.1791182,E,4,11,0.9,31.755,M,38.037,M,2.0,*71
$GPRMC,010130.00,A,3606.2180083,N,14005.1791188,E,0.06,0.00,151219,0.0,E,D*36
$GPGGA,010130.00,3606.2180083,N,14005.1791188,E,4,11,0.9,31.751,M,38.037,M,3.0,*7C
$GPRMC,010131.00,A,3606.2180117,N,14005.1791149,E,0.03,0.00,151219,0.0,E,D*33
$GPGGA,010131.00,3606.2180117,N,14005.1791149,E,4,11,0.9,31.763,M,38.037,M,4.0,*7A
$GPRMC,010132.00,A,3606.2180104,N,14005.1791160,E,0.04,0.00,151219,0.0,E,D*3E
$GPGGA,010132.00,3606.2180104,N,14005.1791160,E,4,11,0.9,31.765,M,38.037,M,0.0,*72
$GPRMC,010133.00,A,3606.2180084,N,14005.1791156,E,0.03,0.00,151219,0.0,E,D*34
$GPGGA,010133.00,3606.2180084,N,14005.1791156,E,4,11,0.9,31.761,M,38.037,M,1.0,*7A
$GPRMC,010134.00,A,3606.2180084,N,14005.1791160,E,0.03,0.00,151219,0.0,E,D*36
$GPGGA,010134.00,3606.2180084,N,14005.1791160,E,4,11,0.9,31.765,M,38.037,M,2.0,*7F
$GPRMC,010135.00,A,3606.2180082,N,14005.1791163,E,0.02,0.00,151219,0.0,E,D*33
$GPGGA,010135.00,3606.2180082,N,14005.1791163,E,4,11,0.9,31.770,M,38.037,M,3.0,*7E
$GPRMC,010136.00,A,3606.2180078,N,14005.1791155,E,0.06,0.00,151219,0.0,E,D*34
$GPGGA,010136.00,3606.2180078,N,14005.1791155,E,4,11,0.9,31.765,M,38.037,M,4.0,*7E
$GPRMC,010137.00,A,3606.2180119,N,14005.1791165,E,0.03,0.00,151219,0.0,E,D*35
$GPGGA,010137.00,3606.2180119,N,14005.1791165,E,4,11,0.9,31.756,M,38.037,M,0.0,*7E
$GPRMC,010138.00,A,3606.2180103,N,14005.1791164,E,0.01,0.00,151219,0.0,E,D*32
$GPGGA,010138.00,3606.2180103,N,14005.1791164,E,4,11,0.9,31.752,M,38.037,M,1.0,*7E
$GPRMC,010139.00,A,3606.2180079,N,14005.1791170,E,0.00,0.00,151219,0.0,E,D*3B
$GPGGA,010139.00,3606.2180079,N,14005.1791170,E,4,11,0.9,31.763,M,38.037,M,2.0,*77
$GPRMC,010140.00,A,3606.2180069,N,14005.1791157,E,0.02,0.00,151219,0.0,E,D*33
$GPGGA,010140.00,3606.2180069,N,14005.1791157,E,4,11,0.9,31.762,M,38.037,M,3.0,*7D
$GPRMC,010141.00,A,3606.2180068,N,14005.1791186,E,0.02,0.00,151219,0.0,E,D*3F
$GPGGA,010141.00,3606.2180068,N,14005.1791186,E,4,11,0.9,31.762,M,38.037,M,4.0,*76
$GPRMC,010142.00,A,3606.2180084,N,14005.1791182,E,0.04,0.00,151219,0.0,E,D*3C
$GPGGA,010142.00,3606.2180084,N,14005.1791182,E,4,11,0.9,31.760,M,38.037,M,0.0,*75
$GPRMC,010143.00,A,3606.2180062,N,14005.1791190,E,0.03,0.00,151219,0.0,E,D*31
$GPGGA,010143.00,3606.2180062,N,14005.1791190,E,4,11,0.9,31.763,M,38.037,M,1.0,*7D
$GPRMC,010144.00,A,3606.2180042,N,14005.1791214,E,0.02,0.00,151219,0.0,E,D*3A
$GPGGA,010144.00,3606.2180042,N,14005.1791214,E,4,11,0.9,31.756,M,38.037,M,2.0,*72
$GPRMC,010145.00,A,3606.2180038,N,14005.1791240,E,0.02,0.00,151219,0.0,E,D*37
$GPGGA,010145.00,3606.2180038,N,14005.1791240,E,4,11,0.9,31.769,M,38.037,M,3.0,*72
$GPRMC,010146.00,A,3606.2180030,N,14005.1791224,E,0.01,0.00,151219,0.0,E,D*3D
$GPGGA,010146.00,3606.2180030,N,14005.1791224,E,4,11,0.9,31.769,M,38.037,M,4.0,*7C
$GPRMC,010147.00,A,3606.2180086,N,14005.1791213,E,0.05,0.00,151219,0.0,E,D*31
$GPGGA,010147.00,3606.2180086,N,14005.1791213,E,4,11,0.9,31.758,M,38.037,M,0.0,*72
$GPRMC,010148.00,A,3606.2180096,N,14005.1791203,E,0.02,0.00,151219,0.0,E,D*39
$GPGGA,010148.00,3606.2180096,N,14005.1791203,E,4,11,0.9,31.755,M,38.037,M,1.0,*71
$GPRMC,010149.00,A,3606.2180093,N,14005.1791230,E,0.05,0.00,151219,0.0,E,D*3A
$GPGGA,010149.00,3606.2180093,N,14005.1791230,E,4,11,0.9,31.750,M,38.037,M,2.0,*73
$GPRMC,010150.00,A,3606.2180073,N,14005.1791230,E,0.01,0.00,151219,0.0,E,D*38
$GPGGA,010150.00,3606.2180073,N,14005.1791230,E,4,11,0.9,31.759,M,38.037,M,3.0,*7D
$GPRMC,010151.00,A,3606.2180068,N,14005.1791222,E,0.02,0.00,151219,0.0,E,D*33
$GPGGA,010151.00,3606.2180068,N,14005.1791222,E,4,11,0.9,31.756,M,38.037,M,4.0,*7D
$GPRMC,010152.00,A,3606.2180099,N,14005.1791231,E,0.05,0.00,151219,0.0,E,D*3B
$GPGGA,010152.00,3606.2180099,N,14005.1791231,E,4,11,0.9,31.752,M,38.037,M,0.0,*72
$GPRMC,010153.00,A,3606.2180124,N,14005.1791234,E,0.02,0.00,151219,0.0,E,D*3F
$GPGGA,010153.00,3606.2180124,N,14005.1791234,E,4,11,0.9,31.750,M,38.037,M,1.0,*72
$GPRMC,010154.00,A,3606.2180121,N,14005.1791225,E,0.01,0.00,151219,0.0,E,D*3E
$GPGGA,010154.00,3606.2180121,N,14005.1791225,E,4,11,0.9,31.744,M,38.037,M,2.0,*76
$GPRMC,010155.00,A,3606.2180119,N,14005.1791237,E,0.01,0.00,151219,0.0,E,D*37
$GPGGA,010155.00,3606.2180119,N,14005.1791237,E,4,11,0.9,31.746,M,38.037,M,3.0,*7C
$GPRMC,010156.00,A,3606.2180124,N,14005.1791223,E,0.01,0.00,151219,0.0,E,D*3F
$GPGGA,010156.00,3606.2180124,N,14005.1791223,E,4,11,0.9,31.751,M,38.037,M,4.0,*75
$GPRMC,010157.00,A,3606.2180176,N,14005.1791173,E,0.03,0.00,151219,0.0,E,D*3D
$GPGGA,010157.00,3606.2180176,N,14005.1791173,E,4,11,0.9,31.748,M,38.037,M,0.0,*79
$GPRMC,010158.00,A,3606.2180160,N,14005.1791190,E,0.05,0.00,151219,0.0,E,D*3E
$GPGGA,010158.00,3606.2180160,N,14005.1791190,E,4,11,0.9,31.752,M,38.037,M,1.0,*76
$GPRMC,010159.00,A,3606.2180162,N,14005.1791167,E,0.02,0.00,151219,0.0,E,D*32
$GPGGA,010159.00,3606.2180162,N,14005.1791167,E,4,11,0.9,31.751,M,38.037,M,2.0,*7D
$GPRMC,010200.00,A,3606.2180149,N,14005.1791189,E,0.04,0.00,151219,0.0,E,D*32
$GPGGA,010200.00,3606.2180149,N,14005.1791189,E,4,11,0.9,31.764,M,38.037,M,3.0,*7C
$GPRMC,010201.00,A,3606.2180165,N,14005.1791164,E,0.06,0.00,151219,0.0,E,D*3C
$GPGGA,010201.00,3606.2180165,N,14005.1791164,E,4,11,0.9,31.761,M,38.037,M,4.0,*72
$GPRMC,010202.00,A,3606.2180184,N,14005.1791127,E,0.01,0.00,151219,0.0,E,D*30
$GPGGA,010202.00,3606.2180184,N,14005.1791127,E,4,11,0.9,31.763,M,38.037,M,0.0,*7F
$GPRMC,010203.00,A,3606.2180176,N,14005.1791144,E,0.01,0.00,151219,0.0,E,D*39
$GPGGA,010203.00,3606.2180176,N,14005.1791144,E,4,11,0.9,31.756,M,38.037,M,1.0,*71
$GPRMC,010204.00,A,3606.2180157,N,14005.1791150,E,0.02,0.00,151219,0.0,E,D*3B
$GPGGA,010204.00,3606.2180157,N,14005.1791150,E,4,11,0.9,31.759,M,38.037,M,2.0,*7C
$GPRMC,010205.00,A,3606.2180175,N,14005.1791128,E,0.02,0.00,151219,0.0,E,D*35
$GPGGA,010205.00,3606.2180175,N,14005.1791128,E,4,11,0.9,31.754,M,38.037,M,3.0,*7E
$GPRMC,010206.00,A,3606.2180190,N,14005.1791130,E,0.03,0.00,151219,0.0,E,D*35
$GPGGA,010206.00,3606.2180190,N,14005.1791130,E,4,11,0.9,31.755,M,38.037,M,4.0,*79
$GPRMC,010207.00,A,3606.2180194,N,14005.1791134,E,0.03,0.00,151219,0.0,E,D*34
$GPGGA,010207.00,3606.2180194,N,14005.1791134,E,4,11,0.9,31.756,M,38.037,M,0.0,*7F
$GPRMC,010208.00,A,3606.2180226,N,14005.1791116,E,0.01,0.00,151219,0.0,E,D*33
$GPGGA,010208.00,3606.2180226,N,14005.1791116,E,4,11,0.9,31.751,M,38.037,M,1.0,*7C
$GPRMC,010209.00,A,3606.2180216,N,14005.1791131,E,0.05,0.00,151219,0.0,E,D*30
$GPGGA,010209.00,3606.2180216,N,14005.1791131,E,4,11,0.9,31.753,M,38.037,M,2.0,*7A
$GPRMC,010210.00,A,3606.2180199,N,14005.1791118,E,0.01,0.00,151219,0.0,E,D*33
$GPGGA,010210.00,3606.2180199,N,14005.1791118,E,4,11,0.9,31.753,M,38.037,M,3.0,*7C
$GPRMC,010211.00,A,3606.2180203,N,14005.1791125,E,0.03,0.00,151219,0.0,E,D*3E
$GPGGA,010211.00,3606.2180203,N,14005.1791125,E,4,11,0.9,31.746,M,38.037,M,4.0,*70
$GPRMC,010212.00,A,3606.2180211,N,14005.1791096,E,0.03,0.00,151219,0.0,E,D*37
$GPGGA,010212.00,3606.2180211,N,14005.1791096,E,4,11,0.9,31.752,M,38.037,M,0.0,*78
$GPRMC,010213.00,A,3606.2180160,N,14005.1791131,E,0.02,0.00,151219,0.0,E,D*3E
$GPGGA,010213.00,3606.2180160,N,14005.1791131,E,4,11,0.9,31.754,M,38.037,M,1.0,*77
$GPRMC,010214.00,A,3606.2180169,N,14005.1791114,E,0.01,0.00,151219,0.0,E,D*34
$GPGGA,010214.00,3606.2180169,N,14005.1791114,E,4,11,0.9,31.758,M,38.037,M,2.0,*71
$GPRMC,010215.00,A,3606.2180200,N,14005.1791096,E,0.02,0.00,151219,0.0,E,D*31
$GPGGA,010215.00,3606.2180200,N,14005.1791096,E,4,11,0.9,31.762,M,38.037,M,3.0,*7F
$GPRMC,010216.00,A,3606.2180196,N,14005.1791108,E,0.03,0.00,151219,0.0,E,D*39
$GPGGA,010216.00,3606.2180196,N,14005.1791108,E,4,11,0.9,31.759,M,38.037,M,4.0,*79
$GPRMC,010217.00,A,3606.2180186,N,14005.1791101,E,0.03,0.00,151219,0.0,E,D*30
$GPGGA,010217.00,3606.2180186,N,14005.1791101,E,4,11,0.9,31.749,M,38.037,M,0.0,*75
$GPRMC,010218.00,A,3606.2180201,N,14005.1791118,E,0.02,0.00,151219,0.0,E,D*3A
$GPGGA,010218.00,3606.2180201,N,14005.1791118,E,4,11,0.9,31.751,M,38.037,M,1.0,*76
$GPRMC,010219.00,A,3606.2180195,N,14005.1791112,E,0.04,0.00,151219,0.0,E,D*39
$GPGGA,010219.00,3606.2180195,N,14005.1791112,E,4,11,0.9,31.760,M,38.037,M,2.0,*72
$GPRMC,010220.00,A,3606.2180178,N,14005.1791094,E,0.04,0.00,151219,0.0,E,D*3F
$GPGGA,010220.00,3606.2180178,N,14005.1791094,E,4,11,0.9,31.753,M,38.037,M,3.0,*75
$GPRMC,010221.00,A,3606.2180204,N,14005.1791103,E,0.02,0.00,151219,0.0,E,D*3F
$GPGGA,010221.00,3606.2180204,N,14005.1791103,E,4,11,0.9,31.739,M,38.037,M,4.0,*78
$GPRMC,010222.00,A,3606.2180175,N,14005.1791095,E,0.02,0.00,151219,0.0,E,D*37
$GPGGA,010222.00,3606.2180175,N,14005.1791095,E,4,11,0.9,31.748,M,38.037,M,0.0,*72
$GPRMC,010223.00,A,3606.2180197,N,14005.1791085,E,0.01,0.00,151219,0.0,E,D*38
$GPGGA,010223.00,3606.2180197,N,14005.1791085,E,4,11,0.9,31.755,M,38.037,M,1.0,*73
$GPRMC,010224.00,A,3606.2180190,N,14005.1791086,E,0.01,0.00,151219,0.0,E,D*3B
$GPGGA,010224.00,3606.2180190,N,14005.1791086,E,4,11,0.9,31.747,M,38.037,M,2.0,*70
$GPRMC,010225.00,A,3606.2180201,N,14005.1791088,E,0.04,0.00,151219,0.0,E,D*3A
$GPGGA,010225.00,3606.2180201,N,14005.1791088,E,4,11,0.9,31.758,M,38.037,M,3.0,*7B
$GPRMC,010226.00,A,3606.2180224,N,14005.1791063,E,0.03,0.00,151219,0.0,E,D*3C
$GPGGA,010226.00,3606.2180224,N,14005.1791063,E,4,11,0.9,31.757,M,38.037,M,4.0,*72
$GPRMC,010227.00,A,3606.2180234,N,14005.1791120,E,0.02,0.00,151219,0.0,E,D*3B
$GPGGA,010227.00,3606.2180234,N,14005.1791120,E,4,11,0.9,31.740,M,38.037,M,0.0,*76
$GPRMC,010228.00,A,3606.2180269,N,14005.1791095,E,0.04,0.00,151219,0.0,E,D*35
$GPGGA,010228.00,3606.2180269,N,14005.1791095,E,4,11,0.9,31.746,M,38.037,M,1.0,*79
$GPRMC,010229.00,A,3606.2180215,N,14005.1791132,E,0.03,0.00,151219,0.0,E,D*34
$GPGGA,010229.00,3606.2180215,N,14005.1791132,E,4,11,0.9,31.753,M,38.037,M,2.0,*78
$GPRMC,010230.00,A,3606.2180247,N,14005.1791113,E,0.03,0.00,151219,0.0,E,D*38
$GPGGA,010230.00,3606.2180247,N,14005.1791113,E,4,11,0.9,31.746,M,38.037,M,3.0,*71
$GPRMC,010231.00,A,3606.2180239,N,14005.1791113,E,0.02,0.00,151219,0.0,E,D*31
$GPGGA,010231.00,3606.2180239,N,14005.1791113,E,4,11,0.9,31.750,M,38.037,M,4.0,*79
$GPRMC,010232.00,A,3606.2180253,N,14005.1791089,E,0.04,0.00,151219,0.0,E,D*3A
$GPGGA,010232.00,3606.2180253,N,14005.1791089,E,4,11,0.9,31.742,M,38.037,M,0.0,*73
$GPRMC,010233.00,A,3606.2180286,N,14005.1791081,E,0.02,0.00,151219,0.0,E,D*3D
$GPGGA,010233.00,3606.2180286,N,14005.1791081,E,4,11,0.9,31.733,M,38.037,M,1.0,*75
$GPRMC,010234.00,A,3606.2180278,N,14005.1791093,E,0.03,0.00,151219,0.0,E,D*39
$GPGGA,010234.00,3606.2180278,N,14005.1791093,E,4,11,0.9,31.733,M,38.037,M,2.0,*73
$GPRMC,010235.00,A,3606.2180296,N,14005.1791078,E,0.03,0.00,151219,0.0,E,D*3D
$GPGGA,010235.00,3606.2180296,N,14005.1791078,E,4,11,0.9,31.734,M,38.037,M,3.0,*71
$GPRMC,010236.00,A,3606.2180302,N,14005.1791080,E,0.03,0.00,151219,0.0,E,D*35
$GPGGA,010236.00,3606.2180302,N,14005.1791080,E,4,11,0.9,31.737,M,38.037,M,4.0,*7D
$GPRMC,010237.00,A,3606.2180264,N,14005.1791097,E,0.04,0.00,151219,0.0,E,D*34
$GPGGA,010237.00,3606.2180264,N,14005.1791097,E,4,11,0.9,31.729,M,38.037,M,0.0,*70
$GPRMC,010238.00,A,3606.2180273,N,14005.1791101,E,0.02,0.00,151219,0.0,E,D*35
$GPGGA,010238.00,3606.2180273,N,14005.1791101,E,4,11,0.9,31.730,M,38.037,M,1.0,*7E
$GPRMC,010239.00,A,3606.2180269,N,14005.1791088,E,0.06,0.00,151219,0.0,E,D*3B
$GPGGA,010239.00,3606.2180269,N,14005.1791088,E,4,11,0.9,31.733,M,38.037,M,2.0,*74
$GPRMC,010240.00,A,3606.2180286,N,14005.1791079,E,0.03,0.00,151219,0.0,E,D*3F
$GPGGA,010240.00,3606.2180286,N,14005.1791079,E,4,11,0.9,31.722,M,38.037,M,3.0,*74
$GPRMC,010241.00,A,3606.2180267,N,14005.1791086,E,0.06,0.00,151219,0.0,E,D*34
$GPGGA,010241.00,3606.2180267,N,14005.1791086,E,4,11,0.9,31.721,M,38.037,M,4.0,*7E
$GPRMC,010242.00,A,3606.2180247,N,14005.1791125,E,0.01,0.00,151219,0.0,E,D*3A
$GPGGA,010242.00,3606.2180247,N,14005.1791125,E,4,11,0.9,31.734,M,38.037,M,0.0,*77
$GPRMC,010243.00,A,3606.2180191,N,14005.1791117,E,0.01,0.00,151219,0.0,E,D*32
$GPGGA,010243.00,3606.2180191,N,14005.1791117,E,4,11,0.9,31.729,M,38.037,M,1.0,*72
$GPRMC,010244.00,A,3606.2180219,N,14005.1791094,E,0.00,0.00,151219,0.0,E,D*3D
$GPGGA,010244.00,3606.2180219,N,14005.1791094,E,4,11,0.9,31.735,M,38.037,M,2.0,*72
$GPRMC,010245.00,A,3606.2180186,N,14005.1791119,E,0.03,0.00,151219,0.0,E,D*3E
$GPGGA,010245.00,3606.2180186,N,14005.1791119,E,4,11,0.9,31.737,M,38.037,M,3.0,*71
$GPRMC,010246.00,A,3606.2180174,N,14005.1791130,E,0.01,0.00,151219,0.0,E,D*39
$GPGGA,010246.00,3606.2180174,N,14005.1791130,E,4,11,0.9,31.742,M,38.037,M,4.0,*71
$GPRMC,010247.00,A,3606.2180154,N,14005.1791149,E,0.08,0.00,151219,0.0,E,D*3D
$GPGGA,010247.00,3606.2180154,N,14005.1791149,E,4,11,0.9,31.741,M,38.037,M,0.0,*7B
$GPRMC,010248.00,A,3606.2180120,N,14005.1791157,E,0.02,0.00,151219,0.0,E,D*34
$GPGGA,010248.00,3606.2180120,N,14005.1791157,E,4,11,0.9,31.740,M,38.037,M,1.0,*78
$GPRMC,010249.00,A,3606.2180081,N,14005.1791154,E,0.01,0.00,151219,0.0,E,D*3F
$GPGGA,010249.00,3606.2180081,N,14005.1791154,E,4,11,0.9,31.750,M,38.037,M,2.0,*72
$GPRMC,010250.00,A,3606.2180103,N,14005.1791157,E,0.03,0.00,151219,0.0,E,D*3D
$GPGGA,010250.00,3606.2180103,N,14005.1791157,E,4,11,0.9,31.751,M,38.037,M,3.0,*72
$GPRMC,010251.00,A,3606.2180080,N,14005.1791157,E,0.01,0.00,151219,0.0,E,D*34
$GPGGA,010251.00,3606.2180080,N,14005.1791157,E,4,11,0.9,31.752,M,38.037,M,4.0,*7D
$GPRMC,010252.00,A,3606.2180065,N,14005.1791153,E,0.02,0.00,151219,0.0,E,D*3B
$GPGGA,010252.00,3606.2180065,N,14005.1791153,E,4,11,0.9,31.751,M,38.037,M,0.0,*76
$GPRMC,010253.00,A,3606.2180072,N,14005.1791142,E,0.03,0.00,151219,0.0,E,D*3D
$GPGGA,010253.00,3606.2180072,N,14005.1791142,E,4,11,0.9,31.756,M,38.037,M,1.0,*77
$GPRMC,010254.00,A,3606.2180067,N,14005.1791156,E,0.01,0.00,151219,0.0,E,D*39
$GPGGA,010254.00,3606.2180067,N,14005.1791156,E,4,11,0.9,31.759,M,38.037,M,2.0,*7D
$GPRMC,010255.00,A,3606.2180056,N,14005.1791169,E,0.01,0.00,151219,0.0,E,D*36
$GPGGA,010255.00,3606.2180056,N,14005.1791169,E,4,11,0.9,31.759,M,38.037,M,3.0,*73
$GPRMC,010256.00,A,3606.2180019,N,14005.1791165,E,0.03,0.00,151219,0.0,E,D*30
$GPGGA,010256.00,3606.2180019,N,14005.1791165,E,4,11,0.9,31.768,M,38.037,M,4.0,*72
$GPRMC,010257.00,A,3606.2180086,N,14005.1791139,E,0.03,0.00,151219,0.0,E,D*3E
$GPGGA,010257.00,3606.2180086,N,14005.1791139,E,4,11,0.9,31.762,M,38.037,M,0.0,*72
$GPRMC,010258.00,A,3606.2180091,N,14005.1791133,E,0.01,0.00,151219,0.0,E,D*3F
$GPGGA,010258.00,3606.2180091,N,14005.1791133,E,4,11,0.9,31.760,M,38.037,M,1.0,*72
$GPRMC,010259.00,A,3606.2180094,N,14005.1791114,E,0.04,0.00,151219,0.0,E,D*3B
$GPGGA,010259.00,3606.2180094,N,14005.1791114,E,4,11,0.9,31.764,M,38.037,M,2.0,*74
$GPRMC,010300.00,A,3606.2180095,N,14005.1791144,E,0.03,0.00,151219,0.0,E,D*35
$GPGGA,010300.00,3606.2180095,N,14005.1791144,E,4,11,0.9,31.753,M,38.037,M,3.0,*78
$GPRMC,010301.00,A,3606.2180085,N,14005.1791135,E,0.05,0.00,151219,0.0,E,D*35
$GPGGA,010301.00,3606.2180085,N,14005.1791135,E,4,11,0.9,31.762,M,38.037,M,4.0,*7B
$GPRMC,010302.00,A,3606.2180141,N,14005.1791112,E,0.03,0.00,151219,0.0,E,D*3C
$GPGGA,010302.00,3606.2180141,N,14005.1791112,E,4,11,0.9,31.749,M,38.037,M,0.0,*79
$GPRMC,010303.00,A,3606.2180141,N,14005.1791110,E,0.02,0.00,151219,0.0,E,D*3E
$GPGGA,010303.00,3606.2180141,N,14005.1791110,E,4,11,0.9,31.748,M,38.037,M,1.0,*7A
$GPRMC,010304.00,A,3606.2180159,N,14005.1791121,E,0.02,0.00,151219,0.0,E,D*32
$GPGGA,010304.00,3606.2180159,N,14005.1791121,E,4,11,0.9,31.747,M,38.037,M,2.0,*7A
$GPRMC,010305.00,A,3606.2180152,N,14005.1791126,E,0.02,0.00,151219,0.0,E,D*3F
$GPGGA,010305.00,3606.2180152,N,14005.1791126,E,4,11,0.9,31.748,M,38.037,M,3.0,*79
$GPRMC,010306.00,A,3606.2180098,N,14005.1791134,E,0.02,0.00,151219,0.0,E,D*38
$GPGGA,010306.00,3606.2180098,N,14005.1791134,E,4,11,0.9,31.755,M,38.037,M,4.0,*75
$GPRMC,010307.00,A,3606.2180184,N,14005.1791130,E,0.01,0.00,151219,0.0,E,D*32
$GPGGA,010307.00,3606.2180184,N,14005.1791130,E,4,11,0.9,31.740,M,38.037,M,0.0,*7C
$GPRMC,010308.00,A,3606.2180192,N,14005.1791138,E,0.02,0.00,151219,0.0,E,D*31
$GPGGA,010308.00,3606.2180192,N,14005.1791138,E,4,11,0.9,31.736,M,38.037,M,1.0,*7C
$GPRMC,010309.00,A,3606.2180167,N,14005.1791132,E,0.02,0.00,151219,0.0,E,D*30
$GPGGA,010309.00,3606.2180167,N,14005.1791132,E,4,11,0.9,31.737,M,38.037,M,2.0,*7F
$GPRMC,010310.00,A,3606.2180141,N,14005.1791141,E,0.01,0.00,151219,0.0,E,D*3B
$GPGGA,010310.00,3606.2180141,N,14005.1791141,E,4,11,0.9,31.746,M,38.037,M,3.0,*70
$GPRMC,010311.00,A,3606.2180154,N,14005.1791145,E,0.02,0.00,151219,0.0,E,D*39
$GPGGA,010311.00,3606.2180154,N,14005.1791145,E,4,11,0.9,31.743,M,38.037,M,4.0,*73
$GPRMC,010312.00,A,3606.2180157,N,14005.1791159,E,0.02,0.00,151219,0.0,E,D*34
$GPGGA,010312.00,3606.2180157,N,14005.1791159,E,4,11,0.9,31.749,M,38.037,M,0.0,*70
$GPRMC,010313.00,A,3606.2180121,N,14005.1791163,E,0.02,0.00,151219,0.0,E,D*3D
$GPGGA,010313.00,3606.2180121,N,14005.1791163,E,4,11,0.9,31.748,M,38.037,M,1.0,*79
$GPRMC,010314.00,A,3606.2180147,N,14005.1791141,E,0.01,0.00,151219,0.0,E,D*39
$GPGGA,010314.00,3606.2180147,N,14005.1791141,E,4,11,0.9,31.752,M,38.037,M,2.0,*76
$GPRMC,010315.00,A,3606.2180163,N,14005.1791158,E,0.02,0.00,151219,0.0,E,D*35
$GPGGA,010315.00,3606.2180163,N,14005.1791158,E,4,11,0.9,31.753,M,38.037,M,3.0,*79
$GPRMC,010316.00,A,3606.2180138,N,14005.1791155,E,0.00,0.00,151219,0.0,E,D*37
$GPGGA,010316.00,3606.2180138,N,14005.1791155,E,4,11,0.9,31.751,M,38.037,M,4.0,*7C
$GPRMC,010317.00,A,3606.2180164,N,14005.1791138,E,0.05,0.00,151219,0.0,E,D*31
$GPGGA,010317.00,3606.2180164,N,14005.1791138,E,4,11,0.9,31.753,M,38.037,M,0.0,*79
$GPRMC,010318.00,A,3606.2180174,N,14005.1791134,E,0.02,0.00,151219,0.0,E,D*34
$GPGGA,010318.00,3606.2180174,N,14005.1791134,E,4,11,0.9,31.751,M,38.037,M,1.0,*78
$GPRMC,010319.00,A,3606.2180196,N,14005.1791128,E,0.03,0.00,151219,0.0,E,D*35
$GPGGA,010319.00,3606.2180196,N,14005.1791128,E,4,11,0.9,31.755,M,38.037,M,2.0,*7F
$GPRMC,010320.00,A,3606.2180187,N,14005.1791134,E,0.04,0.00,151219,0.0,E,D*35
$GPGGA,010320.00,3606.2180187,N,14005.1791134,E,4,11,0.9,31.754,M,38.037,M,3.0,*78
$GPRMC,010321.00,A,3606.2180195,N,14005.1791133,E,0.03,0.00,151219,0.0,E,D*37
$GPGGA,010321.00,3606.2180195,N,14005.1791133,E,4,11,0.9,31.748,M,38.037,M,4.0,*77
$GPRMC,010322.00,A,3606.2180220,N,14005.1791100,E,0.03,0.00,151219,0.0,E,D*39
$GPGGA,010322.00,3606.2180220,N,14005.1791100,E,4,11,0.9,31.743,M,38.037,M,0.0,*76
$GPRMC,010323.00,A,3606.2180223,N,14005.1791121,E,0.01,0.00,151219,0.0,E,D*3A
$GPGGA,010323.00,3606.2180223,N,14005.1791121,E,4,11,0.9,31.742,M,38.037,M,1.0,*77
$GPRMC,010324.00,A,3606.2180208,N,14005.1791108,E,0.01,0.00,151219,0.0,E,D*3F
$GPGGA,010324.00,3606.2180208,N,14005.1791108,E,4,11,0.9,31.749,M,38.037,M,2.0,*7A
$GPRMC,010325.00,A,3606.2180231,N,14005.1791103,E,0.01,0.00,151219,0.0,E,D*3F
$GPGGA,010325.00,3606.2180231,N,14005.1791103,E,4,11,0.9,31.750,M,38.037,M,3.0,*73
$GPRMC,010326.00,A,3606.2180245,N,14005.1791089,E,0.02,0.00,151219,0.0,E,D*3F
$GPGGA,010326.00,3606.2180245,N,14005.1791089,E,4,11,0.9,31.751,M,38.037,M,4.0,*76
$GPRMC,010327.00,A,3606.2180244,N,14005.1791057,E,0.04,0.00,151219,0.0,E,D*3A
$GPGGA,010327.00,3606.2180244,N,14005.1791057,E,4,11,0.9,31.749,M,38.037,M,0.0,*78
$GPRMC,010328.00,A,3606.2180273,N,14005.1791043,E,0.02,0.00,151219,0.0,E,D*32
$GPGGA,010328.00,3606.2180273,N,14005.1791043,E,4,11,0.9,31.749,M,38.037,M,1.0,*77
$GPRMC,010329.00,A,3606.2180266,N,14005.1791052,E,0.02,0.00,151219,0.0,E,D*37
$GPGGA,010329.00,3606.2180266,N,14005.1791052,E,4,11,0.9,31.750,M,38.037,M,2.0,*79
$GPRMC,010330.00,A,3606.2180251,N,14005.1791076,E,0.03,0.00,151219,0.0,E,D*3C
$GPGGA,010330.00,3606.2180251,N,14005.1791076,E,4,11,0.9,31.753,M,38.037,M,3.0,*71
$GPRMC,010331.00,A,3606.2180287,N,14005.1791047,E,0.01,0.00,151219,0.0,E,D*36
$GPGGA,010331.00,3606.2180287,N,14005.1791047,E,4,11,0.9,31.754,M,38.037,M,4.0,*79
$GPRMC,010332.00,A,3606.2180311,N,14005.1791041,E,0.01,0.00,151219,0.0,E,D*3D
$GPGGA,010332.00,3606.2180311,N,14005.1791041,E,4,11,0.9,31.745,M,38.037,M,0.0,*76
$GPRMC,010333.00,A,3606.2180288,N,14005.1791059,E,0.01,0.00,151219,0.0,E,D*34
$GPGGA,010333.00,3606.2180288,N,14005.1791059,E,4,11,0.9,31.729,M,38.037,M,1.0,*74
$GPRMC,010334.00,A,3606.2180326,N,14005.1791039,E,0.04,0.00,151219,0.0,E,D*35
$GPGGA,010334.00,3606.2180326,N,14005.1791039,E,4,11,0.9,31.733,M,38.037,M,2.0,*78
$GPRMC,010335.00,A,3606.2180319,N,14005.1791054,E,0.02,0.00,151219,0.0,E,D*35
$GPGGA,010335.00,3606.2180319,N,14005.1791054,E,4,11,0.9,31.733,M,38.037,M,3.0,*7F
$GPRMC,010336.00,A,3606.2180321,N,14005.1791069,E,0.03,0.00,151219,0.0,E,D*32
$GPGGA,010336.00,3606.2180321,N,14005.1791069,E,4,11,0.9,31.732,M,38.037,M,4.0,*7F
$GPRMC,010337.00,A,3606.2180302,N,14005.1791052,E,0.03,0.00,151219,0.0,E,D*3A
$GPGGA,010337.00,3606.2180302,N,14005.1791052,E,4,11,0.9,31.728,M,38.037,M,0.0,*78
$GPRMC,010338.00,A,3606.2180323,N,14005.1791042,E,0.05,0.00,151219,0.0,E,D*31
$GPGGA,010338.00,3606.2180323,N,14005.1791042,E,4,11,0.9,31.733,M,38.037,M,1.0,*7E
$GPRMC,010339.00,A,3606.2180328,N,14005.1791041,E,0.03,0.00,151219,0.0,E,D*3E
$GPGGA,010339.00,3606.2180328,N,14005.1791041,E,4,11,0.9,31.731,M,38.037,M,2.0,*76
$GPRMC,010340.00,A,3606.2180326,N,14005.1791060,E,0.02,0.00,151219,0.0,E,D*3C
$GPGGA,010340.00,3606.2180326,N,14005.1791060,E,4,11,0.9,31.731,M,38.037,M,3.0,*74
$GPRMC,010341.00,A,3606.2180330,N,14005.1791062,E,0.03,0.00,151219,0.0,E,D*39
$GPGGA,010341.00,3606.2180330,N,14005.1791062,E,4,11,0.9,31.721,M,38.037,M,4.0,*76
$GPRMC,010342.00,A,3606.2180343,N,14005.1791099,E,0.02,0.00,151219,0.0,E,D*3B
$GPGGA,010342.00,3606.2180343,N,14005.1791099,E,4,11,0.9,31.721,M,38.037,M,0.0,*71
$GPRMC,010343.00,A,3606.2180346,N,14005.1791104,E,0.04,0.00,151219,0.0,E,D*3C
$GPGGA,010343.00,3606.2180346,N,14005.1791104,E,4,11,0.9,31.723,M,38.037,M,1.0,*73
$GPRMC,010344.00,A,3606.2180334,N,14005.1791116,E,0.05,0.00,151219,0.0,E,D*3C
$GPGGA,010344.00,3606.2180334,N,14005.1791116,E,4,11,0.9,31.714,M,38.037,M,2.0,*75
$GPRMC,010345.00,A,3606.2180341,N,14005.1791145,E,0.04,0.00,151219,0.0,E,D*38
$GPGGA,010345.00,3606.2180341,N,14005.1791145,E,4,11,0.9,31.713,M,38.037,M,3.0,*76
$GPRMC,010346.00,A,3606.2180376,N,14005.1791125,E,0.02,0.00,151219,0.0,E,D*3F
$GPGGA,010346.00,3606.2180376,N,14005.1791125,E,4,11,0.9,31.698,M,38.037,M,4.0,*72
$GPRMC,010347.00,A,3606.2180341,N,14005.1791153,E,0.02,0.00,151219,0.0,E,D*3B
$GPGGA,010347.00,3606.2180341,N,14005.1791153,E,4,11,0.9,31.710,M,38.037,M,0.0,*73
$GPRMC,010348.00,A,3606.2180357,N,14005.1791160,E,0.01,0.00,151219,0.0,E,D*30
$GPGGA,010348.00,3606.2180357,N,14005.1791160,E,4,11,0.9,31.709,M,38.037,M,1.0,*72
$GPRMC,010349.00,A,3606.2180349,N,14005.1791180,E,0.03,0.00,151219,0.0,E,D*32
$GPGGA,010349.00,3606.2180349,N,14005.1791180,E,4,11,0.9,31.719,M,38.037,M,2.0,*70
$GPRMC,010350.00,A,3606.2180332,N,14005.1791194,E,0.02,0.00,151219,0.0,E,D*32
$GPGGA,010350.00,3606.2180332,N,14005.1791194,E,4,11,0.9,31.711,M,38.037,M,3.0,*78
$GPRMC,010351.00,A,3606.2180335,N,14005.1791217,E,0.01,0.00,151219,0.0,E,D*3F
$GPGGA,010351.00,3606.2180335,N,14005.1791217,E,4,11,0.9,31.710,M,38.037,M,4.0,*70
$GPRMC,010352.00,A,3606.2180326,N,14005.1791209,E,0.05,0.00,151219,0.0,E,D*35
$GPGGA,010352.00,3606.2180326,N,14005.1791209,E,4,11,0.9,31.704,M,38.037,M,0.0,*7F
$GPRMC,010353.00,A,3606.2180315,N,14005.1791213,E,0.02,0.00,151219,0.0,E,D*38
$GPGGA,010353.00,3606.2180315,N,14005.1791213,E,4,11,0.9,31.703,M,38.037,M,1.0,*73
$GPRMC,010354.00,A,3606.2180316,N,14005.1791237,E,0.02,0.00,151219,0.0,E,D*3A
$GPGGA,010354.00,3606.2180316,N,14005.1791237,E,4,11,0.9,31.710,M,38.037,M,2.0,*70
$GPRMC,010355.00,A,3606.2180315,N,14005.1791249,E,0.05,0.00,151219,0.0,E,D*36
$GPGGA,010355.00,3606.2180315,N,14005.1791249,E,4,11,0.9,31.718,M,38.037,M,3.0,*72
$GPRMC,010356.00,A,3606.2180324,N,14005.1791226,E,0.04,0.00,151219,0.0,E,D*3F
$GPGGA,010356.00,3606.2180324,N,14005.1791226,E,4,11,0.9,31.717,M,38.037,M,4.0,*72
$GPRMC,010357.00,A,3606.2180230,N,14005.1791240,E,0.03,0.00,151219,0.0,E,D*3D
$GPGGA,010357.00,3606.2180230,N,14005.1791240,E,4,11,0.9,31.720,M,38.037,M,0.0,*77
$GPRMC,010358.00,A,3606.2180224,N,14005.1791248,E,0.09,0.00,151219,0.0,E,D*35
$GPGGA,010358.00,3606.2180224,N,14005.1791248,E,4,11,0.9,31.735,M,38.037,M,1.0,*70
$GPRMC,010359.00,A,3606.2180181,N,14005.1791272,E,0.02,0.00,151219,0.0,E,D*3A
$GPGGA,010359.00,3606.2180181,N,14005.1791272,E,4,11,0.9,31.729,M,38.037,M,2.0,*7A
$GPRMC,010400.00,A,3606.2180215,N,14005.1791283,E,0.02,0.00,151219,0.0,E,D*31
$GPGGA,010400.00,3606.2180215,N,14005.1791283,E,4,11,0.9,31.730,M,38.037,M,3.0,*78
$GPRMC,010401.00,A,3606.2180221,N,14005.1791257,E,0.01,0.00,151219,0.0,E,D*3D
$GPGGA,010401.00,3606.2180221,N,14005.1791257,E,4,11,0.9,31.727,M,38.037,M,4.0,*76
$GPRMC,010402.00,A,3606.2180219,N,14005.1791211,E,0.03,0.00,151219,0.0,E,D*35
$GPGGA,010402.00,3606.2180219,N,14005.1791211,E,4,11,0.9,31.738,M,38.037,M,0.0,*76
$GPRMC,010403.00,A,3606.2180228,N,14005.1791201,E,0.01,0.00,151219,0.0,E,D*35
$GPGGA,010403.00,3606.2180228,N,14005.1791201,E,4,11,0.9,31.731,M,38.037,M,1.0,*7C
$GPRMC,010404.00,A,3606.2180228,N,14005.1791230,E,0.03,0.00,151219,0.0,E,D*32
$GPGGA,010404.00,3606.2180228,N,14005.1791230,E,4,11,0.9,31.737,M,38.037,M,2.0,*7C
$GPRMC,010405.00,A,3606.2180215,N,14005.1791223,E,0.01,0.00,151219,0.0,E,D*3D
$GPGGA,010405.00,3606.2180215,N,14005.1791223,E,4,11,0.9,31.723,M,38.037,M,3.0,*75
$GPRMC,010406.00,A,3606.2180231,N,14005.1791224,E,0.04,0.00,151219,0.0,E,D*3A
$GPGGA,010406.00,3606.2180231,N,14005.1791224,E,4,11,0.9,31.729,M,38.037,M,4.0,*7A
$GPRMC,010407.00,A,3606.2180235,N,14005.1791198,E,0.03,0.00,151219,0.0,E,D*3C
$GPGGA,010407.00,3606.2180235,N,14005.1791198,E,4,11,0.9,31.735,M,38.037,M,0.0,*72
$GPRMC,010408.00,A,3606.2180242,N,14005.1791190,E,0.03,0.00,151219,0.0,E,D*3B
$GPGGA,010408.00,3606.2180242,N,14005.1791190,E,4,11,0.9,31.737,M,38.037,M,1.0,*76
$GPRMC,010409.00,A,3606.2180239,N,14005.1791177,E,0.01,0.00,151219,0.0,E,D*3D
$GPGGA,010409.00,3606.2180239,N,14005.1791177,E,4,11,0.9,31.728,M,38.037,M,2.0,*7F
$GPRMC,010410.00,A,3606.2180239,N,14005.1791183,E,0.02,0.00,151219,0.0,E,D*3D
$GPGGA,010410.00,3606.2180239,N,14005.1791183,E,4,11,0.9,31.723,M,38.037,M,3.0,*76
$GPRMC,010411.00,A,3606.2180234,N,14005.1791196,E,0.02,0.00,151219,0.0,E,D*35
$GPGGA,010411.00,3606.2180234,N,14005.1791196,E,4,11,0.9,31.738,M,38.037,M,4.0,*73
$GPRMC,010412.00,A,3606.2180217,N,14005.1791183,E,0.03,0.00,151219,0.0,E,D*32
$GPGGA,010412.00,3606.2180217,N,14005.1791183,E,4,11,0.9,31.733,M,38.037,M,0.0,*7A
$GPRMC,010413.00,A,3606.2180240,N,14005.1791190,E,0.03,0.00,151219,0.0,E,D*33
$GPGGA,010413.00,3606.2180240,N,14005.1791190,E,4,11,0.9,31.723,M,38.037,M,1.0,*7B
$GPRMC,010414.00,A,3606.2180267,N,14005.1791178,E,0.02,0.00,151219,0.0,E,D*36
$GPGGA,010414.00,3606.2180267,N,14005.1791178,E,4,11,0.9,31.731,M,38.037,M,2.0,*7F
$GPRMC,010415.00,A,3606.2180257,N,14005.1791176,E,0.03,0.00,151219,0.0,E,D*3B
$GPGGA,010415.00,3606.2180257,N,14005.1791176,E,4,11,0.9,31.731,M,38.037,M,3.0,*72
$GPRMC,010416.00,A,3606.2180240,N,14005.1791173,E,0.02,0.00,151219,0.0,E,D*3A
$GPGGA,010416.00,3606.2180240,N,14005.1791173,E,4,11,0.9,31.732,M,38.037,M,4.0,*76
$GPRMC,010417.00,A,3606.2180217,N,14005.1791156,E,0.01,0.00,151219,0.0,E,D*3D
$GPGGA,010417.00,3606.2180217,N,14005.1791156,E,4,11,0.9,31.727,M,38.037,M,0.0,*72
$GPRMC,010418.00,A,3606.2180229,N,14005.1791140,E,0.03,0.00,151219,0.0,E,D*3A
$GPGGA,010418.00,3606.2180229,N,14005.1791140,E,4,11,0.9,31.721,M,38.037,M,1.0,*70
$GPRMC,010419.00,A,3606.2180228,N,14005.1791135,E,0.03,0.00,151219,0.0,E,D*38
$GPGGA,010419.00,3606.2180228,N,14005.1791135,E,4,11,0.9,31.723,M,38.037,M,2.0,*73
$GPRMC,010420.00,A,3606.2180225,N,14005.1791130,E,0.01,0.00,151219,0.0,E,D*38
$GPGGA,010420.00,3606.2180225,N,14005.1791130,E,4,11,0.9,31.725,M,38.037,M,3.0,*76
$GPRMC,010421.00,A,3606.2180219,N,14005.1791109,E,0.02,0.00,151219,0.0,E,D*3F
$GPGGA,010421.00,3606.2180219,N,14005.1791109,E,4,11,0.9,31.726,M,38.037,M,4.0,*76
$GPRMC,010422.00,A,3606.2180229,N,14005.1791097,E,0.03,0.00,151219,0.0,E,D*38
$GPGGA,010422.00,3606.2180229,N,14005.1791097,E,4,11,0.9,31.734,M,38.037,M,0.0,*77
$GPRMC,010423.00,A,3606.2180216,N,14005.1791107,E,0.02,0.00,151219,0.0,E,D*3C
$GPGGA,010423.00,3606.2180216,N,14005.1791107,E,4,11,0.9,31.722,M,38.037,M,1.0,*74
$GPRMC,010424.00,A,3606.2180258,N,14005.1791072,E,0.03,0.00,151219,0.0,E,D*33
$GPGGA,010424.00,3606.2180258,N,14005.1791072,E,4,11,0.9,31.728,M,38.037,M,2.0,*73
$GPRMC,010425.00,A,3606.2180230,N,14005.1791076,E,0.03,0.00,151219,0.0,E,D*38
$GPGGA,010425.00,3606.2180230,N,14005.1791076,E,4,11,0.9,31.728,M,38.037,M,3.0,*79
$GPRMC,010426.00,A,3606.2180237,N,14005.1791077,E,0.02,0.00,151219,0.0,E,D*3C
$GPGGA,010426.00,3606.2180237,N,14005.1791077,E,4,11,0.9,31.728,M,38.037,M,4.0,*7B
$GPRMC,010427.00,A,3606.2180218,N,14005.1791034,E,0.02,0.00,151219,0.0,E,D*37
$GPGGA,010427.00,3606.2180218,N,14005.1791034,E,4,11,0.9,31.737,M,38.037,M,0.0,*7A
$GPRMC,010428.00,A,3606.2180241,N,14005.1791028,E,0.02,0.00,151219,0.0,E,D*39
$GPGGA,010428.00,3606.2180241,N,14005.1791028,E,4,11,0.9,31.741,M,38.037,M,1.0,*74
$GPRMC,010429.00,A,3606.2180199,N,14005.1791012,E,0.02,0.00,151219,0.0,E,D*37
$GPGGA,010429.00,3606.2180199,N,14005.1791012,E,4,11,0.9,31.747,M,38.037,M,2.0,*7F
$GPRMC,010430.00,A,3606.2180206,N,14005.1791034,E,0.02,0.00,151219,0.0,E,D*3E
$GPGGA,010430.00,3606.2180206,N,14005.1791034,E,4,11,0.9,31.740,M,38.037,M,3.0,*70
$GPRMC,010431.00,A,3606.2180213,N,14005.1791019,E,0.01,0.00,151219,0.0,E,D*37
$GPGGA,010431.00,3606.2180213,N,14005.1791019,E,4,11,0.9,31.746,M,38.037,M,4.0,*7B
$GPRMC,010432.00,A,3606.2180212,N,14005.1791065,E,0.02,0.00,151219,0.0,E,D*3D
$GPGGA,010432.00,3606.2180212,N,14005.1791065,E,4,11,0.9,31.748,M,38.037,M,0.0,*78
$GPRMC,010433.00,A,3606.2180216,N,14005.1791030,E,0.01,0.00,151219,0.0,E,D*3B
$GPGGA,010433.00,3606.2180216,N,14005.1791030,E,4,11,0.9,31.746,M,38.037,M,1.0,*72
$GPRMC,010434.00,A,3606.2180203,N,14005.1791052,E,0.01,0.00,151219,0.0,E,D*3C
$GPGGA,010434.00,3606.2180203,N,14005.1791052,E,4,11,0.9,31.747,M,38.037,M,2.0,*77
$GPRMC,010435.00,A,3606.2180232,N,14005.1791028,E,0.04,0.00,151219,0.0,E,D*37
$GPGGA,010435.00,3606.2180232,N,14005.1791028,E,4,11,0.9,31.752,M,38.037,M,3.0,*7C
$GPRMC,010436.00,A,3606.2180219,N,14005.1791048,E,0.01,0.00,151219,0.0,E,D*3E
$GPGGA,010436.00,3606.2180219,N,14005.1791048,E,4,11,0.9,31.740,M,38.037,M,4.0,*74
$GPRMC,010437.00,A,3606.2180215,N,14005.1791068,E,0.04,0.00,151219,0.0,E,D*34
$GPGGA,010437.00,3606.2180215,N,14005.1791068,E,4,11,0.9,31.752,M,38.037,M,0.0,*7C
$GPRMC,010438.00,A,3606.2180219,N,14005.1791061,E,0.02,0.00,151219,0.0,E,D*38
$GPGGA,010438.00,3606.2180219,N,14005.1791061,E,4,11,0.9,31.763,M,38.037,M,1.0,*75
$GPRMC,010439.00,A,3606.2180205,N,14005.1791055,E,0.03,0.00,151219,0.0,E,D*32
$GPGGA,010439.00,3606.2180205,N,14005.1791055,E,4,11,0.9,31.761,M,38.037,M,2.0,*7F
$GPRMC,010440.00,A,3606.2180219,N,14005.1791060,E,0.04,0.00,151219,0.0,E,D*30
$GPGGA,010440.00,3606.2180219,N,14005.1791060,E,4,11,0.9,31.755,M,38.037,M,3.0,*7C
$GPRMC,010441.00,A,3606.2180232,N,14005.1791037,E,0.01,0.00,151219,0.0,E,D*3F
$GPGGA,010441.00,3606.2180232,N,14005.1791037,E,4,11,0.9,31.754,M,38.037,M,4.0,*70
$GPRMC,010442.00,A,3606.2180199,N,14005.1791033,E,0.03,0.00,151219,0.0,E,D*38
$GPGGA,010442.00,3606.2180199,N,14005.1791033,E,4,11,0.9,31.748,M,38.037,M,0.0,*7C
$GPRMC,010443.00,A,3606.2180196,N,14005.1791026,E,0.01,0.00,151219,0.0,E,D*30
$GPGGA,010443.00,3606.2180196,N,14005.1791026,E,4,11,0.9,31.757,M,38.037,M,1.0,*79
$GPRMC,010444.00,A,3606.2180200,N,14005.1791019,E,0.02,0.00,151219,0.0,E,D*34
$GPGGA,010444.00,3606.2180200,N,14005.1791019,E,4,11,0.9,31.755,M,38.037,M,2.0,*7F
$GPRMC,010445.00,A,3606.2180216,N,14005.1791024,E,0.01,0.00,151219,0.0,E,D*3F
$GPGGA,010445.00,3606.2180216,N,14005.1791024,E,4,11,0.9,31.766,M,38.037,M,3.0,*76
$GPRMC,010446.00,A,3606.2180186,N,14005.1791018,E,0.01,0.00,151219,0.0,E,D*39
$GPGGA,010446.00,3606.2180186,N,14005.1791018,E,4,11,0.9,31.755,M,38.037,M,4.0,*77
$GPRMC,010447.00,A,3606.2180199,N,14005.1791054,E,0.01,0.00,151219,0.0,E,D*3E
$GPGGA,010447.00,3606.2180199,N,14005.1791054,E,4,11,0.9,31.751,M,38.037,M,0.0,*70
$GPRMC,010448.00,A,3606.2180212,N,14005.1791032,E,0.03,0.00,151219,0.0,E,D*33
$GPGGA,010448.00,3606.2180212,N,14005.1791032,E,4,11,0.9,31.759,M,38.037,M,1.0,*76
$GPRMC,010449.00,A,3606.2180209,N,14005.1791025,E,0.03,0.00,151219,0.0,E,D*3E
$GPGGA,010449.00,3606.2180209,N,14005.1791025,E,4,11,0.9,31.756,M,38.037,M,2.0,*77
$GPRMC,010450.00,A,3606.2180174,N,14005.1791024,E,0.02,0.00,151219,0.0,E,D*3F
$GPGGA,010450.00,3606.2180174,N,14005.1791024,E,4,11,0.9,31.760,M,38.037,M,3.0,*73
$GPRMC,010451.00,A,3606.2180227,N,14005.1791015,E,0.01,0.00,151219,0.0,E,D*3A
$GPGGA,010451.00,3606.2180227,N,14005.1791015,E,4,11,0.9,31.746,M,38.037,M,4.0,*76
$GPRMC,010452.00,A,3606.2180229,N,14005.1791035,E,0.02,0.00,151219,0.0,E,D*36
$GPGGA,010452.00,3606.2180229,N,14005.1791035,E,4,11,0.9,31.743,M,38.037,M,0.0,*78
$GPRMC,010453.00,A,3606.2180237,N,14005.1791030,E,0.01,0.00,151219,0.0,E,D*3E
$GPGGA,010453.00,3606.2180237,N,14005.1791030,E,4,11,0.9,31.742,M,38.037,M,1.0,*73
$GPRMC,010454.00,A,3606.2180227,N,14005.1791030,E,0.06,0.00,151219,0.0,E,D*3F
$GPGGA,010454.00,3606.2180227,N,14005.1791030,E,4,11,0.9,31.752,M,38.037,M,2.0,*77
$GPRMC,010455.00,A,3606.2180254,N,14005.1791040,E,0.03,0.00,151219,0.0,E,D*38
$GPGGA,010455.00,3606.2180254,N,14005.1791040,E,4,11,0.9,31.752,M,38.037,M,3.0,*74
$GPRMC,010456.00,A,3606.2180222,N,14005.1791012,E,0.02,0.00,151219,0.0,E,D*3C
$GPGGA,010456.00,3606.2180222,N,14005.1791012,E,4,11,0.9,31.756,M,38.037,M,4.0,*72
$GPRMC,010457.00,A,3606.2180222,N,14005.1791068,E,0.02,0.00,151219,0.0,E,D*30
$GPGGA,010457.00,3606.2180222,N,14005.1791068,E,4,11,0.9,31.764,M,38.037,M,0.0,*7B
$GPRMC,010458.00,A,3606.2180216,N,14005.1791109,E,0.03,0.00,151219,0.0,E,D*3F
$GPGGA,010458.00,3606.2180216,N,14005.1791109,E,4,11,0.9,31.763,M,38.037,M,1.0,*73
$GPRMC,010459.00,A,3606.2180195,N,14005.1791086,E,0.03,0.00,151219,0.0,E,D*30
$GPGGA,010459.00,3606.2180195,N,14005.1791086,E,4,11,0.9,31.761,M,38.037,M,2.0,*7D
$GPRMC,010500.00,A,3606.2180204,N,14005.1791071,E,0.01,0.00,151219,0.0,E,D*3C
$GPGGA,010500.00,3606.2180204,N,14005.1791071,E,4,11,0.9,31.755,M,38.037,M,3.0,*75
$GPRMC,010501.00,A,3606.2180205,N,14005.1791071,E,0.01,0.00,151219,0.0,E,D*3C
$GPGGA,010501.00,3606.2180205,N,14005.1791071,E,4,11,0.9,31.756,M,38.037,M,4.0,*71
$GPRMC,010502.00,A,3606.2180191,N,14005.1791098,E,0.04,0.00,151219,0.0,E,D*33
$GPGGA,010502.00,3606.2180191,N,14005.1791098,E,4,11,0.9,31.768,M,38.037,M,0.0,*72
$GPRMC,010503.00,A,3606.2180162,N,14005.1791115,E,0.03,0.00,151219,0.0,E,D*3D
$GPGGA,010503.00,3606.2180162,N,14005.1791115,E,4,11,0.9,31.767,M,38.037,M,1.0,*75
$GPRMC,010504.00,A,3606.2180147,N,14005.1791105,E,0.03,0.00,151219,0.0,E,D*3C
$GPGGA,010504.00,3606.2180147,N,14005.1791105,E,4,11,0.9,31.765,M,38.037,M,2.0,*75
$GPRMC,010505.00,A,3606.2180110,N,14005.1791143,E,0.01,0.00,151219,0.0,E,D*3F
$GPGGA,010505.00,3606.2180110,N,14005.1791143,E,4,11,0.9,31.766,M,38.037,M,3.0,*76
$GPRMC,010506.00,A,3606.2180109,N,14005.1791133,E,0.01,0.00,151219,0.0,E,D*33
$GPGGA,010506.00,3606.2180109,N,14005.1791133,E,4,11,0.9,31.771,M,38.037,M,4.0,*7B
$GPRMC,010507.00,A,3606.2180120,N,14005.1791154,E,0.01,0.00,151219,0.0,E,D*38
$GPGGA,010507.00,3606.2180120,N,14005.1791154,E,4,11,0.9,31.762,M,38.037,M,0.0,*76
$GPRMC,010508.00,A,3606.2180104,N,14005.1791164,E,0.03,0.00,151219,0.0,E,D*30
$GPGGA,010508.00,3606.2180104,N,14005.1791164,E,4,11,0.9,31.771,M,38.037,M,1.0,*7F
$GPRMC,010509.00,A,3606.2180112,N,14005.1791150,E,0.01,0.00,151219,0.0,E,D*33
$GPGGA,010509.00,3606.2180112,N,14005.1791150,E,4,11,0.9,31.766,M,38.037,M,2.0,*7B
$GPRMC,010510.00,A,3606.2180102,N,14005.1791169,E,0.05,0.00,151219,0.0,E,D*34
$GPGGA,010510.00,3606.2180102,N,14005.1791169,E,4,11,0.9,31.775,M,38.037,M,3.0,*7B
$GPRMC,010511.00,A,3606.2180086,N,14005.1791173,E,0.02,0.00,151219,0.0,E,D*34
$GPGGA,010511.00,3606.2180086,N,14005.1791173,E,4,11,0.9,31.775,M,38.037,M,4.0,*7B
$GPRMC,010512.00,A,3606.2180104,N,14005.1791177,E,0.03,0.00,151219,0.0,E,D*39
$GPGGA,010512.00,3606.2180104,N,14005.1791177,E,4,11,0.9,31.762,M,38.037,M,0.0,*75
$GPRMC,010513.00,A,3606.2180087,N,14005.1791168,E,0.02,0.00,151219,0.0,E,D*3D
$GPGGA,010513.00,3606.2180087,N,14005.1791168,E,4,11,0.9,31.771,M,38.037,M,1.0,*73
$GPRMC,010514.00,A,3606.2180084,N,14005.1791192,E,0.02,0.00,151219,0.0,E,D*3C
$GPGGA,010514.00,3606.2180084,N,14005.1791192,E,4,11,0.9,31.780,M,38.037,M,2.0,*7F
$GPRMC,010515.00,A,3606.2180085,N,14005.1791188,E,0.06,0.00,151219,0.0,E,D*33
$GPGGA,010515.00,3606.2180085,N,14005.1791188,E,4,11,0.9,31.787,M,38.037,M,3.0,*72
$GPRMC,010516.00,A,3606.2180084,N,14005.1791148,E,0.02,0.00,151219,0.0,E,D*39
$GPGGA,010516.00,3606.2180084,N,14005.1791148,E,4,11,0.9,31.783,M,38.037,M,4.0,*7F
$GPRMC,010517.00,A,3606.2180117,N,14005.1791141,E,0.02,0.00,151219,0.0,E,D*3A
$GPGGA,010517.00,3606.2180117,N,14005.1791141,E,4,11,0.9,31.772,M,38.037,M,0.0,*76
$GPRMC,010518.00,A,3606.2180131,N,14005.1791137,E,0.02,0.00,151219,0.0,E,D*30
$GPGGA,010518.00,3606.2180131,N,14005.1791137,E,4,11,0.9,31.783,M,38.037,M,1.0,*73
$GPRMC,010519.00,A,3606.2180103,N,14005.1791156,E,0.07,0.00,151219,0.0,E,D*32
$GPGGA,010519.00,3606.2180103,N,14005.1791156,E,4,11,0.9,31.791,M,38.037,M,2.0,*74
$GPRMC,010520.00,A,3606.2180076,N,14005.1791163,E,0.02,0.00,151219,0.0,E,D*38
$GPGGA,010520.00,3606.2180076,N,14005.1791163,E,4,11,0.9,31.793,M,38.037,M,3.0,*78
$GPRMC,010521.00,A,3606.2180093,N,14005.1791160,E,0.03,0.00,151219,0.0,E,D*30
$GPGGA,010521.00,3606.2180093,N,14005.1791160,E,4,11,0.9,31.789,M,38.037,M,4.0,*7D
$GPRMC,010522.00,A,3606.2180138,N,14005.1791159,E,0.02,0.00,151219,0.0,E,D*38
$GPGGA,010522.00,3606.2180138,N,14005.1791159,E,4,11,0.9,31.779,M,38.037,M,0.0,*7F
$GPRMC,010523.00,A,3606.2180121,N,14005.1791159,E,0.03,0.00,151219,0.0,E,D*30
$GPGGA,010523.00,3606.2180121,N,14005.1791159,E,4,11,0.9,31.791,M,38.037,M,1.0,*71
$GPRMC,010524.00,A,3606.2180099,N,14005.1791175,E,0.03,0.00,151219,0.0,E,D*3B
$GPGGA,010524.00,3606.2180099,N,14005.1791175,E,4,11,0.9,31.795,M,38.037,M,2.0,*7D
$GPRMC,010525.00,A,3606.2180092,N,14005.1791174,E,0.02,0.00,151219,0.0,E,D*31
$GPGGA,010525.00,3606.2180092,N,14005.1791174,E,4,11,0.9,31.791,M,38.037,M,3.0,*73
$GPRMC,010526.00,A,3606.2180068,N,14005.1791158,E,0.02,0.00,151219,0.0,E,D*39
$GPGGA,010526.00,3606.2180068,N,14005.1791158,E,4,11,0.9,31.794,M,38.037,M,4.0,*79
$GPRMC,010527.00,A,3606.2180072,N,14005.1791140,E,0.03,0.00,151219,0.0,E,D*3B
$GPGGA,010527.00,3606.2180072,N,14005.1791140,E,4,11,0.9,31.791,M,38.037,M,0.0,*7B
$GPRMC,010528.00,A,3606.2180081,N,14005.1791154,E,0.01,0.00,151219,0.0,E,D*3F
$GPGGA,010528.00,3606.2180081,N,14005.1791154,E,4,11,0.9,31.795,M,38.037,M,1.0,*78
$GPRMC,010529.00,A,3606.2180061,N,14005.1791169,E,0.01,0.00,151219,0.0,E,D*3E
$GPGGA,010529.00,3606.2180061,N,14005.1791169,E,4,11,0.9,31.791,M,38.037,M,2.0,*7E
$GPRMC,010530.00,A,3606.2180082,N,14005.1791182,E,0.03,0.00,151219,0.0,E,D*3C
$GPGGA,010530.00,3606.2180082,N,14005.1791182,E,4,11,0.9,31.788,M,38.037,M,3.0,*77
$GPRMC,010531.00,A,3606.2180085,N,14005.1791172,E,0.03,0.00,151219,0.0,E,D*35
$GPGGA,010531.00,3606.2180085,N,14005.1791172,E,4,11,0.9,31.804,M,38.037,M,4.0,*72
$GPRMC,010532.00,A,3606.2180079,N,14005.1791160,E,0.02,0.00,151219,0.0,E,D*37
$GPGGA,010532.00,3606.2180079,N,14005.1791160,E,4,11,0.9,31.796,M,38.037,M,0.0,*71
$GPRMC,010533.00,A,3606.2180108,N,14005.1791181,E,0.01,0.00,151219,0.0,E,D*3D
$GPGGA,010533.00,3606.2180108,N,14005.1791181,E,4,11,0.9,31.788,M,38.037,M,1.0,*76
$GPRMC,010534.00,A,3606.2180067,N,14005.1791216,E,0.05,0.00,151219,0.0,E,D*3B
$GPGGA,010534.00,3606.2180067,N,14005.1791216,E,4,11,0.9,31.799,M,38.037,M,2.0,*77
$GPRMC,010535.00,A,3606.2180102,N,14005.1791184,E,0.05,0.00,151219,0.0,E,D*30
$GPGGA,010535.00,3606.2180102,N,14005.1791184,E,4,11,0.9,31.795,M,38.037,M,3.0,*71
$GPRMC,010536.00,A,3606.2180088,N,14005.1791204,E,0.03,0.00,151219,0.0,E,D*3D
$GPGGA,010536.00,3606.2180088,N,14005.1791204,E,4,11,0.9,31.795,M,38.037,M,4.0,*7D
$GPRMC,010537.00,A,3606.2180114,N,14005.1791184,E,0.03,0.00,151219,0.0,E,D*33
$GPGGA,010537.00,3606.2180114,N,14005.1791184,E,4,11,0.9,31.790,M,38.037,M,0.0,*72
$GPRMC,010538.00,A,3606.2180113,N,14005.1791187,E,0.01,0.00,151219,0.0,E,D*3A
$GPGGA,010538.00,3606.2180113,N,14005.1791187,E,4,11,0.9,31.776,M,38.037,M,1.0,*70
$GPRMC,010539.00,A,3606.2180102,N,14005.1791191,E,0.03,0.00,151219,0.0,E,D*3E
$GPGGA,010539.00,3606.2180102,N,14005.1791191,E,4,11,0.9,31.792,M,38.037,M,2.0,*7F
$GPRMC,010540.00,A,3606.2180117,N,14005.1791199,E,0.01,0.00,151219,0.0,E,D*3E
$GPGGA,010540.00,3606.2180117,N,14005.1791199,E,4,11,0.9,31.787,M,38.037,M,3.0,*78
$GPRMC,010541.00,A,3606.2180163,N,14005.1791196,E,0.02,0.00,151219,0.0,E,D*30
$GPGGA,010541.00,3606.2180163,N,14005.1791196,E,4,11,0.9,31.775,M,38.037,M,4.0,*7F
$GPRMC,010542.00,A,3606.2180129,N,14005.1791208,E,0.02,0.00,151219,0.0,E,D*39
$GPGGA,010542.00,3606.2180129,N,14005.1791208,E,4,11,0.9,31.772,M,38.037,M,0.0,*75
$GPRMC,010543.00,A,3606.2180121,N,14005.1791227,E,0.03,0.00,151219,0.0,E,D*3C
$GPGGA,010543.00,3606.2180121,N,14005.1791227,E,4,11,0.9,31.769,M,38.037,M,1.0,*7A
$GPRMC,010544.00,A,3606.2180144,N,14005.1791221,E,0.01,0.00,151219,0.0,E,D*3C
$GPGGA,010544.00,3606.2180144,N,14005.1791221,E,4,11,0.9,31.772,M,38.037,M,2.0,*71
$GPRMC,010545.00,A,3606.2180120,N,14005.1791216,E,0.05,0.00,151219,0.0,E,D*3F
$GPGGA,010545.00,3606.2180120,N,14005.1791216,E,4,11,0.9,31.777,M,38.037,M,3.0,*72
$GPRMC,010546.00,A,3606.2180140,N,14005.1791229,E,0.03,0.00,151219,0.0,E,D*30
$GPGGA,010546.00,3606.2180140,N,14005.1791229,E,4,11,0.9,31.777,M,38.037,M,4.0,*7C
$GPRMC,010547.00,A,3606.2180141,N,14005.1791220,E,0.05,0.00,151219,0.0,E,D*3F
$GPGGA,010547.00,3606.2180141,N,14005.1791220,E,4,11,0.9,31.767,M,38.037,M,0.0,*70
$GPRMC,010548.00,A,3606.2180178,N,14005.1791204,E,0.02,0.00,151219,0.0,E,D*3B
$GPGGA,010548.00,3606.2180178,N,14005.1791204,E,4,11,0.9,31.758,M,38.037,M,1.0,*7E
$GPRMC,010549.00,A,3606.2180179,N,14005.1791186,E,0.01,0.00,151219,0.0,E,D*31
$GPGGA,010549.00,3606.2180179,N,14005.1791186,E,4,11,0.9,31.757,M,38.037,M,2.0,*7B
$GPRMC,010550.00,A,3606.2180155,N,14005.1791201,E,0.04,0.00,151219,0.0,E,D*3E
$GPGGA,010550.00,3606.2180155,N,14005.1791201,E,4,11,0.9,31.763,M,38.037,M,3.0,*77
$GPRMC,010551.00,A,3606.2180157,N,14005.1791212,E,0.04,0.00,151219,0.0,E,D*3F
$GPGGA,010551.00,3606.2180157,N,14005.1791212,E,4,11,0.9,31.760,M,38.037,M,4.0,*72
$GPRMC,010552.00,A,3606.2180162,N,14005.1791187,E,0.03,0.00,151219,0.0,E,D*32
$GPGGA,010552.00,3606.2180162,N,14005.1791187,E,4,11,0.9,31.751,M,38.037,M,0.0,*7E
$GPRMC,010553.00,A,3606.2180174,N,14005.1791171,E,0.02,0.00,151219,0.0,E,D*3C
$GPGGA,010553.00,3606.2180174,N,14005.1791171,E,4,11,0.9,31.756,M,38.037,M,1.0,*77
$GPRMC,010554.00,A,3606.2180159,N,14005.1791153,E,0.03,0.00,151219,0.0,E,D*35
