$GPRMC,195942.00,A,3606.2180224,N,14005.1790999,E,0.01,0.00,060625,0.0,E,D*3E
$GPGGA,195942.00,3606.2180224,N,14005.1790999,E,5,16,0.0,32.047,M,38.037,M,-1.0,*58
$GPRMC,195943.00,A,3606.2180325,N,14005.1790899,E,0.01,0.00,060625,0.0,E,D*3E
$GPGGA,195943.00,3606.2180325,N,14005.1790899,E,5,16,0.0,32.060,M,38.037,M,0.0,*71
$GPRMC,195944.00,A,3606.2180297,N,14005.1790780,E,0.01,0.00,060625,0.0,E,D*36
$GPGGA,195944.00,3606.2180297,N,14005.1790780,E,5,16,0.0,32.077,M,38.037,M,0.0,*7F
$GPRMC,195945.00,A,3606.2180314,N,14005.1790668,E,0.02,0.00,060625,0.0,E,D*39
$GPGGA,195945.00,3606.2180314,N,14005.1790668,E,5,16,0.0,32.086,M,38.037,M,0.0,*7D
$GPRMC,195946.00,A,3606.2180323,N,14005.1790673,E,0.01,0.00,060625,0.0,E,D*37
$GPGGA,195946.00,3606.2180323,N,14005.1790673,E,5,16,0.0,32.098,M,38.037,M,0.0,*7F
$GPRMC,195947.00,A,3606.2179902,N,14005.1791307,E,0.03,0.00,060625,0.0,E,D*3C
$GPGGA,195947.00,3606.2179902,N,14005.1791307,E,4,16,0.0,31.829,M,38.037,M,0.0,*76
$GPRMC,195948.00,A,3606.2179894,N,14005.1791311,E,0.02,0.00,060625,0.0,E,D*3B
$GPGGA,195948.00,3606.2179894,N,14005.1791311,E,4,16,0.0,31.829,M,38.037,M,0.0,*70
$GPRMC,195949.00,A,3606.2179896,N,14005.1791307,E,0.01,0.00,060625,0.0,E,D*3C
$GPGGA,195949.00,3606.2179896,N,14005.1791307,E,4,16,0.0,31.828,M,38.037,M,0.0,*75
$GPRMC,195950.00,A,3606.2179896,N,14005.1791307,E,0.03,0.00,060625,0.0,E,D*36
$GPGGA,195950.00,3606.2179896,N,14005.1791307,E,4,16,0.0,31.831,M,38.037,M,0.0,*75
$GPRMC,195951.00,A,3606.2179895,N,14005.1791311,E,0.01,0.00,060625,0.0,E,D*31
$GPGGA,195951.00,3606.2179895,N,14005.1791311,E,4,16,0.0,31.833,M,38.037,M,0.0,*72
$GPRMC,195952.00,A,3606.2179900,N,14005.1791306,E,0.02,0.00,060625,0.0,E,D*3A
$GPGGA,195952.00,3606.2179900,N,14005.1791306,E,4,16,0.0,31.835,M,38.037,M,0.0,*7C
$GPRMC,195953.00,A,3606.2179902,N,14005.1791312,E,0.01,0.00,060625,0.0,E,D*3F
$GPGGA,195953.00,3606.2179902,N,14005.1791312,E,4,16,0.0,31.835,M,38.037,M,0.0,*7A
$GPRMC,195954.00,A,3606.2179906,N,14005.1791314,E,0.02,0.00,060625,0.0,E,D*39
$GPGGA,195954.00,3606.2179906,N,14005.1791314,E,4,16,0.0,31.836,M,38.037,M,0.0,*7C
$GPRMC,195955.00,A,3606.2179910,N,14005.1791305,E,0.02,0.00,060625,0.0,E,D*3F
$GPGGA,195955.00,3606.2179910,N,14005.1791305,E,4,16,0.0,31.841,M,38.037,M,0.0,*7A
$GPRMC,195956.00,A,3606.2179913,N,14005.1791309,E,0.02,0.00,060625,0.0,E,D*33
$GPGGA,195956.00,3606.2179913,N,14005.1791309,E,4,16,0.0,31.837,M,38.037,M,0.0,*77
$GPRMC,195957.00,A,3606.2179921,N,14005.1791310,E,0.01,0.00,060625,0.0,E,D*38
$GPGGA,195957.00,3606.2179921,N,14005.1791310,E,4,16,0.0,31.839,M,38.037,M,0.0,*71
$GPRMC,195958.00,A,3606.2179924,N,14005.1791308,E,0.03,0.00,060625,0.0,E,D*39
$GPGGA,195958.00,3606.2179924,N,14005.1791308,E,4,16,0.0,31.838,M,38.037,M,0.0,*73
$GPRMC,195959.00,A,3606.2179927,N,14005.1791308,E,0.01,0.00,060625,0.0,E,D*39
$GPGGA,195959.00,3606.2179927,N,14005.1791308,E,4,16,0.0,31.839,M,38.037,M,0.0,*70
$GPRMC,200000.00,A,3606.2179923,N,14005.1791307,E,0.01,0.00,060625,0.0,E,D*38
$GPGGA,200000.00,3606.2179923,N,14005.1791307,E,4,16,0.0,31.836,M,38.037,M,0.0,*7E
$GPRMC,200001.00,A,3606.2179930,N,14005.1791304,E,0.03,0.00,060625,0.0,E,D*3A
$GPGGA,200001.00,3606.2179930,N,14005.1791304,E,4,16,0.0,31.835,M,38.037,M,0.0,*7D
$GPRMC,200002.00,A,3606.2179924,N,14005.1791299,E,0.03,0.00,060625,0.0,E,D*39
$GPGGA,200002.00,3606.2179924,N,14005.1791299,E,4,16,0.0,31.836,M,38.037,M,0.0,*7D
$GPRMC,200003.00,A,3606.2179927,N,14005.1791303,E,0.01,0.00,060625,0.0,E,D*3B
$GPGGA,200003.00,3606.2179927,N,14005.1791303,E,4,16,0.0,31.837,M,38.037,M,0.0,*7C
$GPRMC,200004.00,A,3606.2179925,N,14005.1791301,E,0.02,0.00,060625,0.0,E,D*3F
$GPGGA,200004.00,3606.2179925,N,14005.1791301,E,4,16,0.0,31.839,M,38.037,M,0.0,*75
$GPRMC,200005.00,A,3606.2179929,N,14005.1791299,E,0.02,0.00,060625,0.0,E,D*32
$GPGGA,200005.00,3606.2179929,N,14005.1791299,E,4,16,0.0,31.838,M,38.037,M,0.0,*79
$GPRMC,200006.00,A,3606.2179929,N,14005.1791297,E,0.01,0.00,060625,0.0,E,D*3C
$GPGGA,200006.00,3606.2179929,N,14005.1791297,E,4,16,0.0,31.838,M,38.037,M,0.0,*74
$GPRMC,200007.00,A,3606.2179932,N,14005.1791310,E,0.02,0.00,060625,0.0,E,D*3A
$GPGGA,200007.00,3606.2179932,N,14005.1791310,E,4,16,0.0,31.836,M,38.037,M,0.0,*7F
$GPRMC,200008.00,A,3606.2179934,N,14005.1791310,E,0.04,0.00,060625,0.0,E,D*35
$GPGGA,200008.00,3606.2179934,N,14005.1791310,E,4,16,0.0,31.833,M,38.037,M,0.0,*73
$GPRMC,200009.00,A,3606.2179940,N,14005.1791306,E,0.02,0.00,060625,0.0,E,D*36
$GPGGA,200009.00,3606.2179940,N,14005.1791306,E,4,16,0.0,31.833,M,38.037,M,0.0,*76
$GPRMC,200010.00,A,3606.2179941,N,14005.1791315,E,0.03,0.00,060625,0.0,E,D*3C
$GPGGA,200010.00,3606.2179941,N,14005.1791315,E,4,16,0.0,31.832,M,38.037,M,0.0,*7C
$GPRMC,200011.00,A,3606.2179941,N,14005.1791312,E,0.02,0.00,060625,0.0,E,D*3B
$GPGGA,200011.00,3606.2179941,N,14005.1791312,E,4,16,0.0,31.830,M,38.037,M,0.0,*78
$GPRMC,200012.00,A,3606.2179939,N,14005.1791320,E,0.02,0.00,060625,0.0,E,D*36
$GPGGA,200012.00,3606.2179939,N,14005.1791320,E,4,16,0.0,31.830,M,38.037,M,0.0,*75
$GPRMC,200013.00,A,3606.2179945,N,14005.1791318,E,0.02,0.00,060625,0.0,E,D*37
$GPGGA,200013.00,3606.2179945,N,14005.1791318,E,4,16,0.0,31.828,M,38.037,M,0.0,*7D
$GPRMC,200014.00,A,3606.2179936,N,14005.1791316,E,0.01,0.00,060625,0.0,E,D*39
$GPGGA,200014.00,3606.2179936,N,14005.1791316,E,4,16,0.0,31.830,M,38.037,M,0.0,*79
$GPRMC,200015.00,A,3606.2179933,N,14005.1791308,E,0.01,0.00,060625,0.0,E,D*32
$GPGGA,200015.00,3606.2179933,N,14005.1791308,E,4,16,0.0,31.831,M,38.037,M,0.0,*73
$GPRMC,200016.00,A,3606.2179930,N,14005.1791311,E,0.03,0.00,060625,0.0,E,D*38
$GPGGA,200016.00,3606.2179930,N,14005.1791311,E,4,16,0.0,31.828,M,38.037,M,0.0,*73
$GPRMC,200017.00,A,3606.2179938,N,14005.1791321,E,0.02,0.00,060625,0.0,E,D*33
$GPGGA,200017.00,3606.2179938,N,14005.1791321,E,4,16,0.0,31.829,M,38.037,M,0.0,*78
$GPRMC,200018.00,A,3606.2179940,N,14005.1791321,E,0.02,0.00,060625,0.0,E,D*33
$GPGGA,200018.00,3606.2179940,N,14005.1791321,E,4,16,0.0,31.827,M,38.037,M,0.0,*76
$GPRMC,200019.00,A,3606.2179947,N,14005.1791324,E,0.03,0.00,060625,0.0,E,D*31
$GPGGA,200019.00,3606.2179947,N,14005.1791324,E,4,16,0.0,31.828,M,38.037,M,0.0,*7A
$GPRMC,200020.00,A,3606.2179950,N,14005.1791323,E,0.02,0.00,060625,0.0,E,D*3B
$GPGGA,200020.00,3606.2179950,N,14005.1791323,E,4,16,0.0,31.830,M,38.037,M,0.0,*78
$GPRMC,200021.00,A,3606.2179946,N,14005.1791320,E,0.03,0.00,060625,0.0,E,D*3F
$GPGGA,200021.00,3606.2179946,N,14005.1791320,E,4,16,0.0,31.827,M,38.037,M,0.0,*7B
$GPRMC,200022.00,A,3606.2179942,N,14005.1791334,E,0.02,0.00,060625,0.0,E,D*3C
$GPGGA,200022.00,3606.2179942,N,14005.1791334,E,4,16,0.0,31.825,M,38.037,M,0.0,*7B
$GPRMC,200023.00,A,3606.2179944,N,14005.1791341,E,0.03,0.00,060625,0.0,E,D*38
$GPGGA,200023.00,3606.2179944,N,14005.1791341,E,4,16,0.0,31.823,M,38.037,M,0.0,*78
$GPRMC,200024.00,A,3606.2179949,N,14005.1791341,E,0.02,0.00,060625,0.0,E,D*33
$GPGGA,200024.00,3606.2179949,N,14005.1791341,E,4,16,0.0,31.822,M,38.037,M,0.0,*73
$GPRMC,200025.00,A,3606.2179945,N,14005.1791344,E,0.02,0.00,060625,0.0,E,D*3B
$GPGGA,200025.00,3606.2179945,N,14005.1791344,E,4,16,0.0,31.820,M,38.037,M,0.0,*79
$GPRMC,200026.00,A,3606.2179943,N,14005.1791346,E,0.03,0.00,060625,0.0,E,D*3D
$GPGGA,200026.00,3606.2179943,N,14005.1791346,E,4,16,0.0,31.818,M,38.037,M,0.0,*75
$GPRMC,200027.00,A,3606.2179895,N,14005.1791287,E,0.01,0.00,060625,0.0,E,D*38
$GPGGA,200027.00,3606.2179895,N,14005.1791287,E,4,16,0.0,31.854,M,38.037,M,0.0,*7A
$GPRMC,200028.00,A,3606.2179908,N,14005.1791287,E,0.02,0.00,060625,0.0,E,D*31
$GPGGA,200028.00,3606.2179908,N,14005.1791287,E,4,16,0.0,31.858,M,38.037,M,0.0,*7C
$GPRMC,200029.00,A,3606.2179920,N,14005.1791298,E,0.01,0.00,060625,0.0,E,D*37
$GPGGA,200029.00,3606.2179920,N,14005.1791298,E,4,16,0.0,31.851,M,38.037,M,0.0,*70
$GPRMC,200030.00,A,3606.2179914,N,14005.1791299,E,0.01,0.00,060625,0.0,E,D*39
$GPGGA,200030.00,3606.2179914,N,14005.1791299,E,4,16,0.0,31.852,M,38.037,M,0.0,*7D
$GPRMC,200031.00,A,3606.2179912,N,14005.1791294,E,0.02,0.00,060625,0.0,E,D*30
$GPGGA,200031.00,3606.2179912,N,14005.1791294,E,4,16,0.0,31.850,M,38.037,M,0.0,*75
$GPRMC,200032.00,A,3606.2179900,N,14005.1791304,E,0.02,0.00,060625,0.0,E,D*38
$GPGGA,200032.00,3606.2179900,N,14005.1791304,E,4,16,0.0,31.845,M,38.037,M,0.0,*79
$GPRMC,200033.00,A,3606.2179898,N,14005.1791294,E,0.02,0.00,060625,0.0,E,D*31
$GPGGA,200033.00,3606.2179898,N,14005.1791294,E,4,16,0.0,31.842,M,38.037,M,0.0,*77
$GPRMC,200034.00,A,3606.2179903,N,14005.1791304,E,0.02,0.00,060625,0.0,E,D*3D
$GPGGA,200034.00,3606.2179903,N,14005.1791304,E,4,16,0.0,31.839,M,38.037,M,0.0,*77
$GPRMC,200035.00,A,3606.2179899,N,14005.1791299,E,0.05,0.00,060625,0.0,E,D*3C
$GPGGA,200035.00,3606.2179899,N,14005.1791299,E,4,16,0.0,31.836,M,38.037,M,0.0,*7E
$GPRMC,200036.00,A,3606.2179899,N,14005.1791305,E,0.02,0.00,060625,0.0,E,D*3C
$GPGGA,200036.00,3606.2179899,N,14005.1791305,E,4,16,0.0,31.837,M,38.037,M,0.0,*78
$GPRMC,200037.00,A,3606.2179896,N,14005.1791292,E,0.02,0.00,060625,0.0,E,D*3D
$GPGGA,200037.00,3606.2179896,N,14005.1791292,E,4,16,0.0,31.833,M,38.037,M,0.0,*7D
$GPRMC,200038.00,A,3606.2179891,N,14005.1791294,E,0.01,0.00,060625,0.0,E,D*30
$GPGGA,200038.00,3606.2179891,N,14005.1791294,E,4,16,0.0,31.832,M,38.037,M,0.0,*72
$GPRMC,200039.00,A,3606.2179896,N,14005.1791295,E,0.02,0.00,060625,0.0,E,D*34
$GPGGA,200039.00,3606.2179896,N,14005.1791295,E,4,16,0.0,31.826,M,38.037,M,0.0,*70
$GPRMC,200040.00,A,3606.2179904,N,14005.1791299,E,0.02,0.00,060625,0.0,E,D*3C
$GPGGA,200040.00,3606.2179904,N,14005.1791299,E,4,16,0.0,31.825,M,38.037,M,0.0,*7B
$GPRMC,200041.00,A,3606.2179900,N,14005.1791305,E,0.02,0.00,060625,0.0,E,D*3D
$GPGGA,200041.00,3606.2179900,N,14005.1791305,E,4,16,0.0,31.821,M,38.037,M,0.0,*7E
$GPRMC,200042.00,A,3606.2179897,N,14005.1791300,E,0.02,0.00,060625,0.0,E,D*34
$GPGGA,200042.00,3606.2179897,N,14005.1791300,E,4,16,0.0,31.823,M,38.037,M,0.0,*75
$GPRMC,200043.00,A,3606.2179894,N,14005.1791302,E,0.03,0.00,060625,0.0,E,D*35
$GPGGA,200043.00,3606.2179894,N,14005.1791302,E,4,16,0.0,31.820,M,38.037,M,0.0,*76
$GPRMC,200044.00,A,3606.2179901,N,14005.1791303,E,0.02,0.00,060625,0.0,E,D*3F
$GPGGA,200044.00,3606.2179901,N,14005.1791303,E,4,16,0.0,31.819,M,38.037,M,0.0,*77
$GPRMC,200045.00,A,3606.2179893,N,14005.1791302,E,0.01,0.00,060625,0.0,E,D*36
$GPGGA,200045.00,3606.2179893,N,14005.1791302,E,4,16,0.0,31.818,M,38.037,M,0.0,*7C
$GPRMC,200046.00,A,3606.2179907,N,14005.1791307,E,0.02,0.00,060625,0.0,E,D*3F
$GPGGA,200046.00,3606.2179907,N,14005.1791307,E,4,16,0.0,31.815,M,38.037,M,0.0,*7B
$GPRMC,200047.00,A,3606.2179908,N,14005.1791303,E,0.01,0.00,060625,0.0,E,D*36
$GPGGA,200047.00,3606.2179908,N,14005.1791303,E,4,16,0.0,31.814,M,38.037,M,0.0,*70
$GPRMC,200048.00,A,3606.2179911,N,14005.1791310,E,0.03,0.00,060625,0.0,E,D*31
$GPGGA,200048.00,3606.2179911,N,14005.1791310,E,4,16,0.0,31.812,M,38.037,M,0.0,*73
$GPRMC,200049.00,A,3606.2179913,N,14005.1791317,E,0.02,0.00,060625,0.0,E,D*34
$GPGGA,200049.00,3606.2179913,N,14005.1791317,E,4,16,0.0,31.810,M,38.037,M,0.0,*75
$GPRMC,200050.00,A,3606.2179912,N,14005.1791322,E,0.01,0.00,060625,0.0,E,D*38
$GPGGA,200050.00,3606.2179912,N,14005.1791322,E,4,16,0.0,31.809,M,38.037,M,0.0,*72
$GPRMC,200051.00,A,3606.2179921,N,14005.1791326,E,0.02,0.00,060625,0.0,E,D*3E
$GPGGA,200051.00,3606.2179921,N,14005.1791326,E,4,16,0.0,31.806,M,38.037,M,0.0,*78
$GPRMC,200052.00,A,3606.2179947,N,14005.1791326,E,0.03,0.00,060625,0.0,E,D*3C
$GPGGA,200052.00,3606.2179947,N,14005.1791326,E,4,16,0.0,31.804,M,38.037,M,0.0,*79
$GPRMC,200053.00,A,3606.2179950,N,14005.1791338,E,0.01,0.00,060625,0.0,E,D*36
$GPGGA,200053.00,3606.2179950,N,14005.1791338,E,4,16,0.0,31.801,M,38.037,M,0.0,*74
$GPRMC,200054.00,A,3606.2179948,N,14005.1791340,E,0.02,0.00,060625,0.0,E,D*34
$GPGGA,200054.00,3606.2179948,N,14005.1791340,E,4,16,0.0,31.801,M,38.037,M,0.0,*75
$GPRMC,200055.00,A,3606.2179952,N,14005.1791335,E,0.01,0.00,060625,0.0,E,D*3F
$GPGGA,200055.00,3606.2179952,N,14005.1791335,E,4,16,0.0,31.798,M,38.037,M,0.0,*72
$GPRMC,200056.00,A,3606.2179957,N,14005.1791346,E,0.01,0.00,060625,0.0,E,D*3D
$GPGGA,200056.00,3606.2179957,N,14005.1791346,E,4,16,0.0,31.796,M,38.037,M,0.0,*7E
$GPRMC,200057.00,A,3606.2179944,N,14005.1791298,E,0.03,0.00,060625,0.0,E,D*3E
$GPGGA,200057.00,3606.2179944,N,14005.1791298,E,4,16,0.0,31.834,M,38.037,M,0.0,*78
$GPRMC,200058.00,A,3606.2179939,N,14005.1791279,E,0.01,0.00,060625,0.0,E,D*36
$GPGGA,200058.00,3606.2179939,N,14005.1791279,E,4,16,0.0,31.847,M,38.037,M,0.0,*76
$GPRMC,200059.00,A,3606.2179934,N,14005.1791270,E,0.02,0.00,060625,0.0,E,D*30
$GPGGA,200059.00,3606.2179934,N,14005.1791270,E,4,16,0.0,31.849,M,38.037,M,0.0,*7D
$GPRMC,200100.00,A,3606.2179920,N,14005.1791270,E,0.00,0.00,060625,0.0,E,D*3A
$GPGGA,200100.00,3606.2179920,N,14005.1791270,E,4,16,0.0,31.847,M,38.037,M,0.0,*7B
$GPRMC,200101.00,A,3606.2179912,N,14005.1791280,E,0.02,0.00,060625,0.0,E,D*37
$GPGGA,200101.00,3606.2179912,N,14005.1791280,E,4,16,0.0,31.846,M,38.037,M,0.0,*75
$GPRMC,200102.00,A,3606.2179922,N,14005.1791270,E,0.01,0.00,060625,0.0,E,D*3B
$GPGGA,200102.00,3606.2179922,N,14005.1791270,E,4,16,0.0,31.840,M,38.037,M,0.0,*7C
$GPRMC,200103.00,A,3606.2179945,N,14005.1791265,E,0.02,0.00,060625,0.0,E,D*3C
$GPGGA,200103.00,3606.2179945,N,14005.1791265,E,4,16,0.0,31.832,M,38.037,M,0.0,*7D
$GPRMC,200104.00,A,3606.2179939,N,14005.1791253,E,0.01,0.00,060625,0.0,E,D*36
$GPGGA,200104.00,3606.2179939,N,14005.1791253,E,4,16,0.0,31.832,M,38.037,M,0.0,*74
$GPRMC,200105.00,A,3606.2179938,N,14005.1791244,E,0.02,0.00,060625,0.0,E,D*33
$GPGGA,200105.00,3606.2179938,N,14005.1791244,E,4,15,0.0,31.829,M,38.037,M,0.0,*7B
$GPRMC,200106.00,A,3606.2179932,N,14005.1791227,E,0.02,0.00,060625,0.0,E,D*3F
$GPGGA,200106.00,3606.2179932,N,14005.1791227,E,4,16,0.0,31.830,M,38.037,M,0.0,*7C
$GPRMC,200107.00,A,3606.2179930,N,14005.1791207,E,0.03,0.00,060625,0.0,E,D*3F
$GPGGA,200107.00,3606.2179930,N,14005.1791207,E,4,16,0.0,31.823,M,38.037,M,0.0,*7F
$GPRMC,200108.00,A,3606.2179946,N,14005.1791216,E,0.02,0.00,060625,0.0,E,D*30
$GPGGA,200108.00,3606.2179946,N,14005.1791216,E,4,16,0.0,31.815,M,38.037,M,0.0,*74
$GPRMC,200109.00,A,3606.2179943,N,14005.1791227,E,0.02,0.00,060625,0.0,E,D*36
$GPGGA,200109.00,3606.2179943,N,14005.1791227,E,4,16,0.0,31.816,M,38.037,M,0.0,*71
$GPRMC,200110.00,A,3606.2179934,N,14005.1791226,E,0.02,0.00,060625,0.0,E,D*3F
$GPGGA,200110.00,3606.2179934,N,14005.1791226,E,4,16,0.0,31.818,M,38.037,M,0.0,*76
$GPRMC,200111.00,A,3606.2179942,N,14005.1791235,E,0.01,0.00,060625,0.0,E,D*3E
$GPGGA,200111.00,3606.2179942,N,14005.1791235,E,4,16,0.0,31.815,M,38.037,M,0.0,*79
$GPRMC,200112.00,A,3606.2179957,N,14005.1791256,E,0.02,0.00,060625,0.0,E,D*3F
$GPGGA,200112.00,3606.2179957,N,14005.1791256,E,4,16,0.0,31.812,M,38.037,M,0.0,*7C
$GPRMC,200113.00,A,3606.2179960,N,14005.1791258,E,0.03,0.00,060625,0.0,E,D*35
$GPGGA,200113.00,3606.2179960,N,14005.1791258,E,4,16,0.0,31.812,M,38.037,M,0.0,*77
$GPRMC,200114.00,A,3606.2179954,N,14005.1791256,E,0.02,0.00,060625,0.0,E,D*3A
$GPGGA,200114.00,3606.2179954,N,14005.1791256,E,4,16,0.0,31.813,M,38.037,M,0.0,*78
$GPRMC,200115.00,A,3606.2179964,N,14005.1791265,E,0.01,0.00,060625,0.0,E,D*3B
$GPGGA,200115.00,3606.2179964,N,14005.1791265,E,4,16,0.0,31.814,M,38.037,M,0.0,*7D
$GPRMC,200116.00,A,3606.2179968,N,14005.1791276,E,0.03,0.00,060625,0.0,E,D*34
$GPGGA,200116.00,3606.2179968,N,14005.1791276,E,4,16,0.0,31.811,M,38.037,M,0.0,*75
$GPRMC,200117.00,A,3606.2179964,N,14005.1791266,E,0.04,0.00,060625,0.0,E,D*3F
$GPGGA,200117.00,3606.2179964,N,14005.1791266,E,4,16,0.0,31.814,M,38.037,M,0.0,*7C
$GPRMC,200118.00,A,3606.2179968,N,14005.1791267,E,0.01,0.00,060625,0.0,E,D*38
$GPGGA,200118.00,3606.2179968,N,14005.1791267,E,4,16,0.0,31.811,M,38.037,M,0.0,*7B
$GPRMC,200119.00,A,3606.2179979,N,14005.1791269,E,0.02,0.00,060625,0.0,E,D*34
$GPGGA,200119.00,3606.2179979,N,14005.1791269,E,4,16,0.0,31.809,M,38.037,M,0.0,*7D
$GPRMC,200120.00,A,3606.2179986,N,14005.1791275,E,0.02,0.00,060625,0.0,E,D*33
$GPGGA,200120.00,3606.2179986,N,14005.1791275,E,4,15,0.0,31.805,M,38.037,M,0.0,*75
$GPRMC,200121.00,A,3606.2179956,N,14005.1791233,E,0.01,0.00,060625,0.0,E,D*3E
$GPGGA,200121.00,3606.2179956,N,14005.1791233,E,4,16,0.0,31.814,M,38.037,M,0.0,*78
$GPRMC,200122.00,A,3606.2179951,N,14005.1791223,E,0.05,0.00,060625,0.0,E,D*3F
$GPGGA,200122.00,3606.2179951,N,14005.1791223,E,4,16,0.0,31.815,M,38.037,M,0.0,*7C
$GPRMC,200123.00,A,3606.2179948,N,14005.1791222,E,0.02,0.00,060625,0.0,E,D*30
$GPGGA,200123.00,3606.2179948,N,14005.1791222,E,4,16,0.0,31.814,M,38.037,M,0.0,*75
$GPRMC,200124.00,A,3606.2179947,N,14005.1791233,E,0.02,0.00,060625,0.0,E,D*38
$GPGGA,200124.00,3606.2179947,N,14005.1791233,E,4,16,0.0,31.812,M,38.037,M,0.0,*7B
$GPRMC,200125.00,A,3606.2179953,N,14005.1791236,E,0.01,0.00,060625,0.0,E,D*3A
$GPGGA,200125.00,3606.2179953,N,14005.1791236,E,4,16,0.0,31.810,M,38.037,M,0.0,*78
$GPRMC,200126.00,A,3606.2179940,N,14005.1791224,E,0.02,0.00,060625,0.0,E,D*3B
$GPGGA,200126.00,3606.2179940,N,14005.1791224,E,4,16,0.0,31.809,M,38.037,M,0.0,*72
$GPRMC,200127.00,A,3606.2180023,N,14005.1791362,E,0.01,0.00,060625,0.0,E,D*30
$GPGGA,200127.00,3606.2180023,N,14005.1791362,E,4,15,0.0,31.825,M,38.037,M,0.0,*77
$GPRMC,200128.00,A,3606.2180024,N,14005.1791313,E,0.02,0.00,060625,0.0,E,D*3D
$GPGGA,200128.00,3606.2180024,N,14005.1791313,E,4,16,0.0,31.823,M,38.037,M,0.0,*7C
$GPRMC,200129.00,A,3606.2180026,N,14005.1791300,E,0.03,0.00,060625,0.0,E,D*3D
$GPGGA,200129.00,3606.2180026,N,14005.1791300,E,4,16,0.0,31.821,M,38.037,M,0.0,*7F
$GPRMC,200130.00,A,3606.2180014,N,14005.1791312,E,0.01,0.00,060625,0.0,E,D*35
$GPGGA,200130.00,3606.2180014,N,14005.1791312,E,4,16,0.0,31.824,M,38.037,M,0.0,*70
$GPRMC,200131.00,A,3606.2180017,N,14005.1791313,E,0.01,0.00,060625,0.0,E,D*36
$GPGGA,200131.00,3606.2180017,N,14005.1791313,E,4,16,0.0,31.819,M,38.037,M,0.0,*7D
$GPRMC,200132.00,A,3606.2179990,N,14005.1791290,E,0.06,0.00,060625,0.0,E,D*38
$GPGGA,200132.00,3606.2179990,N,14005.1791290,E,4,16,0.0,31.815,M,38.037,M,0.0,*78
$GPRMC,200133.00,A,3606.2179988,N,14005.1791304,E,0.03,0.00,060625,0.0,E,D*39
$GPGGA,200133.00,3606.2179988,N,14005.1791304,E,4,16,0.0,31.815,M,38.037,M,0.0,*7C
$GPRMC,200134.00,A,3606.2179982,N,14005.1791300,E,0.02,0.00,060625,0.0,E,D*31
$GPGGA,200134.00,3606.2179982,N,14005.1791300,E,4,16,0.0,31.816,M,38.037,M,0.0,*76
$GPRMC,200135.00,A,3606.2179982,N,14005.1791300,E,0.01,0.00,060625,0.0,E,D*33
$GPGGA,200135.00,3606.2179982,N,14005.1791300,E,4,16,0.0,31.813,M,38.037,M,0.0,*72
$GPRMC,200136.00,A,3606.2179975,N,14005.1791302,E,0.03,0.00,060625,0.0,E,D*38
$GPGGA,200136.00,3606.2179975,N,14005.1791302,E,4,16,0.0,31.817,M,38.037,M,0.0,*7F
$GPRMC,200137.00,A,3606.2179974,N,14005.1791298,E,0.02,0.00,060625,0.0,E,D*3B
$GPGGA,200137.00,3606.2179974,N,14005.1791298,E,4,16,0.0,31.822,M,38.037,M,0.0,*7B
$GPRMC,200138.00,A,3606.2179970,N,14005.1791300,E,0.02,0.00,060625,0.0,E,D*30
$GPGGA,200138.00,3606.2179970,N,14005.1791300,E,4,16,0.0,31.822,M,38.037,M,0.0,*70
$GPRMC,200139.00,A,3606.2179961,N,14005.1791309,E,0.01,0.00,060625,0.0,E,D*3B
$GPGGA,200139.00,3606.2179961,N,14005.1791309,E,4,16,0.0,31.822,M,38.037,M,0.0,*78
$GPRMC,200140.00,A,3606.2179958,N,14005.1791311,E,0.02,0.00,060625,0.0,E,D*35
$GPGGA,200140.00,3606.2179958,N,14005.1791311,E,4,16,0.0,31.822,M,38.037,M,0.0,*75
$GPRMC,200141.00,A,3606.2179958,N,14005.1791317,E,0.02,0.00,060625,0.0,E,D*32
$GPGGA,200141.00,3606.2179958,N,14005.1791317,E,4,16,0.0,31.821,M,38.037,M,0.0,*71
$GPRMC,200142.00,A,3606.2179951,N,14005.1791319,E,0.02,0.00,060625,0.0,E,D*36
$GPGGA,200142.00,3606.2179951,N,14005.1791319,E,4,16,0.0,31.825,M,38.037,M,0.0,*71
$GPRMC,200143.00,A,3606.2179950,N,14005.1791323,E,0.04,0.00,060625,0.0,E,D*39
$GPGGA,200143.00,3606.2179950,N,14005.1791323,E,4,16,0.0,31.823,M,38.037,M,0.0,*7E
$GPRMC,200144.00,A,3606.2179942,N,14005.1791330,E,0.01,0.00,060625,0.0,E,D*3A
$GPGGA,200144.00,3606.2179942,N,14005.1791330,E,4,16,0.0,31.824,M,38.037,M,0.0,*7F
$GPRMC,200145.00,A,3606.2179935,N,14005.1791328,E,0.02,0.00,060625,0.0,E,D*31
$GPGGA,200145.00,3606.2179935,N,14005.1791328,E,4,16,0.0,31.823,M,38.037,M,0.0,*70
$GPRMC,200146.00,A,3606.2179913,N,14005.1791327,E,0.02,0.00,060625,0.0,E,D*39
$GPGGA,200146.00,3606.2179913,N,14005.1791327,E,4,16,0.0,31.826,M,38.037,M,0.0,*7D
$GPRMC,200147.00,A,3606.2179907,N,14005.1791338,E,0.02,0.00,060625,0.0,E,D*33
$GPGGA,200147.00,3606.2179907,N,14005.1791338,E,4,16,0.0,31.816,M,38.037,M,0.0,*74
$GPRMC,200148.00,A,3606.2179901,N,14005.1791349,E,0.01,0.00,060625,0.0,E,D*3F
$GPGGA,200148.00,3606.2179901,N,14005.1791349,E,4,16,0.0,31.806,M,38.037,M,0.0,*7A
$GPRMC,200149.00,A,3606.2179880,N,14005.1791362,E,0.01,0.00,060625,0.0,E,D*3F
$GPGGA,200149.00,3606.2179880,N,14005.1791362,E,4,16,0.0,31.802,M,38.037,M,0.0,*7E
$GPRMC,200150.00,A,3606.2179878,N,14005.1791369,E,0.02,0.00,060625,0.0,E,D*38
$GPGGA,200150.00,3606.2179878,N,14005.1791369,E,4,16,0.0,31.799,M,38.037,M,0.0,*77
$GPRMC,200151.00,A,3606.2179887,N,14005.1791379,E,0.01,0.00,060625,0.0,E,D*3B
$GPGGA,200151.00,3606.2179887,N,14005.1791379,E,4,16,0.0,31.796,M,38.037,M,0.0,*78
$GPRMC,200152.00,A,3606.2179889,N,14005.1791381,E,0.01,0.00,060625,0.0,E,D*31
$GPGGA,200152.00,3606.2179889,N,14005.1791381,E,4,16,0.0,31.800,M,38.037,M,0.0,*72
$GPRMC,200153.00,A,3606.2179895,N,14005.1791386,E,0.01,0.00,060625,0.0,E,D*3A
$GPGGA,200153.00,3606.2179895,N,14005.1791386,E,4,16,0.0,31.803,M,38.037,M,0.0,*7A
$GPRMC,200154.00,A,3606.2179901,N,14005.1791389,E,0.02,0.00,060625,0.0,E,D*3D
$GPGGA,200154.00,3606.2179901,N,14005.1791389,E,4,16,0.0,31.803,M,38.037,M,0.0,*7E
$GPRMC,200155.00,A,3606.2179899,N,14005.1791395,E,0.02,0.00,060625,0.0,E,D*31
$GPGGA,200155.00,3606.2179899,N,14005.1791395,E,4,16,0.0,31.804,M,38.037,M,0.0,*75
$GPRMC,200156.00,A,3606.2179886,N,14005.1791397,E,0.01,0.00,060625,0.0,E,D*3D
$GPGGA,200156.00,3606.2179886,N,14005.1791397,E,4,16,0.0,31.805,M,38.037,M,0.0,*7B
$GPRMC,200157.00,A,3606.2179939,N,14005.1791340,E,0.03,0.00,060625,0.0,E,D*31
$GPGGA,200157.00,3606.2179939,N,14005.1791340,E,4,18,0.0,31.813,M,38.037,M,0.0,*7C
$GPRMC,200158.00,A,3606.2179964,N,14005.1791327,E,0.03,0.00,060625,0.0,E,D*37
$GPGGA,200158.00,3606.2179964,N,14005.1791327,E,4,18,0.0,31.816,M,38.037,M,0.0,*7F
$GPRMC,200159.00,A,3606.2179963,N,14005.1791328,E,0.01,0.00,060625,0.0,E,D*3C
$GPGGA,200159.00,3606.2179963,N,14005.1791328,E,4,18,0.0,31.818,M,38.037,M,0.0,*78
$GPRMC,200200.00,A,3606.2179959,N,14005.1791327,E,0.02,0.00,060625,0.0,E,D*36
$GPGGA,200200.00,3606.2179959,N,14005.1791327,E,4,18,0.0,31.820,M,38.037,M,0.0,*7A
$GPRMC,200201.00,A,3606.2179955,N,14005.1791332,E,0.01,0.00,060625,0.0,E,D*3C
$GPGGA,200201.00,3606.2179955,N,14005.1791332,E,4,18,0.0,31.819,M,38.037,M,0.0,*79
$GPRMC,200202.00,A,3606.2179954,N,14005.1791327,E,0.00,0.00,060625,0.0,E,D*3B
$GPGGA,200202.00,3606.2179954,N,14005.1791327,E,4,18,0.0,31.816,M,38.037,M,0.0,*70
$GPRMC,200203.00,A,3606.2179959,N,14005.1791328,E,0.03,0.00,060625,0.0,E,D*3B
$GPGGA,200203.00,3606.2179959,N,14005.1791328,E,4,18,0.0,31.812,M,38.037,M,0.0,*77
$GPRMC,200204.00,A,3606.2179953,N,14005.1791329,E,0.01,0.00,060625,0.0,E,D*35
$GPGGA,200204.00,3606.2179953,N,14005.1791329,E,4,18,0.0,31.813,M,38.037,M,0.0,*7A
$GPRMC,200205.00,A,3606.2179951,N,14005.1791327,E,0.01,0.00,060625,0.0,E,D*38
$GPGGA,200205.00,3606.2179951,N,14005.1791327,E,4,18,0.0,31.811,M,38.037,M,0.0,*75
$GPRMC,200206.00,A,3606.2179961,N,14005.1791334,E,0.04,0.00,060625,0.0,E,D*3F
$GPGGA,200206.00,3606.2179961,N,14005.1791334,E,4,18,0.0,31.807,M,38.037,M,0.0,*70
$GPRMC,200207.00,A,3606.2179964,N,14005.1791332,E,0.01,0.00,060625,0.0,E,D*38
$GPGGA,200207.00,3606.2179964,N,14005.1791332,E,4,18,0.0,31.808,M,38.037,M,0.0,*7D
$GPRMC,200208.00,A,3606.2179963,N,14005.1791328,E,0.02,0.00,060625,0.0,E,D*38
$GPGGA,200208.00,3606.2179963,N,14005.1791328,E,4,18,0.0,31.803,M,38.037,M,0.0,*75
$GPRMC,200209.00,A,3606.2179965,N,14005.1791325,E,0.01,0.00,060625,0.0,E,D*31
$GPGGA,200209.00,3606.2179965,N,14005.1791325,E,4,18,0.0,31.802,M,38.037,M,0.0,*7E
$GPRMC,200210.00,A,3606.2179969,N,14005.1791328,E,0.02,0.00,060625,0.0,E,D*3B
$GPGGA,200210.00,3606.2179969,N,14005.1791328,E,4,17,0.0,31.802,M,38.037,M,0.0,*78
$GPRMC,200211.00,A,3606.2179964,N,14005.1791328,E,0.01,0.00,060625,0.0,E,D*34
$GPGGA,200211.00,3606.2179964,N,14005.1791328,E,4,18,0.0,31.806,M,38.037,M,0.0,*7F
$GPRMC,200212.00,A,3606.2179956,N,14005.1791328,E,0.02,0.00,060625,0.0,E,D*35
$GPGGA,200212.00,3606.2179956,N,14005.1791328,E,4,18,0.0,31.806,M,38.037,M,0.0,*7D
$GPRMC,200213.00,A,3606.2179957,N,14005.1791322,E,0.02,0.00,060625,0.0,E,D*3F
$GPGGA,200213.00,3606.2179957,N,14005.1791322,E,4,18,0.0,31.804,M,38.037,M,0.0,*75
$GPRMC,200214.00,A,3606.2179967,N,14005.1791326,E,0.01,0.00,060625,0.0,E,D*3C
$GPGGA,200214.00,3606.2179967,N,14005.1791326,E,4,18,0.0,31.799,M,38.037,M,0.0,*7E
$GPRMC,200215.00,A,3606.2179969,N,14005.1791331,E,0.03,0.00,060625,0.0,E,D*37
$GPGGA,200215.00,3606.2179969,N,14005.1791331,E,4,18,0.0,31.798,M,38.037,M,0.0,*76
$GPRMC,200216.00,A,3606.2179961,N,14005.1791324,E,0.02,0.00,060625,0.0,E,D*39
$GPGGA,200216.00,3606.2179961,N,14005.1791324,E,4,18,0.0,31.800,M,38.037,M,0.0,*77
$GPRMC,200217.00,A,3606.2179967,N,14005.1791325,E,0.03,0.00,060625,0.0,E,D*3E
$GPGGA,200217.00,3606.2179967,N,14005.1791325,E,4,18,0.0,31.795,M,38.037,M,0.0,*72
$GPRMC,200218.00,A,3606.2179964,N,14005.1791320,E,0.01,0.00,060625,0.0,E,D*35
$GPGGA,200218.00,3606.2179964,N,14005.1791320,E,4,18,0.0,31.795,M,38.037,M,0.0,*7B
$GPRMC,200219.00,A,3606.2179968,N,14005.1791321,E,0.02,0.00,060625,0.0,E,D*3A
$GPGGA,200219.00,3606.2179968,N,14005.1791321,E,4,18,0.0,31.795,M,38.037,M,0.0,*77
$GPRMC,200220.00,A,3606.2179971,N,14005.1791324,E,0.01,0.00,060625,0.0,E,D*3E
$GPGGA,200220.00,3606.2179971,N,14005.1791324,E,4,18,0.0,31.790,M,38.037,M,0.0,*75
$GPRMC,200221.00,A,3606.2179974,N,14005.1791327,E,0.02,0.00,060625,0.0,E,D*3A
$GPGGA,200221.00,3606.2179974,N,14005.1791327,E,4,18,0.0,31.788,M,38.037,M,0.0,*7B
$GPRMC,200222.00,A,3606.2179962,N,14005.1791316,E,0.01,0.00,060625,0.0,E,D*3F
$GPGGA,200222.00,3606.2179962,N,14005.1791316,E,4,18,0.0,31.789,M,38.037,M,0.0,*7C
$GPRMC,200223.00,A,3606.2179967,N,14005.1791320,E,0.01,0.00,060625,0.0,E,D*3E
$GPGGA,200223.00,3606.2179967,N,14005.1791320,E,4,18,0.0,31.788,M,38.037,M,0.0,*7C
$GPRMC,200224.00,A,3606.2179959,N,14005.1791321,E,0.02,0.00,060625,0.0,E,D*36
$GPGGA,200224.00,3606.2179959,N,14005.1791321,E,4,18,0.0,31.790,M,38.037,M,0.0,*7E
$GPRMC,200225.00,A,3606.2179954,N,14005.1791312,E,0.02,0.00,060625,0.0,E,D*3A
$GPGGA,200225.00,3606.2179954,N,14005.1791312,E,4,18,0.0,31.788,M,38.037,M,0.0,*7B
$GPRMC,200226.00,A,3606.2179959,N,14005.1791315,E,0.01,0.00,060625,0.0,E,D*30
$GPGGA,200226.00,3606.2179959,N,14005.1791315,E,4,18,0.0,31.787,M,38.037,M,0.0,*7D
$GPRMC,200227.00,A,3606.2179909,N,14005.1791355,E,0.02,0.00,060625,0.0,E,D*33
$GPGGA,200227.00,3606.2179909,N,14005.1791355,E,4,17,0.0,31.840,M,38.037,M,0.0,*76
$GPRMC,200228.00,A,3606.2179928,N,14005.1791343,E,0.01,0.00,060625,0.0,E,D*3B
$GPGGA,200228.00,3606.2179928,N,14005.1791343,E,4,18,0.0,31.825,M,38.037,M,0.0,*71
$GPRMC,200229.00,A,3606.2179934,N,14005.1791347,E,0.03,0.00,060625,0.0,E,D*31
$GPGGA,200229.00,3606.2179934,N,14005.1791347,E,4,18,0.0,31.822,M,38.037,M,0.0,*7E
$GPRMC,200230.00,A,3606.2179931,N,14005.1791350,E,0.03,0.00,060625,0.0,E,D*3A
$GPGGA,200230.00,3606.2179931,N,14005.1791350,E,4,18,0.0,31.822,M,38.037,M,0.0,*75
$GPRMC,200231.00,A,3606.2179935,N,14005.1791359,E,0.01,0.00,060625,0.0,E,D*34
$GPGGA,200231.00,3606.2179935,N,14005.1791359,E,4,18,0.0,31.822,M,38.037,M,0.0,*79
$GPRMC,200232.00,A,3606.2179936,N,14005.1791357,E,0.02,0.00,060625,0.0,E,D*39
$GPGGA,200232.00,3606.2179936,N,14005.1791357,E,4,18,0.0,31.822,M,38.037,M,0.0,*77
$GPRMC,200233.00,A,3606.2179937,N,14005.1791362,E,0.04,0.00,060625,0.0,E,D*39
$GPGGA,200233.00,3606.2179937,N,14005.1791362,E,4,18,0.0,31.821,M,38.037,M,0.0,*72
$GPRMC,200234.00,A,3606.2179930,N,14005.1791362,E,0.02,0.00,060625,0.0,E,D*3F
$GPGGA,200234.00,3606.2179930,N,14005.1791362,E,4,18,0.0,31.824,M,38.037,M,0.0,*77
$GPRMC,200235.00,A,3606.2179937,N,14005.1791362,E,0.01,0.00,060625,0.0,E,D*3A
$GPGGA,200235.00,3606.2179937,N,14005.1791362,E,4,18,0.0,31.823,M,38.037,M,0.0,*76
$GPRMC,200236.00,A,3606.2179941,N,14005.1791370,E,0.03,0.00,060625,0.0,E,D*39
$GPGGA,200236.00,3606.2179941,N,14005.1791370,E,4,18,0.0,31.820,M,38.037,M,0.0,*74
$GPRMC,200237.00,A,3606.2179946,N,14005.1791364,E,0.02,0.00,060625,0.0,E,D*3B
$GPGGA,200237.00,3606.2179946,N,14005.1791364,E,4,18,0.0,31.821,M,38.037,M,0.0,*76
$GPRMC,200238.00,A,3606.2179943,N,14005.1791367,E,0.04,0.00,060625,0.0,E,D*34
$GPGGA,200238.00,3606.2179943,N,14005.1791367,E,4,18,0.0,31.824,M,38.037,M,0.0,*7A
$GPRMC,200239.00,A,3606.2179937,N,14005.1791368,E,0.01,0.00,060625,0.0,E,D*3C
$GPGGA,200239.00,3606.2179937,N,14005.1791368,E,4,18,0.0,31.822,M,38.037,M,0.0,*71
$GPRMC,200240.00,A,3606.2179936,N,14005.1791368,E,0.01,0.00,060625,0.0,E,D*33
$GPGGA,200240.00,3606.2179936,N,14005.1791368,E,4,18,0.0,31.823,M,38.037,M,0.0,*7F
$GPRMC,200241.00,A,3606.2179933,N,14005.1791368,E,0.02,0.00,060625,0.0,E,D*34
$GPGGA,200241.00,3606.2179933,N,14005.1791368,E,4,18,0.0,31.823,M,38.037,M,0.0,*7B
$GPRMC,200242.00,A,3606.2179929,N,14005.1791364,E,0.02,0.00,060625,0.0,E,D*30
$GPGGA,200242.00,3606.2179929,N,14005.1791364,E,4,18,0.0,31.824,M,38.037,M,0.0,*78
$GPRMC,200243.00,A,3606.2179934,N,14005.1791368,E,0.04,0.00,060625,0.0,E,D*37
$GPGGA,200243.00,3606.2179934,N,14005.1791368,E,4,18,0.0,31.822,M,38.037,M,0.0,*7F
$GPRMC,200244.00,A,3606.2179930,N,14005.1791367,E,0.02,0.00,060625,0.0,E,D*3D
$GPGGA,200244.00,3606.2179930,N,14005.1791367,E,4,18,0.0,31.822,M,38.037,M,0.0,*73
$GPRMC,200245.00,A,3606.2179929,N,14005.1791365,E,0.03,0.00,060625,0.0,E,D*37
$GPGGA,200245.00,3606.2179929,N,14005.1791365,E,4,18,0.0,31.821,M,38.037,M,0.0,*7B
$GPRMC,200246.00,A,3606.2179929,N,14005.1791373,E,0.01,0.00,060625,0.0,E,D*31
$GPGGA,200246.00,3606.2179929,N,14005.1791373,E,4,18,0.0,31.821,M,38.037,M,0.0,*7F
$GPRMC,200247.00,A,3606.2179933,N,14005.1791365,E,0.04,0.00,060625,0.0,E,D*39
$GPGGA,200247.00,3606.2179933,N,14005.1791365,E,4,18,0.0,31.823,M,38.037,M,0.0,*70
$GPRMC,200248.00,A,3606.2179931,N,14005.1791366,E,0.01,0.00,060625,0.0,E,D*32
$GPGGA,200248.00,3606.2179931,N,14005.1791366,E,4,18,0.0,31.822,M,38.037,M,0.0,*7F
$GPRMC,200249.00,A,3606.2179931,N,14005.1791366,E,0.01,0.00,060625,0.0,E,D*33
$GPGGA,200249.00,3606.2179931,N,14005.1791366,E,4,18,0.0,31.824,M,38.037,M,0.0,*78
$GPRMC,200250.00,A,3606.2179935,N,14005.1791370,E,0.03,0.00,060625,0.0,E,D*3A
$GPGGA,200250.00,3606.2179935,N,14005.1791370,E,4,18,0.0,31.822,M,38.037,M,0.0,*75
$GPRMC,200251.00,A,3606.2179932,N,14005.1791369,E,0.02,0.00,060625,0.0,E,D*35
$GPGGA,200251.00,3606.2179932,N,14005.1791369,E,4,18,0.0,31.821,M,38.037,M,0.0,*78
$GPRMC,200252.00,A,3606.2179936,N,14005.1791353,E,0.02,0.00,060625,0.0,E,D*3B
$GPGGA,200252.00,3606.2179936,N,14005.1791353,E,4,18,0.0,31.822,M,38.037,M,0.0,*75
$GPRMC,200253.00,A,3606.2179938,N,14005.1791357,E,0.01,0.00,060625,0.0,E,D*33
$GPGGA,200253.00,3606.2179938,N,14005.1791357,E,4,18,0.0,31.822,M,38.037,M,0.0,*7E
$GPRMC,200254.00,A,3606.2179939,N,14005.1791365,E,0.01,0.00,060625,0.0,E,D*34
$GPGGA,200254.00,3606.2179939,N,14005.1791365,E,4,18,0.0,31.820,M,38.037,M,0.0,*7B
$GPRMC,200255.00,A,3606.2179942,N,14005.1791366,E,0.01,0.00,060625,0.0,E,D*3A
$GPGGA,200255.00,3606.2179942,N,14005.1791366,E,4,18,0.0,31.819,M,38.037,M,0.0,*7F
$GPRMC,200256.00,A,3606.2179949,N,14005.1791373,E,0.02,0.00,060625,0.0,E,D*35
$GPGGA,200256.00,3606.2179949,N,14005.1791373,E,4,18,0.0,31.820,M,38.037,M,0.0,*79
$GPRMC,200257.00,A,3606.2179979,N,14005.1791351,E,0.01,0.00,060625,0.0,E,D*34
$GPGGA,200257.00,3606.2179979,N,14005.1791351,E,4,18,0.0,31.821,M,38.037,M,0.0,*7A
$GPRMC,200258.00,A,3606.2179993,N,14005.1791385,E,0.02,0.00,060625,0.0,E,D*35
$GPGGA,200258.00,3606.2179993,N,14005.1791385,E,4,18,0.0,31.817,M,38.037,M,0.0,*7D
$GPRMC,200259.00,A,3606.2180000,N,14005.1791386,E,0.01,0.00,060625,0.0,E,D*31
$GPGGA,200259.00,3606.2180000,N,14005.1791386,E,4,18,0.0,31.815,M,38.037,M,0.0,*78
$GPRMC,200300.00,A,3606.2180000,N,14005.1791384,E,0.02,0.00,060625,0.0,E,D*3D
$GPGGA,200300.00,3606.2180000,N,14005.1791384,E,4,18,0.0,31.814,M,38.037,M,0.0,*76
$GPRMC,200301.00,A,3606.2180001,N,14005.1791384,E,0.01,0.00,060625,0.0,E,D*3E
$GPGGA,200301.00,3606.2180001,N,14005.1791384,E,4,18,0.0,31.814,M,38.037,M,0.0,*76
$GPRMC,200302.00,A,3606.2179999,N,14005.1791358,E,0.01,0.00,060625,0.0,E,D*32
$GPGGA,200302.00,3606.2179999,N,14005.1791358,E,4,18,0.0,31.817,M,38.037,M,0.0,*79
$GPRMC,200303.00,A,3606.2179998,N,14005.1791353,E,0.02,0.00,060625,0.0,E,D*3A
$GPGGA,200303.00,3606.2179998,N,14005.1791353,E,4,18,0.0,31.819,M,38.037,M,0.0,*7C
$GPRMC,200304.00,A,3606.2179993,N,14005.1791344,E,0.02,0.00,060625,0.0,E,D*30
$GPGGA,200304.00,3606.2179993,N,14005.1791344,E,4,18,0.0,31.820,M,38.037,M,0.0,*7C
$GPRMC,200305.00,A,3606.2179998,N,14005.1791348,E,0.02,0.00,060625,0.0,E,D*36
$GPGGA,200305.00,3606.2179998,N,14005.1791348,E,4,18,0.0,31.819,M,38.037,M,0.0,*70
$GPRMC,200306.00,A,3606.2180003,N,14005.1791347,E,0.01,0.00,060625,0.0,E,D*34
$GPGGA,200306.00,3606.2180003,N,14005.1791347,E,4,18,0.0,31.819,M,38.037,M,0.0,*71
$GPRMC,200307.00,A,3606.2179996,N,14005.1791348,E,0.01,0.00,060625,0.0,E,D*39
$GPGGA,200307.00,3606.2179996,N,14005.1791348,E,4,18,0.0,31.819,M,38.037,M,0.0,*7C
$GPRMC,200308.00,A,3606.2180003,N,14005.1791352,E,0.01,0.00,060625,0.0,E,D*3E
$GPGGA,200308.00,3606.2180003,N,14005.1791352,E,4,18,0.0,31.818,M,38.037,M,0.0,*7A
$GPRMC,200309.00,A,3606.2180005,N,14005.1791340,E,0.02,0.00,060625,0.0,E,D*39
$GPGGA,200309.00,3606.2180005,N,14005.1791340,E,4,18,0.0,31.816,M,38.037,M,0.0,*70
$GPRMC,200310.00,A,3606.2180003,N,14005.1791346,E,0.02,0.00,060625,0.0,E,D*31
$GPGGA,200310.00,3606.2180003,N,14005.1791346,E,4,18,0.0,31.817,M,38.037,M,0.0,*79
$GPRMC,200311.00,A,3606.2180005,N,14005.1791351,E,0.03,0.00,060625,0.0,E,D*31
$GPGGA,200311.00,3606.2180005,N,14005.1791351,E,4,18,0.0,31.818,M,38.037,M,0.0,*77
$GPRMC,200312.00,A,3606.2180010,N,14005.1791350,E,0.01,0.00,060625,0.0,E,D*35
$GPGGA,200312.00,3606.2180010,N,14005.1791350,E,4,18,0.0,31.819,M,38.037,M,0.0,*70
$GPRMC,200313.00,A,3606.2180007,N,14005.1791353,E,0.02,0.00,060625,0.0,E,D*32
$GPGGA,200313.00,3606.2180007,N,14005.1791353,E,4,18,0.0,31.821,M,38.037,M,0.0,*7F
$GPRMC,200314.00,A,3606.2180012,N,14005.1791345,E,0.01,0.00,060625,0.0,E,D*35
$GPGGA,200314.00,3606.2180012,N,14005.1791345,E,4,18,0.0,31.820,M,38.037,M,0.0,*7A
$GPRMC,200315.00,A,3606.2180010,N,14005.1791351,E,0.03,0.00,060625,0.0,E,D*31
$GPGGA,200315.00,3606.2180010,N,14005.1791351,E,4,18,0.0,31.820,M,38.037,M,0.0,*7C
$GPRMC,200316.00,A,3606.2180007,N,14005.1791348,E,0.02,0.00,060625,0.0,E,D*3D
$GPGGA,200316.00,3606.2180007,N,14005.1791348,E,4,18,0.0,31.820,M,38.037,M,0.0,*71
$GPRMC,200317.00,A,3606.2180001,N,14005.1791348,E,0.01,0.00,060625,0.0,E,D*39
$GPGGA,200317.00,3606.2180001,N,14005.1791348,E,4,18,0.0,31.818,M,38.037,M,0.0,*7D
$GPRMC,200318.00,A,3606.2180009,N,14005.1791353,E,0.03,0.00,060625,0.0,E,D*36
$GPGGA,200318.00,3606.2180009,N,14005.1791353,E,4,18,0.0,31.816,M,38.037,M,0.0,*7E
$GPRMC,200319.00,A,3606.2180009,N,14005.1791351,E,0.03,0.00,060625,0.0,E,D*35
$GPGGA,200319.00,3606.2180009,N,14005.1791351,E,4,18,0.0,31.819,M,38.037,M,0.0,*72
$GPRMC,200320.00,A,3606.2180010,N,14005.1791354,E,0.02,0.00,060625,0.0,E,D*33
$GPGGA,200320.00,3606.2180010,N,14005.1791354,E,4,18,0.0,31.818,M,38.037,M,0.0,*74
$GPRMC,200321.00,A,3606.2180013,N,14005.1791356,E,0.02,0.00,060625,0.0,E,D*33
$GPGGA,200321.00,3606.2180013,N,14005.1791356,E,4,18,0.0,31.819,M,38.037,M,0.0,*75
$GPRMC,200322.00,A,3606.2179998,N,14005.1791348,E,0.02,0.00,060625,0.0,E,D*33
$GPGGA,200322.00,3606.2179998,N,14005.1791348,E,4,18,0.0,31.820,M,38.037,M,0.0,*7F
$GPRMC,200323.00,A,3606.2180006,N,14005.1791343,E,0.02,0.00,060625,0.0,E,D*31
$GPGGA,200323.00,3606.2180006,N,14005.1791343,E,4,18,0.0,31.822,M,38.037,M,0.0,*7F
$GPRMC,200324.00,A,3606.2180011,N,14005.1791343,E,0.02,0.00,060625,0.0,E,D*30
$GPGGA,200324.00,3606.2180011,N,14005.1791343,E,4,18,0.0,31.823,M,38.037,M,0.0,*7F
$GPRMC,200325.00,A,3606.2180015,N,14005.1791343,E,0.04,0.00,060625,0.0,E,D*33
$GPGGA,200325.00,3606.2180015,N,14005.1791343,E,4,18,0.0,31.821,M,38.037,M,0.0,*78
$GPRMC,200326.00,A,3606.2180007,N,14005.1791349,E,0.01,0.00,060625,0.0,E,D*3C
$GPGGA,200326.00,3606.2180007,N,14005.1791349,E,4,18,0.0,31.821,M,38.037,M,0.0,*72
$GPRMC,200327.00,A,3606.2179985,N,14005.1791355,E,0.03,0.00,060625,0.0,E,D*37
$GPGGA,200327.00,3606.2179985,N,14005.1791355,E,4,18,0.0,31.816,M,38.037,M,0.0,*7F
$GPRMC,200328.00,A,3606.2179988,N,14005.1791372,E,0.02,0.00,060625,0.0,E,D*31
$GPGGA,200328.00,3606.2179988,N,14005.1791372,E,4,18,0.0,31.817,M,38.037,M,0.0,*79
$GPRMC,200329.00,A,3606.2179987,N,14005.1791378,E,0.01,0.00,060625,0.0,E,D*36
$GPGGA,200329.00,3606.2179987,N,14005.1791378,E,4,18,0.0,31.817,M,38.037,M,0.0,*7D
$GPRMC,200330.00,A,3606.2179981,N,14005.1791376,E,0.04,0.00,060625,0.0,E,D*33
$GPGGA,200330.00,3606.2179981,N,14005.1791376,E,4,18,0.0,31.818,M,38.037,M,0.0,*72
$GPRMC,200331.00,A,3606.2179977,N,14005.1791373,E,0.03,0.00,060625,0.0,E,D*39
$GPGGA,200331.00,3606.2179977,N,14005.1791373,E,4,18,0.0,31.823,M,38.037,M,0.0,*77
$GPRMC,200332.00,A,3606.2179965,N,14005.1791368,E,0.01,0.00,060625,0.0,E,D*31
$GPGGA,200332.00,3606.2179965,N,14005.1791368,E,4,18,0.0,31.822,M,38.037,M,0.0,*7C
$GPRMC,200333.00,A,3606.2179956,N,14005.1791362,E,0.02,0.00,060625,0.0,E,D*39
$GPGGA,200333.00,3606.2179956,N,14005.1791362,E,4,18,0.0,31.826,M,38.037,M,0.0,*73
$GPRMC,200334.00,A,3606.2179960,N,14005.1791371,E,0.03,0.00,060625,0.0,E,D*38
$GPGGA,200334.00,3606.2179960,N,14005.1791371,E,4,18,0.0,31.827,M,38.037,M,0.0,*72
$GPRMC,200335.00,A,3606.2179963,N,14005.1791364,E,0.02,0.00,060625,0.0,E,D*3F
$GPGGA,200335.00,3606.2179963,N,14005.1791364,E,4,18,0.0,31.828,M,38.037,M,0.0,*7B
$GPRMC,200336.00,A,3606.2179963,N,14005.1791370,E,0.01,0.00,060625,0.0,E,D*3A
$GPGGA,200336.00,3606.2179963,N,14005.1791370,E,4,18,0.0,31.828,M,38.037,M,0.0,*7D
$GPRMC,200337.00,A,3606.2179958,N,14005.1791370,E,0.02,0.00,060625,0.0,E,D*30
$GPGGA,200337.00,3606.2179958,N,14005.1791370,E,4,18,0.0,31.829,M,38.037,M,0.0,*75
$GPRMC,200338.00,A,3606.2179956,N,14005.1791376,E,0.02,0.00,060625,0.0,E,D*37
$GPGGA,200338.00,3606.2179956,N,14005.1791376,E,4,18,0.0,31.826,M,38.037,M,0.0,*7D
$GPRMC,200339.00,A,3606.2179955,N,14005.1791383,E,0.03,0.00,060625,0.0,E,D*3E
$GPGGA,200339.00,3606.2179955,N,14005.1791383,E,4,18,0.0,31.827,M,38.037,M,0.0,*74
$GPRMC,200340.00,A,3606.2179956,N,14005.1791385,E,0.02,0.00,060625,0.0,E,D*34
$GPGGA,200340.00,3606.2179956,N,14005.1791385,E,4,18,0.0,31.826,M,38.037,M,0.0,*7E
$GPRMC,200341.00,A,3606.2179950,N,14005.1791381,E,0.02,0.00,060625,0.0,E,D*37
$GPGGA,200341.00,3606.2179950,N,14005.1791381,E,4,18,0.0,31.828,M,38.037,M,0.0,*73
$GPRMC,200342.00,A,3606.2179955,N,14005.1791371,E,0.05,0.00,060625,0.0,E,D*39
$GPGGA,200342.00,3606.2179955,N,14005.1791371,E,4,18,0.0,31.832,M,38.037,M,0.0,*71
$GPRMC,200343.00,A,3606.2179945,N,14005.1791377,E,0.03,0.00,060625,0.0,E,D*39
$GPGGA,200343.00,3606.2179945,N,14005.1791377,E,4,18,0.0,31.831,M,38.037,M,0.0,*74
$GPRMC,200344.00,A,3606.2179950,N,14005.1791379,E,0.02,0.00,060625,0.0,E,D*35
$GPGGA,200344.00,3606.2179950,N,14005.1791379,E,4,18,0.0,31.831,M,38.037,M,0.0,*79
$GPRMC,200345.00,A,3606.2179951,N,14005.1791373,E,0.01,0.00,060625,0.0,E,D*3C
$GPGGA,200345.00,3606.2179951,N,14005.1791373,E,4,18,0.0,31.832,M,38.037,M,0.0,*70
$GPRMC,200346.00,A,3606.2179951,N,14005.1791368,E,0.03,0.00,060625,0.0,E,D*37
$GPGGA,200346.00,3606.2179951,N,14005.1791368,E,4,18,0.0,31.836,M,38.037,M,0.0,*7D
$GPRMC,200347.00,A,3606.2179940,N,14005.1791357,E,0.02,0.00,060625,0.0,E,D*3B
$GPGGA,200347.00,3606.2179940,N,14005.1791357,E,4,18,0.0,31.837,M,38.037,M,0.0,*71
$GPRMC,200348.00,A,3606.2179928,N,14005.1791353,E,0.02,0.00,060625,0.0,E,D*3E
$GPGGA,200348.00,3606.2179928,N,14005.1791353,E,4,18,0.0,31.839,M,38.037,M,0.0,*7A
$GPRMC,200349.00,A,3606.2179931,N,14005.1791352,E,0.02,0.00,060625,0.0,E,D*36
$GPGGA,200349.00,3606.2179931,N,14005.1791352,E,4,18,0.0,31.841,M,38.037,M,0.0,*7D
$GPRMC,200350.00,A,3606.2179918,N,14005.1791350,E,0.02,0.00,060625,0.0,E,D*37
$GPGGA,200350.00,3606.2179918,N,14005.1791350,E,4,18,0.0,31.845,M,38.037,M,0.0,*78
$GPRMC,200351.00,A,3606.2179925,N,14005.1791351,E,0.03,0.00,060625,0.0,E,D*38
$GPGGA,200351.00,3606.2179925,N,14005.1791351,E,4,18,0.0,31.844,M,38.037,M,0.0,*77
$GPRMC,200352.00,A,3606.2179906,N,14005.1791330,E,0.02,0.00,060625,0.0,E,D*3C
$GPGGA,200352.00,3606.2179906,N,14005.1791330,E,4,17,0.0,31.848,M,38.037,M,0.0,*71
$GPRMC,200353.00,A,3606.2179931,N,14005.1791332,E,0.03,0.00,060625,0.0,E,D*3A
$GPGGA,200353.00,3606.2179931,N,14005.1791332,E,4,18,0.0,31.834,M,38.037,M,0.0,*72
$GPRMC,200354.00,A,3606.2179930,N,14005.1791326,E,0.03,0.00,060625,0.0,E,D*39
$GPGGA,200354.00,3606.2179930,N,14005.1791326,E,4,18,0.0,31.836,M,38.037,M,0.0,*73
$GPRMC,200355.00,A,3606.2179925,N,14005.1791323,E,0.01,0.00,060625,0.0,E,D*3B
$GPGGA,200355.00,3606.2179925,N,14005.1791323,E,4,18,0.0,31.837,M,38.037,M,0.0,*72
$GPRMC,200356.00,A,3606.2179933,N,14005.1791334,E,0.02,0.00,060625,0.0,E,D*3A
$GPGGA,200356.00,3606.2179933,N,14005.1791334,E,4,18,0.0,31.834,M,38.037,M,0.0,*73
$GPRMC,200357.00,A,3606.2179928,N,14005.1791329,E,0.01,0.00,060625,0.0,E,D*3E
$GPGGA,200357.00,3606.2179928,N,14005.1791329,E,4,17,0.0,31.829,M,38.037,M,0.0,*77
$GPRMC,200358.00,A,3606.2179896,N,14005.1791338,E,0.02,0.00,060625,0.0,E,D*36
$GPGGA,200358.00,3606.2179896,N,14005.1791338,E,4,18,0.0,31.839,M,38.037,M,0.0,*72
$GPRMC,200359.00,A,3606.2179898,N,14005.1791337,E,0.01,0.00,060625,0.0,E,D*35
$GPGGA,200359.00,3606.2179898,N,14005.1791337,E,4,18,0.0,31.838,M,38.037,M,0.0,*73
$GPRMC,200400.00,A,3606.2179908,N,14005.1791338,E,0.02,0.00,060625,0.0,E,D*3A
$GPGGA,200400.00,3606.2179908,N,14005.1791338,E,4,18,0.0,31.837,M,38.037,M,0.0,*70
$GPRMC,200401.00,A,3606.2179907,N,14005.1791340,E,0.03,0.00,060625,0.0,E,D*3A
$GPGGA,200401.00,3606.2179907,N,14005.1791340,E,4,18,0.0,31.838,M,38.037,M,0.0,*7E
$GPRMC,200402.00,A,3606.2179902,N,14005.1791340,E,0.02,0.00,060625,0.0,E,D*3D
$GPGGA,200402.00,3606.2179902,N,14005.1791340,E,4,18,0.0,31.836,M,38.037,M,0.0,*76
$GPRMC,200403.00,A,3606.2179903,N,14005.1791339,E,0.01,0.00,060625,0.0,E,D*30
$GPGGA,200403.00,3606.2179903,N,14005.1791339,E,4,18,0.0,31.836,M,38.037,M,0.0,*78
$GPRMC,200404.00,A,3606.2179899,N,14005.1791335,E,0.03,0.00,060625,0.0,E,D*3B
$GPGGA,200404.00,3606.2179899,N,14005.1791335,E,4,18,0.0,31.835,M,38.037,M,0.0,*72
$GPRMC,200405.00,A,3606.2179895,N,14005.1791334,E,0.02,0.00,060625,0.0,E,D*36
$GPGGA,200405.00,3606.2179895,N,14005.1791334,E,4,18,0.0,31.836,M,38.037,M,0.0,*7D
$GPRMC,200406.00,A,3606.2179889,N,14005.1791335,E,0.02,0.00,060625,0.0,E,D*39
$GPGGA,200406.00,3606.2179889,N,14005.1791335,E,4,18,0.0,31.841,M,38.037,M,0.0,*72
$GPRMC,200407.00,A,3606.2179887,N,14005.1791335,E,0.03,0.00,060625,0.0,E,D*37
$GPGGA,200407.00,3606.2179887,N,14005.1791335,E,4,18,0.0,31.836,M,38.037,M,0.0,*7D
$GPRMC,200408.00,A,3606.2179884,N,14005.1791333,E,0.03,0.00,060625,0.0,E,D*3D
$GPGGA,200408.00,3606.2179884,N,14005.1791333,E,4,18,0.0,31.838,M,38.037,M,0.0,*79
$GPRMC,200409.00,A,3606.2179884,N,14005.1791333,E,0.01,0.00,060625,0.0,E,D*3E
$GPGGA,200409.00,3606.2179884,N,14005.1791333,E,4,18,0.0,31.837,M,38.037,M,0.0,*77
$GPRMC,200410.00,A,3606.2179888,N,14005.1791341,E,0.02,0.00,060625,0.0,E,D*3C
$GPGGA,200410.00,3606.2179888,N,14005.1791341,E,4,18,0.0,31.837,M,38.037,M,0.0,*76
$GPRMC,200411.00,A,3606.2179895,N,14005.1791335,E,0.02,0.00,060625,0.0,E,D*32
$GPGGA,200411.00,3606.2179895,N,14005.1791335,E,4,18,0.0,31.835,M,38.037,M,0.0,*7A
$GPRMC,200412.00,A,3606.2179884,N,14005.1791330,E,0.03,0.00,060625,0.0,E,D*35
$GPGGA,200412.00,3606.2179884,N,14005.1791330,E,4,18,0.0,31.838,M,38.037,M,0.0,*71
$GPRMC,200413.00,A,3606.2179881,N,14005.1791334,E,0.02,0.00,060625,0.0,E,D*34
$GPGGA,200413.00,3606.2179881,N,14005.1791334,E,4,18,0.0,31.838,M,38.037,M,0.0,*71
$GPRMC,200414.00,A,3606.2179888,N,14005.1791340,E,0.01,0.00,060625,0.0,E,D*3A
$GPGGA,200414.00,3606.2179888,N,14005.1791340,E,4,18,0.0,31.836,M,38.037,M,0.0,*72
$GPRMC,200415.00,A,3606.2179891,N,14005.1791343,E,0.01,0.00,060625,0.0,E,D*30
$GPGGA,200415.00,3606.2179891,N,14005.1791343,E,4,18,0.0,31.838,M,38.037,M,0.0,*76
$GPRMC,200416.00,A,3606.2179894,N,14005.1791346,E,0.01,0.00,060625,0.0,E,D*33
$GPGGA,200416.00,3606.2179894,N,14005.1791346,E,4,18,0.0,31.841,M,38.037,M,0.0,*7B
$GPRMC,200417.00,A,3606.2179978,N,14005.1791334,E,0.02,0.00,060625,0.0,E,D*37
$GPGGA,200417.00,3606.2179978,N,14005.1791334,E,4,17,0.0,31.814,M,38.037,M,0.0,*73
$GPRMC,200418.00,A,3606.2179944,N,14005.1791348,E,0.02,0.00,060625,0.0,E,D*3C
$GPGGA,200418.00,3606.2179944,N,14005.1791348,E,4,18,0.0,31.812,M,38.037,M,0.0,*71
$GPRMC,200419.00,A,3606.2179957,N,14005.1791357,E,0.01,0.00,060625,0.0,E,D*32
$GPGGA,200419.00,3606.2179957,N,14005.1791357,E,4,18,0.0,31.814,M,38.037,M,0.0,*7A
$GPRMC,200420.00,A,3606.2179955,N,14005.1791364,E,0.02,0.00,060625,0.0,E,D*39
$GPGGA,200420.00,3606.2179955,N,14005.1791364,E,4,18,0.0,31.815,M,38.037,M,0.0,*73
$GPRMC,200421.00,A,3606.2179962,N,14005.1791371,E,0.03,0.00,060625,0.0,E,D*39
$GPGGA,200421.00,3606.2179962,N,14005.1791371,E,4,18,0.0,31.811,M,38.037,M,0.0,*76
$GPRMC,200422.00,A,3606.2179951,N,14005.1791382,E,0.01,0.00,060625,0.0,E,D*34
$GPGGA,200422.00,3606.2179951,N,14005.1791382,E,4,18,0.0,31.809,M,38.037,M,0.0,*70
$GPRMC,200423.00,A,3606.2179999,N,14005.1791357,E,0.01,0.00,060625,0.0,E,D*39
$GPGGA,200423.00,3606.2179999,N,14005.1791357,E,4,18,0.0,31.821,M,38.037,M,0.0,*77
$GPRMC,200424.00,A,3606.2179995,N,14005.1791354,E,0.05,0.00,060625,0.0,E,D*35
$GPGGA,200424.00,3606.2179995,N,14005.1791354,E,4,18,0.0,31.823,M,38.037,M,0.0,*7D
$GPRMC,200425.00,A,3606.2180008,N,14005.1791357,E,0.02,0.00,060625,0.0,E,D*3B
$GPGGA,200425.00,3606.2180008,N,14005.1791357,E,4,18,0.0,31.820,M,38.037,M,0.0,*77
$GPRMC,200426.00,A,3606.2180004,N,14005.1791360,E,0.03,0.00,060625,0.0,E,D*31
$GPGGA,200426.00,3606.2180004,N,14005.1791360,E,4,18,0.0,31.822,M,38.037,M,0.0,*7E
$GPRMC,200427.00,A,3606.2179969,N,14005.1791413,E,0.02,0.00,060625,0.0,E,D*36
$GPGGA,200427.00,3606.2179969,N,14005.1791413,E,4,18,0.0,31.814,M,38.037,M,0.0,*7D
$GPRMC,200428.00,A,3606.2179994,N,14005.1791416,E,0.03,0.00,060625,0.0,E,D*3F
$GPGGA,200428.00,3606.2179994,N,14005.1791416,E,4,18,0.0,31.812,M,38.037,M,0.0,*73
$GPRMC,200429.00,A,3606.2180002,N,14005.1791412,E,0.01,0.00,060625,0.0,E,D*38
$GPGGA,200429.00,3606.2180002,N,14005.1791412,E,4,18,0.0,31.813,M,38.037,M,0.0,*77
$GPRMC,200430.00,A,3606.2180004,N,14005.1791415,E,0.04,0.00,060625,0.0,E,D*34
$GPGGA,200430.00,3606.2180004,N,14005.1791415,E,4,18,0.0,31.810,M,38.037,M,0.0,*7D
$GPRMC,200431.00,A,3606.2180001,N,14005.1791419,E,0.03,0.00,060625,0.0,E,D*3B
$GPGGA,200431.00,3606.2180001,N,14005.1791419,E,4,18,0.0,31.812,M,38.037,M,0.0,*77
$GPRMC,200432.00,A,3606.2179985,N,14005.1791403,E,0.03,0.00,060625,0.0,E,D*30
$GPGGA,200432.00,3606.2179985,N,14005.1791403,E,4,18,0.0,31.814,M,38.037,M,0.0,*7A
$GPRMC,200433.00,A,3606.2179978,N,14005.1791413,E,0.02,0.00,060625,0.0,E,D*33
$GPGGA,200433.00,3606.2179978,N,14005.1791413,E,4,18,0.0,31.814,M,38.037,M,0.0,*78
$GPRMC,200434.00,A,3606.2179973,N,14005.1791406,E,0.01,0.00,060625,0.0,E,D*38
$GPGGA,200434.00,3606.2179973,N,14005.1791406,E,4,18,0.0,31.814,M,38.037,M,0.0,*70
$GPRMC,200435.00,A,3606.2179977,N,14005.1791408,E,0.01,0.00,060625,0.0,E,D*33
$GPGGA,200435.00,3606.2179977,N,14005.1791408,E,4,18,0.0,31.813,M,38.037,M,0.0,*7C
$GPRMC,200436.00,A,3606.2179970,N,14005.1791413,E,0.01,0.00,060625,0.0,E,D*3D
$GPGGA,200436.00,3606.2179970,N,14005.1791413,E,4,18,0.0,31.810,M,38.037,M,0.0,*71
$GPRMC,200437.00,A,3606.2179951,N,14005.1791405,E,0.02,0.00,060625,0.0,E,D*3B
$GPGGA,200437.00,3606.2179951,N,14005.1791405,E,4,18,0.0,31.817,M,38.037,M,0.0,*73
$GPRMC,200438.00,A,3606.2179951,N,14005.1791410,E,0.01,0.00,060625,0.0,E,D*33
$GPGGA,200438.00,3606.2179951,N,14005.1791410,E,4,18,0.0,31.817,M,38.037,M,0.0,*78
$GPRMC,200439.00,A,3606.2179952,N,14005.1791411,E,0.03,0.00,060625,0.0,E,D*32
$GPGGA,200439.00,3606.2179952,N,14005.1791411,E,4,18,0.0,31.816,M,38.037,M,0.0,*7A
$GPRMC,200440.00,A,3606.2179930,N,14005.1791447,E,0.01,0.00,060625,0.0,E,D*39
$GPGGA,200440.00,3606.2179930,N,14005.1791447,E,4,18,0.0,31.800,M,38.037,M,0.0,*74
$GPRMC,200441.00,A,3606.2179927,N,14005.1791443,E,0.01,0.00,060625,0.0,E,D*3A
$GPGGA,200441.00,3606.2179927,N,14005.1791443,E,4,18,0.0,31.798,M,38.037,M,0.0,*79
$GPRMC,200442.00,A,3606.2179952,N,14005.1791414,E,0.02,0.00,060625,0.0,E,D*3A
$GPGGA,200442.00,3606.2179952,N,14005.1791414,E,4,18,0.0,31.816,M,38.037,M,0.0,*73
$GPRMC,200443.00,A,3606.2179954,N,14005.1791417,E,0.01,0.00,060625,0.0,E,D*3D
$GPGGA,200443.00,3606.2179954,N,14005.1791417,E,4,18,0.0,31.816,M,38.037,M,0.0,*77
$GPRMC,200444.00,A,3606.2179953,N,14005.1791426,E,0.03,0.00,060625,0.0,E,D*3D
$GPGGA,200444.00,3606.2179953,N,14005.1791426,E,4,18,0.0,31.815,M,38.037,M,0.0,*76
$GPRMC,200445.00,A,3606.2179959,N,14005.1791421,E,0.01,0.00,060625,0.0,E,D*33
$GPGGA,200445.00,3606.2179959,N,14005.1791421,E,4,18,0.0,31.816,M,38.037,M,0.0,*79
$GPRMC,200446.00,A,3606.2179963,N,14005.1791421,E,0.04,0.00,060625,0.0,E,D*3C
$GPGGA,200446.00,3606.2179963,N,14005.1791421,E,4,18,0.0,31.816,M,38.037,M,0.0,*73
$GPRMC,200447.00,A,3606.2179972,N,14005.1791428,E,0.02,0.00,060625,0.0,E,D*32
$GPGGA,200447.00,3606.2179972,N,14005.1791428,E,4,18,0.0,31.817,M,38.037,M,0.0,*7A
$GPRMC,200448.00,A,3606.2179974,N,14005.1791422,E,0.04,0.00,060625,0.0,E,D*37
$GPGGA,200448.00,3606.2179974,N,14005.1791422,E,4,18,0.0,31.817,M,38.037,M,0.0,*79
$GPRMC,200449.00,A,3606.2179967,N,14005.1791426,E,0.01,0.00,060625,0.0,E,D*35
$GPGGA,200449.00,3606.2179967,N,14005.1791426,E,4,18,0.0,31.817,M,38.037,M,0.0,*7E
$GPRMC,200450.00,A,3606.2179968,N,14005.1791429,E,0.01,0.00,060625,0.0,E,D*3D
$GPGGA,200450.00,3606.2179968,N,14005.1791429,E,4,18,0.0,31.819,M,38.037,M,0.0,*78
$GPRMC,200451.00,A,3606.2179963,N,14005.1791428,E,0.01,0.00,060625,0.0,E,D*36
$GPGGA,200451.00,3606.2179963,N,14005.1791428,E,4,18,0.0,31.819,M,38.037,M,0.0,*73
$GPRMC,200452.00,A,3606.2179966,N,14005.1791425,E,0.01,0.00,060625,0.0,E,D*3D
$GPGGA,200452.00,3606.2179966,N,14005.1791425,E,4,18,0.0,31.821,M,38.037,M,0.0,*73
$GPRMC,200453.00,A,3606.2179941,N,14005.1791468,E,0.01,0.00,060625,0.0,E,D*30
$GPGGA,200453.00,3606.2179941,N,14005.1791468,E,4,18,0.0,31.802,M,38.037,M,0.0,*7F
$GPRMC,200454.00,A,3606.2179945,N,14005.1791474,E,0.03,0.00,060625,0.0,E,D*3C
$GPGGA,200454.00,3606.2179945,N,14005.1791474,E,4,18,0.0,31.801,M,38.037,M,0.0,*72
$GPRMC,200455.00,A,3606.2179941,N,14005.1791468,E,0.01,0.00,060625,0.0,E,D*36
$GPGGA,200455.00,3606.2179941,N,14005.1791468,E,4,18,0.0,31.802,M,38.037,M,0.0,*79
$GPRMC,200456.00,A,3606.2179945,N,14005.1791469,E,0.02,0.00,060625,0.0,E,D*33
$GPGGA,200456.00,3606.2179945,N,14005.1791469,E,4,18,0.0,31.804,M,38.037,M,0.0,*79
$GPRMC,200457.00,A,3606.2179908,N,14005.1791390,E,0.01,0.00,060625,0.0,E,D*39
$GPGGA,200457.00,3606.2179908,N,14005.1791390,E,4,18,0.0,31.822,M,38.037,M,0.0,*74
$GPRMC,200458.00,A,3606.2179881,N,14005.1791381,E,0.02,0.00,060625,0.0,E,D*35
$GPGGA,200458.00,3606.2179881,N,14005.1791381,E,4,18,0.0,31.822,M,38.037,M,0.0,*7B
$GPRMC,200459.00,A,3606.2179876,N,14005.1791386,E,0.01,0.00,060625,0.0,E,D*38
$GPGGA,200459.00,3606.2179876,N,14005.1791386,E,4,18,0.0,31.821,M,38.037,M,0.0,*76
$GPRMC,200500.00,A,3606.2179873,N,14005.1791391,E,0.02,0.00,060625,0.0,E,D*35
$GPGGA,200500.00,3606.2179873,N,14005.1791391,E,4,18,0.0,31.824,M,38.037,M,0.0,*7D
$GPRMC,200501.00,A,3606.2179879,N,14005.1791396,E,0.02,0.00,060625,0.0,E,D*39
$GPGGA,200501.00,3606.2179879,N,14005.1791396,E,4,18,0.0,31.824,M,38.037,M,0.0,*71
$GPRMC,200502.00,A,3606.2179881,N,14005.1791388,E,0.01,0.00,060625,0.0,E,D*31
$GPGGA,200502.00,3606.2179881,N,14005.1791388,E,4,18,0.0,31.827,M,38.037,M,0.0,*79
$GPRMC,200503.00,A,3606.2179885,N,14005.1791392,E,0.02,0.00,060625,0.0,E,D*3C
$GPGGA,200503.00,3606.2179885,N,14005.1791392,E,4,18,0.0,31.828,M,38.037,M,0.0,*78
$GPRMC,200504.00,A,3606.2179890,N,14005.1791387,E,0.03,0.00,060625,0.0,E,D*3A
$GPGGA,200504.00,3606.2179890,N,14005.1791387,E,4,18,0.0,31.830,M,38.037,M,0.0,*76
$GPRMC,200505.00,A,3606.2179886,N,14005.1791386,E,0.01,0.00,060625,0.0,E,D*3F
$GPGGA,200505.00,3606.2179886,N,14005.1791386,E,4,18,0.0,31.830,M,38.037,M,0.0,*71
$GPRMC,200506.00,A,3606.2179893,N,14005.1791387,E,0.01,0.00,060625,0.0,E,D*39
$GPGGA,200506.00,3606.2179893,N,14005.1791387,E,4,18,0.0,31.833,M,38.037,M,0.0,*74
$GPRMC,200507.00,A,3606.2179897,N,14005.1791381,E,0.01,0.00,060625,0.0,E,D*3A
$GPGGA,200507.00,3606.2179897,N,14005.1791381,E,4,18,0.0,31.833,M,38.037,M,0.0,*77
$GPRMC,200508.00,A,3606.2179897,N,14005.1791380,E,0.02,0.00,060625,0.0,E,D*37
$GPGGA,200508.00,3606.2179897,N,14005.1791380,E,4,18,0.0,31.837,M,38.037,M,0.0,*7D
$GPRMC,200509.00,A,3606.2179905,N,14005.1791379,E,0.01,0.00,060625,0.0,E,D*39
$GPGGA,200509.00,3606.2179905,N,14005.1791379,E,4,18,0.0,31.838,M,38.037,M,0.0,*7F
$GPRMC,200510.00,A,3606.2179910,N,14005.1791379,E,0.02,0.00,060625,0.0,E,D*36
$GPGGA,200510.00,3606.2179910,N,14005.1791379,E,4,18,0.0,31.838,M,38.037,M,0.0,*73
$GPRMC,200511.00,A,3606.2179910,N,14005.1791375,E,0.02,0.00,060625,0.0,E,D*3B
$GPGGA,200511.00,3606.2179910,N,14005.1791375,E,4,18,0.0,31.837,M,38.037,M,0.0,*71
$GPRMC,200512.00,A,3606.2179909,N,14005.1791369,E,0.01,0.00,060625,0.0,E,D*3E
$GPGGA,200512.00,3606.2179909,N,14005.1791369,E,4,18,0.0,31.839,M,38.037,M,0.0,*79
$GPRMC,200513.00,A,3606.2179912,N,14005.1791365,E,0.01,0.00,060625,0.0,E,D*39
$GPGGA,200513.00,3606.2179912,N,14005.1791365,E,4,18,0.0,31.841,M,38.037,M,0.0,*71
$GPRMC,200514.00,A,3606.2179917,N,14005.1791365,E,0.01,0.00,060625,0.0,E,D*3B
$GPGGA,200514.00,3606.2179917,N,14005.1791365,E,4,18,0.0,31.840,M,38.037,M,0.0,*72
$GPRMC,200515.00,A,3606.2179920,N,14005.1791361,E,0.01,0.00,060625,0.0,E,D*3A
$GPGGA,200515.00,3606.2179920,N,14005.1791361,E,4,18,0.0,31.839,M,38.037,M,0.0,*7D
$GPRMC,200516.00,A,3606.2179929,N,14005.1791369,E,0.02,0.00,060625,0.0,E,D*3B
$GPGGA,200516.00,3606.2179929,N,14005.1791369,E,4,18,0.0,31.840,M,38.037,M,0.0,*71
$GPRMC,200517.00,A,3606.2179931,N,14005.1791381,E,0.02,0.00,060625,0.0,E,D*35
$GPGGA,200517.00,3606.2179931,N,14005.1791381,E,4,18,0.0,31.840,M,38.037,M,0.0,*7F
$GPRMC,200518.00,A,3606.2179935,N,14005.1791385,E,0.02,0.00,060625,0.0,E,D*3A
$GPGGA,200518.00,3606.2179935,N,14005.1791385,E,4,18,0.0,31.843,M,38.037,M,0.0,*73
$GPRMC,200519.00,A,3606.2179947,N,14005.1791393,E,0.01,0.00,060625,0.0,E,D*3A
$GPGGA,200519.00,3606.2179947,N,14005.1791393,E,4,18,0.0,31.841,M,38.037,M,0.0,*72
$GPRMC,200520.00,A,3606.2179949,N,14005.1791397,E,0.03,0.00,060625,0.0,E,D*38
$GPGGA,200520.00,3606.2179949,N,14005.1791397,E,4,18,0.0,31.839,M,38.037,M,0.0,*7D
$GPRMC,200521.00,A,3606.2179951,N,14005.1791397,E,0.02,0.00,060625,0.0,E,D*31
$GPGGA,200521.00,3606.2179951,N,14005.1791397,E,4,18,0.0,31.841,M,38.037,M,0.0,*7A
$GPRMC,200522.00,A,3606.2179946,N,14005.1791410,E,0.02,0.00,060625,0.0,E,D*3C
$GPGGA,200522.00,3606.2179946,N,14005.1791410,E,4,18,0.0,31.833,M,38.037,M,0.0,*72
$GPRMC,200523.00,A,3606.2179947,N,14005.1791413,E,0.02,0.00,060625,0.0,E,D*3F
$GPGGA,200523.00,3606.2179947,N,14005.1791413,E,4,18,0.0,31.835,M,38.037,M,0.0,*77
$GPRMC,200524.00,A,3606.2179953,N,14005.1791413,E,0.03,0.00,060625,0.0,E,D*3C
$GPGGA,200524.00,3606.2179953,N,14005.1791413,E,4,18,0.0,31.838,M,38.037,M,0.0,*78
$GPRMC,200525.00,A,3606.2179945,N,14005.1791405,E,0.03,0.00,060625,0.0,E,D*3D
$GPGGA,200525.00,3606.2179945,N,14005.1791405,E,4,18,0.0,31.836,M,38.037,M,0.0,*77
$GPRMC,200526.00,A,3606.2179949,N,14005.1791406,E,0.02,0.00,060625,0.0,E,D*30
$GPGGA,200526.00,3606.2179949,N,14005.1791406,E,4,18,0.0,31.836,M,38.037,M,0.0,*7B
$GPRMC,200527.00,A,3606.2179850,N,14005.1791465,E,0.04,0.00,060625,0.0,E,D*3B
$GPGGA,200527.00,3606.2179850,N,14005.1791465,E,4,18,0.0,31.840,M,38.037,M,0.0,*77
$GPRMC,200528.00,A,3606.2179852,N,14005.1791454,E,0.02,0.00,060625,0.0,E,D*32
$GPGGA,200528.00,3606.2179852,N,14005.1791454,E,4,18,0.0,31.838,M,38.037,M,0.0,*77
$GPRMC,200529.00,A,3606.2179851,N,14005.1791460,E,0.01,0.00,060625,0.0,E,D*34
$GPGGA,200529.00,3606.2179851,N,14005.1791460,E,4,18,0.0,31.840,M,38.037,M,0.0,*7D
$GPRMC,200530.00,A,3606.2179847,N,14005.1791452,E,0.01,0.00,060625,0.0,E,D*3A
$GPGGA,200530.00,3606.2179847,N,14005.1791452,E,4,18,0.0,31.837,M,38.037,M,0.0,*73
$GPRMC,200531.00,A,3606.2179838,N,14005.1791449,E,0.01,0.00,060625,0.0,E,D*39
$GPGGA,200531.00,3606.2179838,N,14005.1791449,E,4,18,0.0,31.836,M,38.037,M,0.0,*71
$GPRMC,200532.00,A,3606.2179838,N,14005.1791450,E,0.03,0.00,060625,0.0,E,D*30
$GPGGA,200532.00,3606.2179838,N,14005.1791450,E,4,18,0.0,31.834,M,38.037,M,0.0,*78
$GPRMC,200533.00,A,3606.2179840,N,14005.1791451,E,0.02,0.00,060625,0.0,E,D*3E
$GPGGA,200533.00,3606.2179840,N,14005.1791451,E,4,18,0.0,31.832,M,38.037,M,0.0,*71
$GPRMC,200534.00,A,3606.2179838,N,14005.1791459,E,0.02,0.00,060625,0.0,E,D*3E
$GPGGA,200534.00,3606.2179838,N,14005.1791459,E,4,18,0.0,31.832,M,38.037,M,0.0,*71
$GPRMC,200535.00,A,3606.2179829,N,14005.1791449,E,0.03,0.00,060625,0.0,E,D*3F
$GPGGA,200535.00,3606.2179829,N,14005.1791449,E,4,18,0.0,31.834,M,38.037,M,0.0,*77
$GPRMC,200536.00,A,3606.2179833,N,14005.1791448,E,0.03,0.00,060625,0.0,E,D*36
$GPGGA,200536.00,3606.2179833,N,14005.1791448,E,4,18,0.0,31.832,M,38.037,M,0.0,*78
$GPRMC,200537.00,A,3606.2179827,N,14005.1791440,E,0.04,0.00,060625,0.0,E,D*3D
$GPGGA,200537.00,3606.2179827,N,14005.1791440,E,4,18,0.0,31.832,M,38.037,M,0.0,*74
$GPRMC,200538.00,A,3606.2179821,N,14005.1791437,E,0.01,0.00,060625,0.0,E,D*31
$GPGGA,200538.00,3606.2179821,N,14005.1791437,E,4,18,0.0,31.831,M,38.037,M,0.0,*7E
$GPRMC,200539.00,A,3606.2179830,N,14005.1791448,E,0.01,0.00,060625,0.0,E,D*38
$GPGGA,200539.00,3606.2179830,N,14005.1791448,E,4,18,0.0,31.831,M,38.037,M,0.0,*77
$GPRMC,200540.00,A,3606.2179814,N,14005.1791441,E,0.02,0.00,060625,0.0,E,D*3A
$GPGGA,200540.00,3606.2179814,N,14005.1791441,E,4,18,0.0,31.833,M,38.037,M,0.0,*74
$GPRMC,200541.00,A,3606.2179819,N,14005.1791444,E,0.07,0.00,060625,0.0,E,D*36
$GPGGA,200541.00,3606.2179819,N,14005.1791444,E,4,18,0.0,31.835,M,38.037,M,0.0,*7B
$GPRMC,200542.00,A,3606.2179816,N,14005.1791443,E,0.02,0.00,060625,0.0,E,D*38
$GPGGA,200542.00,3606.2179816,N,14005.1791443,E,4,18,0.0,31.833,M,38.037,M,0.0,*76
$GPRMC,200543.00,A,3606.2179817,N,14005.1791439,E,0.03,0.00,060625,0.0,E,D*34
$GPGGA,200543.00,3606.2179817,N,14005.1791439,E,4,18,0.0,31.836,M,38.037,M,0.0,*7E
$GPRMC,200544.00,A,3606.2179810,N,14005.1791439,E,0.04,0.00,060625,0.0,E,D*33
$GPGGA,200544.00,3606.2179810,N,14005.1791439,E,4,18,0.0,31.838,M,38.037,M,0.0,*70
$GPRMC,200545.00,A,3606.2179809,N,14005.1791442,E,0.03,0.00,060625,0.0,E,D*31
$GPGGA,200545.00,3606.2179809,N,14005.1791442,E,4,18,0.0,31.834,M,38.037,M,0.0,*79
$GPRMC,200546.00,A,3606.2179805,N,14005.1791449,E,0.01,0.00,060625,0.0,E,D*37
$GPGGA,200546.00,3606.2179805,N,14005.1791449,E,4,18,0.0,31.835,M,38.037,M,0.0,*7C
$GPRMC,200547.00,A,3606.2179805,N,14005.1791436,E,0.03,0.00,060625,0.0,E,D*3C
$GPGGA,200547.00,3606.2179805,N,14005.1791436,E,4,18,0.0,31.833,M,38.037,M,0.0,*73
$GPRMC,200548.00,A,3606.2179805,N,14005.1791436,E,0.01,0.00,060625,0.0,E,D*31
$GPGGA,200548.00,3606.2179805,N,14005.1791436,E,4,18,0.0,31.834,M,38.037,M,0.0,*7B
$GPRMC,200549.00,A,3606.2179800,N,14005.1791442,E,0.02,0.00,060625,0.0,E,D*35
$GPGGA,200549.00,3606.2179800,N,14005.1791442,E,4,18,0.0,31.835,M,38.037,M,0.0,*7D
$GPRMC,200550.00,A,3606.2179796,N,14005.1791440,E,0.01,0.00,060625,0.0,E,D*3C
$GPGGA,200550.00,3606.2179796,N,14005.1791440,E,4,18,0.0,31.834,M,38.037,M,0.0,*76
$GPRMC,200551.00,A,3606.2179791,N,14005.1791438,E,0.01,0.00,060625,0.0,E,D*35
$GPGGA,200551.00,3606.2179791,N,14005.1791438,E,4,18,0.0,31.834,M,38.037,M,0.0,*7F
$GPRMC,200552.00,A,3606.2179780,N,14005.1791435,E,0.01,0.00,060625,0.0,E,D*3B
$GPGGA,200552.00,3606.2179780,N,14005.1791435,E,4,18,0.0,31.834,M,38.037,M,0.0,*71
$GPRMC,200553.00,A,3606.2179777,N,14005.1791435,E,0.02,0.00,060625,0.0,E,D*31
$GPGGA,200553.00,3606.2179777,N,14005.1791435,E,4,18,0.0,31.834,M,38.037,M,0.0,*78
$GPRMC,200554.00,A,3606.2179776,N,14005.1791439,E,0.02,0.00,060625,0.0,E,D*3B
