$GPRMC,195942.00,A,3606.2180224,N,14005.1791095,E,0.01,0.00,060625,0.0,E,D*3A
$GPGGA,195942.00,3606.2180224,N,14005.1791095,E,5,16,0.7,32.048,M,38.037,M,0.0,*78
$GPRMC,195943.00,A,3606.2180324,N,14005.1790991,E,0.01,0.00,060625,0.0,E,D*36
$GPGGA,195943.00,3606.2180324,N,14005.1790991,E,5,16,0.7,32.063,M,38.037,M,1.0,*7C
$GPRMC,195944.00,A,3606.2180296,N,14005.1790872,E,0.01,0.00,060625,0.0,E,D*35
$GPGGA,195944.00,3606.2180296,N,14005.1790872,E,5,16,0.7,32.079,M,38.037,M,2.0,*77
$GPRMC,195945.00,A,3606.2180311,N,14005.1790751,E,0.02,0.00,060625,0.0,E,D*37
$GPGGA,195945.00,3606.2180311,N,14005.1790751,E,5,16,0.7,32.091,M,38.037,M,3.0,*71
$GPRMC,195946.00,A,3606.2180321,N,14005.1790779,E,0.01,0.00,060625,0.0,E,D*3E
$GPGGA,195946.00,3606.2180321,N,14005.1790779,E,5,16,0.7,32.101,M,38.037,M,4.0,*74
$GPRMC,195947.00,A,3606.2179904,N,14005.1791380,E,0.03,0.00,060625,0.0,E,D*35
$GPGGA,195947.00,3606.2179904,N,14005.1791380,E,4,16,0.7,31.836,M,38.037,M,0.0,*76
$GPRMC,195948.00,A,3606.2179888,N,14005.1791389,E,0.02,0.00,060625,0.0,E,D*37
$GPGGA,195948.00,3606.2179888,N,14005.1791389,E,4,16,0.7,31.836,M,38.037,M,1.0,*74
$GPRMC,195949.00,A,3606.2179906,N,14005.1791382,E,0.01,0.00,060625,0.0,E,D*39
$GPGGA,195949.00,3606.2179906,N,14005.1791382,E,4,16,0.7,31.838,M,38.037,M,2.0,*74
$GPRMC,195950.00,A,3606.2179886,N,14005.1791377,E,0.03,0.00,060625,0.0,E,D*30
$GPGGA,195950.00,3606.2179886,N,14005.1791377,E,4,16,0.7,31.845,M,38.037,M,3.0,*74
$GPRMC,195951.00,A,3606.2179871,N,14005.1791381,E,0.01,0.00,060625,0.0,E,D*32
$GPGGA,195951.00,3606.2179871,N,14005.1791381,E,4,16,0.7,31.850,M,38.037,M,4.0,*77
$GPRMC,195952.00,A,3606.2179888,N,14005.1791395,E,0.02,0.00,060625,0.0,E,D*31
$GPGGA,195952.00,3606.2179888,N,14005.1791395,E,4,16,0.7,31.848,M,38.037,M,0.0,*7A
$GPRMC,195953.00,A,3606.2179899,N,14005.1791373,E,0.01,0.00,060625,0.0,E,D*3B
$GPGGA,195953.00,3606.2179899,N,14005.1791373,E,4,16,0.7,31.848,M,38.037,M,1.0,*72
$GPRMC,195954.00,A,3606.2179916,N,14005.1791389,E,0.02,0.00,060625,0.0,E,D*3C
$GPGGA,195954.00,3606.2179916,N,14005.1791389,E,4,16,0.7,31.847,M,38.037,M,2.0,*7A
$GPRMC,195955.00,A,3606.2179903,N,14005.1791381,E,0.02,0.00,060625,0.0,E,D*31
$GPGGA,195955.00,3606.2179903,N,14005.1791381,E,4,16,0.7,31.855,M,38.037,M,3.0,*75
$GPRMC,195956.00,A,3606.2179911,N,14005.1791375,E,0.02,0.00,060625,0.0,E,D*3A
$GPGGA,195956.00,3606.2179911,N,14005.1791375,E,4,16,0.7,31.852,M,38.037,M,4.0,*7E
$GPRMC,195957.00,A,3606.2179924,N,14005.1791384,E,0.01,0.00,060625,0.0,E,D*30
$GPGGA,195957.00,3606.2179924,N,14005.1791384,E,4,16,0.7,31.853,M,38.037,M,0.0,*72
$GPRMC,195958.00,A,3606.2179907,N,14005.1791374,E,0.03,0.00,060625,0.0,E,D*33
$GPGGA,195958.00,3606.2179907,N,14005.1791374,E,4,16,0.7,31.859,M,38.037,M,1.0,*78
$GPRMC,195959.00,A,3606.2179923,N,14005.1791377,E,0.01,0.00,060625,0.0,E,D*35
$GPGGA,195959.00,3606.2179923,N,14005.1791377,E,4,16,0.7,31.856,M,38.037,M,2.0,*70
$GPRMC,200000.00,A,3606.2179939,N,14005.1791382,E,0.01,0.00,060625,0.0,E,D*3E
$GPGGA,200000.00,3606.2179939,N,14005.1791382,E,4,16,0.7,31.850,M,38.037,M,3.0,*7C
$GPRMC,200001.00,A,3606.2179920,N,14005.1791368,E,0.03,0.00,060625,0.0,E,D*31
$GPGGA,200001.00,3606.2179920,N,14005.1791368,E,4,16,0.7,31.857,M,38.037,M,4.0,*71
$GPRMC,200002.00,A,3606.2179922,N,14005.1791367,E,0.03,0.00,060625,0.0,E,D*3F
$GPGGA,200002.00,3606.2179922,N,14005.1791367,E,4,16,0.7,31.862,M,38.037,M,0.0,*7D
$GPRMC,200003.00,A,3606.2179939,N,14005.1791371,E,0.01,0.00,060625,0.0,E,D*31
$GPGGA,200003.00,3606.2179939,N,14005.1791371,E,4,16,0.7,31.859,M,38.037,M,1.0,*78
$GPRMC,200004.00,A,3606.2179943,N,14005.1791371,E,0.02,0.00,060625,0.0,E,D*38
$GPGGA,200004.00,3606.2179943,N,14005.1791371,E,4,16,0.7,31.856,M,38.037,M,2.0,*7E
$GPRMC,200005.00,A,3606.2179928,N,14005.1791350,E,0.02,0.00,060625,0.0,E,D*37
$GPGGA,200005.00,3606.2179928,N,14005.1791350,E,4,16,0.7,31.863,M,38.037,M,3.0,*76
$GPRMC,200006.00,A,3606.2179922,N,14005.1791351,E,0.01,0.00,060625,0.0,E,D*3C
$GPGGA,200006.00,3606.2179922,N,14005.1791351,E,4,16,0.7,31.864,M,38.037,M,4.0,*7E
$GPRMC,200007.00,A,3606.2179926,N,14005.1791353,E,0.02,0.00,060625,0.0,E,D*38
$GPGGA,200007.00,3606.2179926,N,14005.1791353,E,4,16,0.7,31.861,M,38.037,M,0.0,*78
$GPRMC,200008.00,A,3606.2179912,N,14005.1791360,E,0.04,0.00,060625,0.0,E,D*36
$GPGGA,200008.00,3606.2179912,N,14005.1791360,E,4,16,0.7,31.868,M,38.037,M,1.0,*78
$GPRMC,200009.00,A,3606.2179915,N,14005.1791349,E,0.02,0.00,060625,0.0,E,D*3D
$GPGGA,200009.00,3606.2179915,N,14005.1791349,E,4,16,0.7,31.864,M,38.037,M,2.0,*7A
$GPRMC,200010.00,A,3606.2179925,N,14005.1791369,E,0.03,0.00,060625,0.0,E,D*35
$GPGGA,200010.00,3606.2179925,N,14005.1791369,E,4,16,0.7,31.862,M,38.037,M,3.0,*74
$GPRMC,200011.00,A,3606.2179952,N,14005.1791359,E,0.02,0.00,060625,0.0,E,D*36
$GPGGA,200011.00,3606.2179952,N,14005.1791359,E,4,16,0.7,31.856,M,38.037,M,4.0,*76
$GPRMC,200012.00,A,3606.2179915,N,14005.1791361,E,0.02,0.00,060625,0.0,E,D*3D
$GPGGA,200012.00,3606.2179915,N,14005.1791361,E,4,16,0.7,31.867,M,38.037,M,0.0,*7B
$GPRMC,200013.00,A,3606.2179938,N,14005.1791355,E,0.02,0.00,060625,0.0,E,D*34
$GPGGA,200013.00,3606.2179938,N,14005.1791355,E,4,16,0.7,31.865,M,38.037,M,1.0,*71
$GPRMC,200014.00,A,3606.2179931,N,14005.1791368,E,0.01,0.00,060625,0.0,E,D*37
$GPGGA,200014.00,3606.2179931,N,14005.1791368,E,4,16,0.7,31.863,M,38.037,M,2.0,*74
$GPRMC,200015.00,A,3606.2179920,N,14005.1791348,E,0.01,0.00,060625,0.0,E,D*34
$GPGGA,200015.00,3606.2179920,N,14005.1791348,E,4,16,0.7,31.872,M,38.037,M,3.0,*76
$GPRMC,200016.00,A,3606.2179916,N,14005.1791343,E,0.03,0.00,060625,0.0,E,D*3B
$GPGGA,200016.00,3606.2179916,N,14005.1791343,E,4,16,0.7,31.870,M,38.037,M,4.0,*7E
$GPRMC,200017.00,A,3606.2179925,N,14005.1791356,E,0.02,0.00,060625,0.0,E,D*3F
$GPGGA,200017.00,3606.2179925,N,14005.1791356,E,4,16,0.7,31.869,M,38.037,M,0.0,*77
$GPRMC,200018.00,A,3606.2179947,N,14005.1791351,E,0.02,0.00,060625,0.0,E,D*33
$GPGGA,200018.00,3606.2179947,N,14005.1791351,E,4,16,0.7,31.863,M,38.037,M,1.0,*70
$GPRMC,200019.00,A,3606.2179933,N,14005.1791344,E,0.03,0.00,060625,0.0,E,D*34
$GPGGA,200019.00,3606.2179933,N,14005.1791344,E,4,16,0.7,31.867,M,38.037,M,2.0,*71
$GPRMC,200020.00,A,3606.2179940,N,14005.1791356,E,0.02,0.00,060625,0.0,E,D*38
$GPGGA,200020.00,3606.2179940,N,14005.1791356,E,4,16,0.7,31.876,M,38.037,M,3.0,*7D
$GPRMC,200021.00,A,3606.2179941,N,14005.1791350,E,0.03,0.00,060625,0.0,E,D*3F
$GPGGA,200021.00,3606.2179941,N,14005.1791350,E,4,16,0.7,31.870,M,38.037,M,4.0,*7A
$GPRMC,200022.00,A,3606.2179922,N,14005.1791359,E,0.02,0.00,060625,0.0,E,D*31
$GPGGA,200022.00,3606.2179922,N,14005.1791359,E,4,16,0.7,31.874,M,38.037,M,0.0,*75
$GPRMC,200023.00,A,3606.2179934,N,14005.1791363,E,0.03,0.00,060625,0.0,E,D*3F
$GPGGA,200023.00,3606.2179934,N,14005.1791363,E,4,16,0.7,31.872,M,38.037,M,1.0,*7D
$GPRMC,200024.00,A,3606.2179920,N,14005.1791354,E,0.02,0.00,060625,0.0,E,D*38
$GPGGA,200024.00,3606.2179920,N,14005.1791354,E,4,16,0.7,31.877,M,38.037,M,2.0,*7D
$GPRMC,200025.00,A,3606.2179933,N,14005.1791367,E,0.02,0.00,060625,0.0,E,D*3B
$GPGGA,200025.00,3606.2179933,N,14005.1791367,E,4,16,0.7,31.872,M,38.037,M,3.0,*7A
$GPRMC,200026.00,A,3606.2179921,N,14005.1791367,E,0.03,0.00,060625,0.0,E,D*3A
$GPGGA,200026.00,3606.2179921,N,14005.1791367,E,4,16,0.7,31.877,M,38.037,M,4.0,*78
$GPRMC,200027.00,A,3606.2179918,N,14005.1791392,E,0.01,0.00,060625,0.0,E,D*39
$GPGGA,200027.00,3606.2179918,N,14005.1791392,E,4,16,0.7,31.847,M,38.037,M,0.0,*7E
$GPRMC,200028.00,A,3606.2179919,N,14005.1791389,E,0.02,0.00,060625,0.0,E,D*3E
$GPGGA,200028.00,3606.2179919,N,14005.1791389,E,4,16,0.7,31.846,M,38.037,M,1.0,*7A
$GPRMC,200029.00,A,3606.2179920,N,14005.1791418,E,0.01,0.00,060625,0.0,E,D*39
$GPGGA,200029.00,3606.2179920,N,14005.1791418,E,4,16,0.7,31.841,M,38.037,M,2.0,*7A
$GPRMC,200030.00,A,3606.2179897,N,14005.1791410,E,0.01,0.00,060625,0.0,E,D*34
$GPGGA,200030.00,3606.2179897,N,14005.1791410,E,4,16,0.7,31.849,M,38.037,M,3.0,*7E
$GPRMC,200031.00,A,3606.2179924,N,14005.1791393,E,0.02,0.00,060625,0.0,E,D*33
$GPGGA,200031.00,3606.2179924,N,14005.1791393,E,4,16,0.7,31.846,M,38.037,M,4.0,*72
$GPRMC,200032.00,A,3606.2179883,N,14005.1791381,E,0.02,0.00,060625,0.0,E,D*3F
$GPGGA,200032.00,3606.2179883,N,14005.1791381,E,4,16,0.7,31.843,M,38.037,M,0.0,*7F
$GPRMC,200033.00,A,3606.2179893,N,14005.1791369,E,0.02,0.00,060625,0.0,E,D*39
$GPGGA,200033.00,3606.2179893,N,14005.1791369,E,4,16,0.7,31.841,M,38.037,M,1.0,*7A
$GPRMC,200034.00,A,3606.2179888,N,14005.1791389,E,0.02,0.00,060625,0.0,E,D*3A
$GPGGA,200034.00,3606.2179888,N,14005.1791389,E,4,16,0.7,31.850,M,38.037,M,2.0,*7A
$GPRMC,200035.00,A,3606.2179904,N,14005.1791383,E,0.05,0.00,060625,0.0,E,D*33
$GPGGA,200035.00,3606.2179904,N,14005.1791383,E,4,16,0.7,31.843,M,38.037,M,3.0,*77
$GPRMC,200036.00,A,3606.2179889,N,14005.1791361,E,0.02,0.00,060625,0.0,E,D*3F
$GPGGA,200036.00,3606.2179889,N,14005.1791361,E,4,16,0.7,31.849,M,38.037,M,4.0,*71
$GPRMC,200037.00,A,3606.2179888,N,14005.1791361,E,0.02,0.00,060625,0.0,E,D*3F
$GPGGA,200037.00,3606.2179888,N,14005.1791361,E,4,16,0.7,31.845,M,38.037,M,0.0,*79
$GPRMC,200038.00,A,3606.2179886,N,14005.1791357,E,0.01,0.00,060625,0.0,E,D*38
$GPGGA,200038.00,3606.2179886,N,14005.1791357,E,4,16,0.7,31.842,M,38.037,M,1.0,*7B
$GPRMC,200039.00,A,3606.2179905,N,14005.1791369,E,0.02,0.00,060625,0.0,E,D*3D
$GPGGA,200039.00,3606.2179905,N,14005.1791369,E,4,16,0.7,31.841,M,38.037,M,2.0,*7D
$GPRMC,200040.00,A,3606.2179900,N,14005.1791362,E,0.02,0.00,060625,0.0,E,D*3D
$GPGGA,200040.00,3606.2179900,N,14005.1791362,E,4,16,0.7,31.842,M,38.037,M,3.0,*7F
$GPRMC,200041.00,A,3606.2179878,N,14005.1791359,E,0.02,0.00,060625,0.0,E,D*3A
$GPGGA,200041.00,3606.2179878,N,14005.1791359,E,4,16,0.7,31.843,M,38.037,M,4.0,*7E
$GPRMC,200042.00,A,3606.2179860,N,14005.1791350,E,0.02,0.00,060625,0.0,E,D*39
$GPGGA,200042.00,3606.2179860,N,14005.1791350,E,4,16,0.7,31.846,M,38.037,M,0.0,*7C
$GPRMC,200043.00,A,3606.2179887,N,14005.1791345,E,0.03,0.00,060625,0.0,E,D*34
$GPGGA,200043.00,3606.2179887,N,14005.1791345,E,4,16,0.7,31.843,M,38.037,M,1.0,*74
$GPRMC,200044.00,A,3606.2179866,N,14005.1791364,E,0.02,0.00,060625,0.0,E,D*3E
$GPGGA,200044.00,3606.2179866,N,14005.1791364,E,4,16,0.7,31.846,M,38.037,M,2.0,*79
$GPRMC,200045.00,A,3606.2179882,N,14005.1791365,E,0.01,0.00,060625,0.0,E,D*37
$GPGGA,200045.00,3606.2179882,N,14005.1791365,E,4,16,0.7,31.840,M,38.037,M,3.0,*74
$GPRMC,200046.00,A,3606.2179877,N,14005.1791376,E,0.02,0.00,060625,0.0,E,D*3F
$GPGGA,200046.00,3606.2179877,N,14005.1791376,E,4,16,0.7,31.837,M,38.037,M,4.0,*78
$GPRMC,200047.00,A,3606.2179866,N,14005.1791335,E,0.01,0.00,060625,0.0,E,D*3A
$GPGGA,200047.00,3606.2179866,N,14005.1791335,E,4,16,0.7,31.839,M,38.037,M,0.0,*74
$GPRMC,200048.00,A,3606.2179872,N,14005.1791371,E,0.03,0.00,060625,0.0,E,D*32
$GPGGA,200048.00,3606.2179872,N,14005.1791371,E,4,16,0.7,31.842,M,38.037,M,1.0,*73
$GPRMC,200049.00,A,3606.2179890,N,14005.1791376,E,0.02,0.00,060625,0.0,E,D*39
$GPGGA,200049.00,3606.2179890,N,14005.1791376,E,4,16,0.7,31.834,M,38.037,M,2.0,*7B
$GPRMC,200050.00,A,3606.2179876,N,14005.1791377,E,0.01,0.00,060625,0.0,E,D*3B
$GPGGA,200050.00,3606.2179876,N,14005.1791377,E,4,16,0.7,31.841,M,38.037,M,3.0,*79
$GPRMC,200051.00,A,3606.2179891,N,14005.1791363,E,0.02,0.00,060625,0.0,E,D*35
$GPGGA,200051.00,3606.2179891,N,14005.1791363,E,4,16,0.7,31.838,M,38.037,M,4.0,*7D
$GPRMC,200052.00,A,3606.2179921,N,14005.1791386,E,0.03,0.00,060625,0.0,E,D*36
$GPGGA,200052.00,3606.2179921,N,14005.1791386,E,4,16,0.7,31.833,M,38.037,M,0.0,*70
$GPRMC,200053.00,A,3606.2179930,N,14005.1791379,E,0.01,0.00,060625,0.0,E,D*35
$GPGGA,200053.00,3606.2179930,N,14005.1791379,E,4,16,0.7,31.834,M,38.037,M,1.0,*77
$GPRMC,200054.00,A,3606.2179918,N,14005.1791375,E,0.02,0.00,060625,0.0,E,D*37
$GPGGA,200054.00,3606.2179918,N,14005.1791375,E,4,16,0.7,31.834,M,38.037,M,2.0,*75
$GPRMC,200055.00,A,3606.2179908,N,14005.1791373,E,0.01,0.00,060625,0.0,E,D*32
$GPGGA,200055.00,3606.2179908,N,14005.1791373,E,4,16,0.7,31.835,M,38.037,M,3.0,*73
$GPRMC,200056.00,A,3606.2179931,N,14005.1791368,E,0.01,0.00,060625,0.0,E,D*31
$GPGGA,200056.00,3606.2179931,N,14005.1791368,E,4,16,0.7,31.832,M,38.037,M,4.0,*70
$GPRMC,200057.00,A,3606.2179951,N,14005.1791398,E,0.03,0.00,060625,0.0,E,D*3B
$GPGGA,200057.00,3606.2179951,N,14005.1791398,E,4,16,0.7,31.836,M,38.037,M,0.0,*78
$GPRMC,200058.00,A,3606.2179972,N,14005.1791397,E,0.01,0.00,060625,0.0,E,D*38
$GPGGA,200058.00,3606.2179972,N,14005.1791397,E,4,16,0.7,31.840,M,38.037,M,1.0,*79
$GPRMC,200059.00,A,3606.2179983,N,14005.1791396,E,0.02,0.00,060625,0.0,E,D*35
$GPGGA,200059.00,3606.2179983,N,14005.1791396,E,4,16,0.7,31.849,M,38.037,M,2.0,*7D
$GPRMC,200100.00,A,3606.2179966,N,14005.1791403,E,0.00,0.00,060625,0.0,E,D*3A
$GPGGA,200100.00,3606.2179966,N,14005.1791403,E,4,16,0.7,31.844,M,38.037,M,3.0,*7C
$GPRMC,200101.00,A,3606.2179972,N,14005.1791390,E,0.02,0.00,060625,0.0,E,D*31
$GPGGA,200101.00,3606.2179972,N,14005.1791390,E,4,16,0.7,31.845,M,38.037,M,4.0,*73
$GPRMC,200102.00,A,3606.2179960,N,14005.1791385,E,0.01,0.00,060625,0.0,E,D*36
$GPGGA,200102.00,3606.2179960,N,14005.1791385,E,4,16,0.7,31.846,M,38.037,M,0.0,*70
$GPRMC,200103.00,A,3606.2179960,N,14005.1791380,E,0.02,0.00,060625,0.0,E,D*31
$GPGGA,200103.00,3606.2179960,N,14005.1791380,E,4,16,0.7,31.837,M,38.037,M,1.0,*73
$GPRMC,200104.00,A,3606.2179963,N,14005.1791400,E,0.01,0.00,060625,0.0,E,D*39
$GPGGA,200104.00,3606.2179963,N,14005.1791400,E,4,16,0.7,31.844,M,38.037,M,2.0,*7F
$GPRMC,200105.00,A,3606.2179979,N,14005.1791379,E,0.02,0.00,060625,0.0,E,D*39
$GPGGA,200105.00,3606.2179979,N,14005.1791379,E,4,16,0.7,31.834,M,38.037,M,3.0,*7A
$GPRMC,200106.00,A,3606.2179980,N,14005.1791398,E,0.02,0.00,060625,0.0,E,D*33
$GPGGA,200106.00,3606.2179980,N,14005.1791398,E,4,16,0.7,31.831,M,38.037,M,4.0,*72
$GPRMC,200107.00,A,3606.2179972,N,14005.1791360,E,0.03,0.00,060625,0.0,E,D*39
$GPGGA,200107.00,3606.2179972,N,14005.1791360,E,4,16,0.7,31.827,M,38.037,M,0.0,*7A
$GPRMC,200108.00,A,3606.2179978,N,14005.1791381,E,0.02,0.00,060625,0.0,E,D*32
$GPGGA,200108.00,3606.2179978,N,14005.1791381,E,4,16,0.7,31.828,M,38.037,M,1.0,*7E
$GPRMC,200109.00,A,3606.2179962,N,14005.1791389,E,0.02,0.00,060625,0.0,E,D*30
$GPGGA,200109.00,3606.2179962,N,14005.1791389,E,4,16,0.7,31.829,M,38.037,M,2.0,*7E
$GPRMC,200110.00,A,3606.2179961,N,14005.1791372,E,0.02,0.00,060625,0.0,E,D*3F
$GPGGA,200110.00,3606.2179961,N,14005.1791372,E,4,16,0.7,31.830,M,38.037,M,3.0,*78
$GPRMC,200111.00,A,3606.2179968,N,14005.1791391,E,0.01,0.00,060625,0.0,E,D*39
$GPGGA,200111.00,3606.2179968,N,14005.1791391,E,4,16,0.7,31.832,M,38.037,M,4.0,*78
$GPRMC,200112.00,A,3606.2179983,N,14005.1791381,E,0.02,0.00,060625,0.0,E,D*3D
$GPGGA,200112.00,3606.2179983,N,14005.1791381,E,4,16,0.7,31.828,M,38.037,M,0.0,*70
$GPRMC,200113.00,A,3606.2179975,N,14005.1791390,E,0.03,0.00,060625,0.0,E,D*34
$GPGGA,200113.00,3606.2179975,N,14005.1791390,E,4,16,0.7,31.832,M,38.037,M,1.0,*72
$GPRMC,200114.00,A,3606.2179957,N,14005.1791372,E,0.02,0.00,060625,0.0,E,D*3E
$GPGGA,200114.00,3606.2179957,N,14005.1791372,E,4,16,0.7,31.836,M,38.037,M,2.0,*7E
$GPRMC,200115.00,A,3606.2179978,N,14005.1791378,E,0.01,0.00,060625,0.0,E,D*3B
$GPGGA,200115.00,3606.2179978,N,14005.1791378,E,4,16,0.7,31.831,M,38.037,M,3.0,*7E
$GPRMC,200116.00,A,3606.2180014,N,14005.1791398,E,0.03,0.00,060625,0.0,E,D*31
$GPGGA,200116.00,3606.2180014,N,14005.1791398,E,4,16,0.7,31.820,M,38.037,M,4.0,*71
$GPRMC,200117.00,A,3606.2180000,N,14005.1791389,E,0.04,0.00,060625,0.0,E,D*32
$GPGGA,200117.00,3606.2180000,N,14005.1791389,E,4,16,0.7,31.832,M,38.037,M,0.0,*72
$GPRMC,200118.00,A,3606.2179994,N,14005.1791387,E,0.01,0.00,060625,0.0,E,D*34
$GPGGA,200118.00,3606.2179994,N,14005.1791387,E,4,16,0.7,31.831,M,38.037,M,1.0,*73
$GPRMC,200119.00,A,3606.2179999,N,14005.1791374,E,0.02,0.00,060625,0.0,E,D*37
$GPGGA,200119.00,3606.2179999,N,14005.1791374,E,4,16,0.7,31.834,M,38.037,M,2.0,*75
$GPRMC,200120.00,A,3606.2180005,N,14005.1791380,E,0.02,0.00,060625,0.0,E,D*3C
$GPGGA,200120.00,3606.2180005,N,14005.1791380,E,4,16,0.7,31.826,M,38.037,M,3.0,*7C
$GPRMC,200121.00,A,3606.2179984,N,14005.1791383,E,0.01,0.00,060625,0.0,E,D*3B
$GPGGA,200121.00,3606.2179984,N,14005.1791383,E,4,16,0.7,31.837,M,38.037,M,4.0,*7F
$GPRMC,200122.00,A,3606.2179981,N,14005.1791366,E,0.05,0.00,060625,0.0,E,D*32
$GPGGA,200122.00,3606.2179981,N,14005.1791366,E,4,16,0.7,31.839,M,38.037,M,0.0,*78
$GPRMC,200123.00,A,3606.2179974,N,14005.1791361,E,0.02,0.00,060625,0.0,E,D*39
$GPGGA,200123.00,3606.2179974,N,14005.1791361,E,4,16,0.7,31.839,M,38.037,M,1.0,*75
$GPRMC,200124.00,A,3606.2179960,N,14005.1791387,E,0.02,0.00,060625,0.0,E,D*33
$GPGGA,200124.00,3606.2179960,N,14005.1791387,E,4,16,0.7,31.839,M,38.037,M,2.0,*7C
$GPRMC,200125.00,A,3606.2179990,N,14005.1791390,E,0.01,0.00,060625,0.0,E,D*38
$GPGGA,200125.00,3606.2179990,N,14005.1791390,E,4,16,0.7,31.835,M,38.037,M,3.0,*79
$GPRMC,200126.00,A,3606.2180002,N,14005.1791396,E,0.02,0.00,060625,0.0,E,D*3A
$GPGGA,200126.00,3606.2180002,N,14005.1791396,E,4,16,0.7,31.837,M,38.037,M,4.0,*7D
$GPRMC,200127.00,A,3606.2179964,N,14005.1791395,E,0.01,0.00,060625,0.0,E,D*34
$GPGGA,200127.00,3606.2179964,N,14005.1791395,E,4,16,0.7,31.842,M,38.037,M,0.0,*76
$GPRMC,200128.00,A,3606.2179977,N,14005.1791416,E,0.02,0.00,060625,0.0,E,D*36
$GPGGA,200128.00,3606.2179977,N,14005.1791416,E,4,16,0.7,31.837,M,38.037,M,1.0,*74
$GPRMC,200129.00,A,3606.2179965,N,14005.1791397,E,0.03,0.00,060625,0.0,E,D*3B
$GPGGA,200129.00,3606.2179965,N,14005.1791397,E,4,16,0.7,31.835,M,38.037,M,2.0,*79
$GPRMC,200130.00,A,3606.2179942,N,14005.1791423,E,0.01,0.00,060625,0.0,E,D*3C
$GPGGA,200130.00,3606.2179942,N,14005.1791423,E,4,16,0.7,31.841,M,38.037,M,3.0,*7E
$GPRMC,200131.00,A,3606.2179956,N,14005.1791416,E,0.01,0.00,060625,0.0,E,D*3E
$GPGGA,200131.00,3606.2179956,N,14005.1791416,E,4,16,0.7,31.828,M,38.037,M,4.0,*74
$GPRMC,200132.00,A,3606.2179941,N,14005.1791408,E,0.06,0.00,060625,0.0,E,D*33
$GPGGA,200132.00,3606.2179941,N,14005.1791408,E,4,16,0.7,31.822,M,38.037,M,0.0,*70
$GPRMC,200133.00,A,3606.2179938,N,14005.1791414,E,0.03,0.00,060625,0.0,E,D*34
$GPGGA,200133.00,3606.2179938,N,14005.1791414,E,4,16,0.7,31.823,M,38.037,M,1.0,*72
$GPRMC,200134.00,A,3606.2179932,N,14005.1791414,E,0.02,0.00,060625,0.0,E,D*38
$GPGGA,200134.00,3606.2179932,N,14005.1791414,E,4,16,0.7,31.816,M,38.037,M,2.0,*7A
$GPRMC,200135.00,A,3606.2179931,N,14005.1791412,E,0.01,0.00,060625,0.0,E,D*3F
$GPGGA,200135.00,3606.2179931,N,14005.1791412,E,4,16,0.7,31.818,M,38.037,M,3.0,*71
$GPRMC,200136.00,A,3606.2179930,N,14005.1791420,E,0.03,0.00,060625,0.0,E,D*3E
$GPGGA,200136.00,3606.2179930,N,14005.1791420,E,4,16,0.7,31.820,M,38.037,M,4.0,*7E
$GPRMC,200137.00,A,3606.2179945,N,14005.1791425,E,0.02,0.00,060625,0.0,E,D*39
$GPGGA,200137.00,3606.2179945,N,14005.1791425,E,4,16,0.7,31.824,M,38.037,M,0.0,*78
$GPRMC,200138.00,A,3606.2179952,N,14005.1791419,E,0.02,0.00,060625,0.0,E,D*3F
$GPGGA,200138.00,3606.2179952,N,14005.1791419,E,4,16,0.7,31.820,M,38.037,M,1.0,*7B
$GPRMC,200139.00,A,3606.2179928,N,14005.1791407,E,0.01,0.00,060625,0.0,E,D*3F
$GPGGA,200139.00,3606.2179928,N,14005.1791407,E,4,16,0.7,31.823,M,38.037,M,2.0,*78
$GPRMC,200140.00,A,3606.2179943,N,14005.1791415,E,0.02,0.00,060625,0.0,E,D*3C
$GPGGA,200140.00,3606.2179943,N,14005.1791415,E,4,16,0.7,31.816,M,38.037,M,3.0,*7F
$GPRMC,200141.00,A,3606.2179952,N,14005.1791407,E,0.02,0.00,060625,0.0,E,D*3E
$GPGGA,200141.00,3606.2179952,N,14005.1791407,E,4,16,0.7,31.817,M,38.037,M,4.0,*7B
$GPRMC,200142.00,A,3606.2179950,N,14005.1791439,E,0.02,0.00,060625,0.0,E,D*32
$GPGGA,200142.00,3606.2179950,N,14005.1791439,E,4,16,0.7,31.822,M,38.037,M,0.0,*75
$GPRMC,200143.00,A,3606.2179979,N,14005.1791426,E,0.04,0.00,060625,0.0,E,D*30
$GPGGA,200143.00,3606.2179979,N,14005.1791426,E,4,16,0.7,31.816,M,38.037,M,1.0,*77
$GPRMC,200144.00,A,3606.2179974,N,14005.1791427,E,0.01,0.00,060625,0.0,E,D*3E
$GPGGA,200144.00,3606.2179974,N,14005.1791427,E,4,16,0.7,31.816,M,38.037,M,2.0,*7F
$GPRMC,200145.00,A,3606.2179951,N,14005.1791411,E,0.02,0.00,060625,0.0,E,D*3E
$GPGGA,200145.00,3606.2179951,N,14005.1791411,E,4,16,0.7,31.826,M,38.037,M,3.0,*7E
$GPRMC,200146.00,A,3606.2179958,N,14005.1791418,E,0.02,0.00,060625,0.0,E,D*3D
$GPGGA,200146.00,3606.2179958,N,14005.1791418,E,4,16,0.7,31.820,M,38.037,M,4.0,*7C
$GPRMC,200147.00,A,3606.2179973,N,14005.1791423,E,0.02,0.00,060625,0.0,E,D*3D
$GPGGA,200147.00,3606.2179973,N,14005.1791423,E,4,16,0.7,31.816,M,38.037,M,0.0,*7D
$GPRMC,200148.00,A,3606.2179977,N,14005.1791441,E,0.01,0.00,060625,0.0,E,D*31
$GPGGA,200148.00,3606.2179977,N,14005.1791441,E,4,16,0.7,31.816,M,38.037,M,1.0,*73
$GPRMC,200149.00,A,3606.2179965,N,14005.1791426,E,0.01,0.00,060625,0.0,E,D*32
$GPGGA,200149.00,3606.2179965,N,14005.1791426,E,4,16,0.7,31.815,M,38.037,M,2.0,*70
$GPRMC,200150.00,A,3606.2179989,N,14005.1791436,E,0.02,0.00,060625,0.0,E,D*3A
$GPGGA,200150.00,3606.2179989,N,14005.1791436,E,4,16,0.7,31.815,M,38.037,M,3.0,*7A
$GPRMC,200151.00,A,3606.2179984,N,14005.1791441,E,0.01,0.00,060625,0.0,E,D*35
$GPGGA,200151.00,3606.2179984,N,14005.1791441,E,4,16,0.7,31.816,M,38.037,M,4.0,*72
$GPRMC,200152.00,A,3606.2179970,N,14005.1791427,E,0.01,0.00,060625,0.0,E,D*3D
$GPGGA,200152.00,3606.2179970,N,14005.1791427,E,4,16,0.7,31.821,M,38.037,M,0.0,*7A
$GPRMC,200153.00,A,3606.2180001,N,14005.1791417,E,0.01,0.00,060625,0.0,E,D*36
$GPGGA,200153.00,3606.2180001,N,14005.1791417,E,4,16,0.7,31.819,M,38.037,M,1.0,*7B
$GPRMC,200154.00,A,3606.2180009,N,14005.1791435,E,0.02,0.00,060625,0.0,E,D*3A
$GPGGA,200154.00,3606.2180009,N,14005.1791435,E,4,16,0.7,31.817,M,38.037,M,2.0,*79
$GPRMC,200155.00,A,3606.2179996,N,14005.1791434,E,0.02,0.00,060625,0.0,E,D*33
$GPGGA,200155.00,3606.2179996,N,14005.1791434,E,4,16,0.7,31.816,M,38.037,M,3.0,*70
$GPRMC,200156.00,A,3606.2179979,N,14005.1791422,E,0.01,0.00,060625,0.0,E,D*35
$GPGGA,200156.00,3606.2179979,N,14005.1791422,E,4,16,0.7,31.820,M,38.037,M,4.0,*77
$GPRMC,200157.00,A,3606.2179976,N,14005.1791424,E,0.03,0.00,060625,0.0,E,D*3F
$GPGGA,200157.00,3606.2179976,N,14005.1791424,E,4,18,0.7,31.827,M,38.037,M,0.0,*72
$GPRMC,200158.00,A,3606.2179987,N,14005.1791451,E,0.03,0.00,060625,0.0,E,D*3C
$GPGGA,200158.00,3606.2179987,N,14005.1791451,E,4,18,0.7,31.818,M,38.037,M,1.0,*7C
$GPRMC,200159.00,A,3606.2179978,N,14005.1791438,E,0.01,0.00,060625,0.0,E,D*30
$GPGGA,200159.00,3606.2179978,N,14005.1791438,E,4,18,0.7,31.825,M,38.037,M,2.0,*7F
$GPRMC,200200.00,A,3606.2179992,N,14005.1791429,E,0.02,0.00,060625,0.0,E,D*38
$GPGGA,200200.00,3606.2179992,N,14005.1791429,E,4,18,0.7,31.824,M,38.037,M,3.0,*74
$GPRMC,200201.00,A,3606.2179999,N,14005.1791444,E,0.01,0.00,060625,0.0,E,D*3A
$GPGGA,200201.00,3606.2179999,N,14005.1791444,E,4,18,0.7,31.820,M,38.037,M,4.0,*76
$GPRMC,200202.00,A,3606.2179968,N,14005.1791434,E,0.00,0.00,060625,0.0,E,D*31
$GPGGA,200202.00,3606.2179968,N,14005.1791434,E,4,18,0.7,31.823,M,38.037,M,0.0,*7B
$GPRMC,200203.00,A,3606.2179973,N,14005.1791435,E,0.03,0.00,060625,0.0,E,D*38
$GPGGA,200203.00,3606.2179973,N,14005.1791435,E,4,18,0.7,31.822,M,38.037,M,1.0,*71
$GPRMC,200204.00,A,3606.2179962,N,14005.1791440,E,0.01,0.00,060625,0.0,E,D*3F
$GPGGA,200204.00,3606.2179962,N,14005.1791440,E,4,18,0.7,31.823,M,38.037,M,2.0,*76
$GPRMC,200205.00,A,3606.2179971,N,14005.1791454,E,0.01,0.00,060625,0.0,E,D*39
$GPGGA,200205.00,3606.2179971,N,14005.1791454,E,4,18,0.7,31.824,M,38.037,M,3.0,*76
$GPRMC,200206.00,A,3606.2179963,N,14005.1791447,E,0.04,0.00,060625,0.0,E,D*3E
$GPGGA,200206.00,3606.2179963,N,14005.1791447,E,4,18,0.7,31.821,M,38.037,M,4.0,*76
$GPRMC,200207.00,A,3606.2179969,N,14005.1791456,E,0.01,0.00,060625,0.0,E,D*30
$GPGGA,200207.00,3606.2179969,N,14005.1791456,E,4,18,0.7,31.829,M,38.037,M,0.0,*71
$GPRMC,200208.00,A,3606.2179961,N,14005.1791449,E,0.02,0.00,060625,0.0,E,D*3A
$GPGGA,200208.00,3606.2179961,N,14005.1791449,E,4,18,0.7,31.828,M,38.037,M,1.0,*78
$GPRMC,200209.00,A,3606.2179958,N,14005.1791440,E,0.01,0.00,060625,0.0,E,D*3B
$GPGGA,200209.00,3606.2179958,N,14005.1791440,E,4,18,0.7,31.828,M,38.037,M,2.0,*79
$GPRMC,200210.00,A,3606.2179953,N,14005.1791447,E,0.02,0.00,060625,0.0,E,D*3C
$GPGGA,200210.00,3606.2179953,N,14005.1791447,E,4,18,0.7,31.830,M,38.037,M,3.0,*75
$GPRMC,200211.00,A,3606.2179942,N,14005.1791450,E,0.01,0.00,060625,0.0,E,D*38
$GPGGA,200211.00,3606.2179942,N,14005.1791450,E,4,18,0.7,31.834,M,38.037,M,4.0,*71
$GPRMC,200212.00,A,3606.2179945,N,14005.1791447,E,0.02,0.00,060625,0.0,E,D*39
$GPGGA,200212.00,3606.2179945,N,14005.1791447,E,4,18,0.7,31.833,M,38.037,M,0.0,*70
$GPRMC,200213.00,A,3606.2179946,N,14005.1791440,E,0.02,0.00,060625,0.0,E,D*3C
$GPGGA,200213.00,3606.2179946,N,14005.1791440,E,4,18,0.7,31.837,M,38.037,M,1.0,*70
$GPRMC,200214.00,A,3606.2179948,N,14005.1791443,E,0.01,0.00,060625,0.0,E,D*35
$GPGGA,200214.00,3606.2179948,N,14005.1791443,E,4,18,0.7,31.833,M,38.037,M,2.0,*7D
$GPRMC,200215.00,A,3606.2179955,N,14005.1791447,E,0.03,0.00,060625,0.0,E,D*3E
$GPGGA,200215.00,3606.2179955,N,14005.1791447,E,4,18,0.7,31.835,M,38.037,M,3.0,*73
$GPRMC,200216.00,A,3606.2179946,N,14005.1791433,E,0.02,0.00,060625,0.0,E,D*3D
$GPGGA,200216.00,3606.2179946,N,14005.1791433,E,4,18,0.7,31.837,M,38.037,M,4.0,*74
$GPRMC,200217.00,A,3606.2179944,N,14005.1791433,E,0.03,0.00,060625,0.0,E,D*3F
$GPGGA,200217.00,3606.2179944,N,14005.1791433,E,4,18,0.7,31.834,M,38.037,M,0.0,*70
$GPRMC,200218.00,A,3606.2179947,N,14005.1791442,E,0.01,0.00,060625,0.0,E,D*37
$GPGGA,200218.00,3606.2179947,N,14005.1791442,E,4,18,0.7,31.830,M,38.037,M,1.0,*7F
$GPRMC,200219.00,A,3606.2179940,N,14005.1791441,E,0.02,0.00,060625,0.0,E,D*31
$GPGGA,200219.00,3606.2179940,N,14005.1791441,E,4,18,0.7,31.837,M,38.037,M,2.0,*7E
$GPRMC,200220.00,A,3606.2179953,N,14005.1791460,E,0.01,0.00,060625,0.0,E,D*39
$GPGGA,200220.00,3606.2179953,N,14005.1791460,E,4,18,0.7,31.828,M,38.037,M,3.0,*7A
$GPRMC,200221.00,A,3606.2179957,N,14005.1791448,E,0.02,0.00,060625,0.0,E,D*35
$GPGGA,200221.00,3606.2179957,N,14005.1791448,E,4,18,0.7,31.833,M,38.037,M,4.0,*78
$GPRMC,200222.00,A,3606.2179958,N,14005.1791446,E,0.01,0.00,060625,0.0,E,D*34
$GPGGA,200222.00,3606.2179958,N,14005.1791446,E,4,18,0.7,31.828,M,38.037,M,0.0,*74
$GPRMC,200223.00,A,3606.2179936,N,14005.1791446,E,0.01,0.00,060625,0.0,E,D*3D
$GPGGA,200223.00,3606.2179936,N,14005.1791446,E,4,18,0.7,31.827,M,38.037,M,1.0,*73
$GPRMC,200224.00,A,3606.2179929,N,14005.1791451,E,0.02,0.00,060625,0.0,E,D*31
$GPGGA,200224.00,3606.2179929,N,14005.1791451,E,4,18,0.7,31.833,M,38.037,M,2.0,*7A
$GPRMC,200225.00,A,3606.2179949,N,14005.1791459,E,0.02,0.00,060625,0.0,E,D*3E
$GPGGA,200225.00,3606.2179949,N,14005.1791459,E,4,18,0.7,31.828,M,38.037,M,3.0,*7E
$GPRMC,200226.00,A,3606.2179934,N,14005.1791463,E,0.01,0.00,060625,0.0,E,D*3D
$GPGGA,200226.00,3606.2179934,N,14005.1791463,E,4,18,0.7,31.827,M,38.037,M,4.0,*76
$GPRMC,200227.00,A,3606.2179929,N,14005.1791446,E,0.02,0.00,060625,0.0,E,D*34
$GPGGA,200227.00,3606.2179929,N,14005.1791446,E,4,18,0.7,31.838,M,38.037,M,0.0,*76
$GPRMC,200228.00,A,3606.2179942,N,14005.1791448,E,0.01,0.00,060625,0.0,E,D*3B
$GPGGA,200228.00,3606.2179942,N,14005.1791448,E,4,18,0.7,31.834,M,38.037,M,1.0,*77
$GPRMC,200229.00,A,3606.2179942,N,14005.1791440,E,0.03,0.00,060625,0.0,E,D*30
$GPGGA,200229.00,3606.2179942,N,14005.1791440,E,4,18,0.7,31.835,M,38.037,M,2.0,*7C
$GPRMC,200230.00,A,3606.2179921,N,14005.1791433,E,0.03,0.00,060625,0.0,E,D*39
$GPGGA,200230.00,3606.2179921,N,14005.1791433,E,4,18,0.7,31.840,M,38.037,M,3.0,*76
$GPRMC,200231.00,A,3606.2179950,N,14005.1791450,E,0.01,0.00,060625,0.0,E,D*39
$GPGGA,200231.00,3606.2179950,N,14005.1791450,E,4,18,0.7,31.830,M,38.037,M,4.0,*74
$GPRMC,200232.00,A,3606.2179948,N,14005.1791456,E,0.02,0.00,060625,0.0,E,D*36
$GPGGA,200232.00,3606.2179948,N,14005.1791456,E,4,18,0.7,31.832,M,38.037,M,0.0,*7E
$GPRMC,200233.00,A,3606.2179919,N,14005.1791465,E,0.04,0.00,060625,0.0,E,D*35
$GPGGA,200233.00,3606.2179919,N,14005.1791465,E,4,18,0.7,31.837,M,38.037,M,1.0,*7F
$GPRMC,200234.00,A,3606.2179912,N,14005.1791453,E,0.02,0.00,060625,0.0,E,D*3A
$GPGGA,200234.00,3606.2179912,N,14005.1791453,E,4,18,0.7,31.839,M,38.037,M,2.0,*7B
$GPRMC,200235.00,A,3606.2179931,N,14005.1791466,E,0.01,0.00,060625,0.0,E,D*3F
$GPGGA,200235.00,3606.2179931,N,14005.1791466,E,4,18,0.7,31.832,M,38.037,M,3.0,*77
$GPRMC,200236.00,A,3606.2179938,N,14005.1791474,E,0.03,0.00,060625,0.0,E,D*34
$GPGGA,200236.00,3606.2179938,N,14005.1791474,E,4,18,0.7,31.832,M,38.037,M,4.0,*79
$GPRMC,200237.00,A,3606.2179921,N,14005.1791481,E,0.02,0.00,060625,0.0,E,D*36
$GPGGA,200237.00,3606.2179921,N,14005.1791481,E,4,18,0.7,31.838,M,38.037,M,0.0,*74
$GPRMC,200238.00,A,3606.2179936,N,14005.1791469,E,0.04,0.00,060625,0.0,E,D*3F
$GPGGA,200238.00,3606.2179936,N,14005.1791469,E,4,18,0.7,31.837,M,38.037,M,1.0,*75
$GPRMC,200239.00,A,3606.2179924,N,14005.1791475,E,0.01,0.00,060625,0.0,E,D*35
$GPGGA,200239.00,3606.2179924,N,14005.1791475,E,4,18,0.7,31.832,M,38.037,M,2.0,*7C
$GPRMC,200240.00,A,3606.2179906,N,14005.1791470,E,0.01,0.00,060625,0.0,E,D*3E
$GPGGA,200240.00,3606.2179906,N,14005.1791470,E,4,18,0.7,31.835,M,38.037,M,3.0,*71
$GPRMC,200241.00,A,3606.2179901,N,14005.1791462,E,0.02,0.00,060625,0.0,E,D*38
$GPGGA,200241.00,3606.2179901,N,14005.1791462,E,4,18,0.7,31.841,M,38.037,M,4.0,*70
$GPRMC,200242.00,A,3606.2179924,N,14005.1791468,E,0.02,0.00,060625,0.0,E,D*36
$GPGGA,200242.00,3606.2179924,N,14005.1791468,E,4,18,0.7,31.828,M,38.037,M,0.0,*75
$GPRMC,200243.00,A,3606.2179934,N,14005.1791482,E,0.04,0.00,060625,0.0,E,D*34
$GPGGA,200243.00,3606.2179934,N,14005.1791482,E,4,18,0.7,31.828,M,38.037,M,1.0,*70
$GPRMC,200244.00,A,3606.2179910,N,14005.1791482,E,0.02,0.00,060625,0.0,E,D*33
$GPGGA,200244.00,3606.2179910,N,14005.1791482,E,4,18,0.7,31.829,M,38.037,M,2.0,*73
$GPRMC,200245.00,A,3606.2179919,N,14005.1791465,E,0.03,0.00,060625,0.0,E,D*33
$GPGGA,200245.00,3606.2179919,N,14005.1791465,E,4,18,0.7,31.827,M,38.037,M,3.0,*7D
$GPRMC,200246.00,A,3606.2179922,N,14005.1791489,E,0.01,0.00,060625,0.0,E,D*38
$GPGGA,200246.00,3606.2179922,N,14005.1791489,E,4,18,0.7,31.820,M,38.037,M,4.0,*74
$GPRMC,200247.00,A,3606.2179908,N,14005.1791484,E,0.04,0.00,060625,0.0,E,D*39
$GPGGA,200247.00,3606.2179908,N,14005.1791484,E,4,18,0.7,31.826,M,38.037,M,0.0,*72
$GPRMC,200248.00,A,3606.2179922,N,14005.1791481,E,0.01,0.00,060625,0.0,E,D*3E
$GPGGA,200248.00,3606.2179922,N,14005.1791481,E,4,18,0.7,31.827,M,38.037,M,1.0,*70
$GPRMC,200249.00,A,3606.2179919,N,14005.1791462,E,0.01,0.00,060625,0.0,E,D*3A
$GPGGA,200249.00,3606.2179919,N,14005.1791462,E,4,18,0.7,31.823,M,38.037,M,2.0,*73
$GPRMC,200250.00,A,3606.2179925,N,14005.1791463,E,0.03,0.00,060625,0.0,E,D*3E
$GPGGA,200250.00,3606.2179925,N,14005.1791463,E,4,18,0.7,31.819,M,38.037,M,3.0,*7D
$GPRMC,200251.00,A,3606.2179923,N,14005.1791458,E,0.02,0.00,060625,0.0,E,D*30
$GPGGA,200251.00,3606.2179923,N,14005.1791458,E,4,18,0.7,31.823,M,38.037,M,4.0,*7C
$GPRMC,200252.00,A,3606.2179915,N,14005.1791455,E,0.02,0.00,060625,0.0,E,D*3B
$GPGGA,200252.00,3606.2179915,N,14005.1791455,E,4,18,0.7,31.826,M,38.037,M,0.0,*76
$GPRMC,200253.00,A,3606.2179956,N,14005.1791471,E,0.01,0.00,060625,0.0,E,D*38
$GPGGA,200253.00,3606.2179956,N,14005.1791471,E,4,18,0.7,31.816,M,38.037,M,1.0,*74
$GPRMC,200254.00,A,3606.2179928,N,14005.1791444,E,0.01,0.00,060625,0.0,E,D*30
$GPGGA,200254.00,3606.2179928,N,14005.1791444,E,4,18,0.7,31.822,M,38.037,M,2.0,*78
$GPRMC,200255.00,A,3606.2179951,N,14005.1791452,E,0.01,0.00,060625,0.0,E,D*38
$GPGGA,200255.00,3606.2179951,N,14005.1791452,E,4,18,0.7,31.814,M,38.037,M,3.0,*74
$GPRMC,200256.00,A,3606.2179931,N,14005.1791454,E,0.02,0.00,060625,0.0,E,D*38
$GPGGA,200256.00,3606.2179931,N,14005.1791454,E,4,18,0.7,31.821,M,38.037,M,4.0,*76
$GPRMC,200257.00,A,3606.2179962,N,14005.1791452,E,0.01,0.00,060625,0.0,E,D*3A
$GPGGA,200257.00,3606.2179962,N,14005.1791452,E,4,18,0.7,31.828,M,38.037,M,0.0,*7A
$GPRMC,200258.00,A,3606.2179960,N,14005.1791431,E,0.02,0.00,060625,0.0,E,D*31
$GPGGA,200258.00,3606.2179960,N,14005.1791431,E,4,18,0.7,31.831,M,38.037,M,1.0,*7B
$GPRMC,200259.00,A,3606.2179980,N,14005.1791449,E,0.01,0.00,060625,0.0,E,D*32
$GPGGA,200259.00,3606.2179980,N,14005.1791449,E,4,18,0.7,31.829,M,38.037,M,2.0,*71
$GPRMC,200300.00,A,3606.2179967,N,14005.1791437,E,0.02,0.00,060625,0.0,E,D*3C
$GPGGA,200300.00,3606.2179967,N,14005.1791437,E,4,18,0.7,31.829,M,38.037,M,3.0,*7D
$GPRMC,200301.00,A,3606.2179944,N,14005.1791457,E,0.01,0.00,060625,0.0,E,D*39
$GPGGA,200301.00,3606.2179944,N,14005.1791457,E,4,18,0.7,31.833,M,38.037,M,4.0,*77
$GPRMC,200302.00,A,3606.2179958,N,14005.1791432,E,0.01,0.00,060625,0.0,E,D*34
$GPGGA,200302.00,3606.2179958,N,14005.1791432,E,4,18,0.7,31.835,M,38.037,M,0.0,*78
$GPRMC,200303.00,A,3606.2179969,N,14005.1791424,E,0.02,0.00,060625,0.0,E,D*33
$GPGGA,200303.00,3606.2179969,N,14005.1791424,E,4,18,0.7,31.834,M,38.037,M,1.0,*7C
$GPRMC,200304.00,A,3606.2179966,N,14005.1791419,E,0.02,0.00,060625,0.0,E,D*35
$GPGGA,200304.00,3606.2179966,N,14005.1791419,E,4,18,0.7,31.833,M,38.037,M,2.0,*7E
$GPRMC,200305.00,A,3606.2179955,N,14005.1791408,E,0.02,0.00,060625,0.0,E,D*34
$GPGGA,200305.00,3606.2179955,N,14005.1791408,E,4,18,0.7,31.836,M,38.037,M,3.0,*7B
$GPRMC,200306.00,A,3606.2179976,N,14005.1791425,E,0.01,0.00,060625,0.0,E,D*3A
$GPGGA,200306.00,3606.2179976,N,14005.1791425,E,4,18,0.7,31.836,M,38.037,M,4.0,*71
$GPRMC,200307.00,A,3606.2179956,N,14005.1791437,E,0.01,0.00,060625,0.0,E,D*3A
$GPGGA,200307.00,3606.2179956,N,14005.1791437,E,4,18,0.7,31.837,M,38.037,M,0.0,*74
$GPRMC,200308.00,A,3606.2179979,N,14005.1791427,E,0.01,0.00,060625,0.0,E,D*39
$GPGGA,200308.00,3606.2179979,N,14005.1791427,E,4,18,0.7,31.834,M,38.037,M,1.0,*75
$GPRMC,200309.00,A,3606.2179979,N,14005.1791428,E,0.02,0.00,060625,0.0,E,D*34
$GPGGA,200309.00,3606.2179979,N,14005.1791428,E,4,18,0.7,31.832,M,38.037,M,2.0,*7E
$GPRMC,200310.00,A,3606.2179992,N,14005.1791452,E,0.02,0.00,060625,0.0,E,D*34
$GPGGA,200310.00,3606.2179992,N,14005.1791452,E,4,18,0.7,31.825,M,38.037,M,3.0,*79
$GPRMC,200311.00,A,3606.2179965,N,14005.1791438,E,0.03,0.00,060625,0.0,E,D*30
$GPGGA,200311.00,3606.2179965,N,14005.1791438,E,4,18,0.7,31.834,M,38.037,M,4.0,*7B
$GPRMC,200312.00,A,3606.2179984,N,14005.1791427,E,0.01,0.00,060625,0.0,E,D*30
$GPGGA,200312.00,3606.2179984,N,14005.1791427,E,4,18,0.7,31.839,M,38.037,M,0.0,*70
$GPRMC,200313.00,A,3606.2179972,N,14005.1791445,E,0.02,0.00,060625,0.0,E,D*3F
$GPGGA,200313.00,3606.2179972,N,14005.1791445,E,4,18,0.7,31.836,M,38.037,M,1.0,*72
$GPRMC,200314.00,A,3606.2179985,N,14005.1791437,E,0.01,0.00,060625,0.0,E,D*36
$GPGGA,200314.00,3606.2179985,N,14005.1791437,E,4,18,0.7,31.829,M,38.037,M,2.0,*75
$GPRMC,200315.00,A,3606.2179996,N,14005.1791441,E,0.03,0.00,060625,0.0,E,D*36
$GPGGA,200315.00,3606.2179996,N,14005.1791441,E,4,18,0.7,31.832,M,38.037,M,3.0,*7C
$GPRMC,200316.00,A,3606.2179988,N,14005.1791439,E,0.02,0.00,060625,0.0,E,D*34
$GPGGA,200316.00,3606.2179988,N,14005.1791439,E,4,18,0.7,31.840,M,38.037,M,4.0,*7D
$GPRMC,200317.00,A,3606.2179982,N,14005.1791456,E,0.01,0.00,060625,0.0,E,D*35
$GPGGA,200317.00,3606.2179982,N,14005.1791456,E,4,18,0.7,31.832,M,38.037,M,0.0,*7E
$GPRMC,200318.00,A,3606.2179985,N,14005.1791467,E,0.03,0.00,060625,0.0,E,D*3D
$GPGGA,200318.00,3606.2179985,N,14005.1791467,E,4,18,0.7,31.823,M,38.037,M,1.0,*75
$GPRMC,200319.00,A,3606.2179974,N,14005.1791467,E,0.03,0.00,060625,0.0,E,D*32
$GPGGA,200319.00,3606.2179974,N,14005.1791467,E,4,18,0.7,31.833,M,38.037,M,2.0,*78
$GPRMC,200320.00,A,3606.2179965,N,14005.1791456,E,0.02,0.00,060625,0.0,E,D*3B
$GPGGA,200320.00,3606.2179965,N,14005.1791456,E,4,18,0.7,31.833,M,38.037,M,3.0,*71
$GPRMC,200321.00,A,3606.2179977,N,14005.1791468,E,0.02,0.00,060625,0.0,E,D*34
$GPGGA,200321.00,3606.2179977,N,14005.1791468,E,4,18,0.7,31.829,M,38.037,M,4.0,*72
$GPRMC,200322.00,A,3606.2179953,N,14005.1791436,E,0.02,0.00,060625,0.0,E,D*3A
$GPGGA,200322.00,3606.2179953,N,14005.1791436,E,4,18,0.7,31.829,M,38.037,M,0.0,*78
$GPRMC,200323.00,A,3606.2179990,N,14005.1791461,E,0.02,0.00,060625,0.0,E,D*36
$GPGGA,200323.00,3606.2179990,N,14005.1791461,E,4,18,0.7,31.832,M,38.037,M,1.0,*7F
$GPRMC,200324.00,A,3606.2179996,N,14005.1791423,E,0.02,0.00,060625,0.0,E,D*31
$GPGGA,200324.00,3606.2179996,N,14005.1791423,E,4,18,0.7,31.834,M,38.037,M,2.0,*7D
$GPRMC,200325.00,A,3606.2179991,N,14005.1791438,E,0.04,0.00,060625,0.0,E,D*3B
$GPGGA,200325.00,3606.2179991,N,14005.1791438,E,4,18,0.7,31.832,M,38.037,M,3.0,*76
$GPRMC,200326.00,A,3606.2179972,N,14005.1791456,E,0.01,0.00,060625,0.0,E,D*38
$GPGGA,200326.00,3606.2179972,N,14005.1791456,E,4,18,0.7,31.832,M,38.037,M,4.0,*77
$GPRMC,200327.00,A,3606.2179970,N,14005.1791470,E,0.03,0.00,060625,0.0,E,D*3D
$GPGGA,200327.00,3606.2179970,N,14005.1791470,E,4,18,0.7,31.824,M,38.037,M,0.0,*73
$GPRMC,200328.00,A,3606.2179980,N,14005.1791487,E,0.02,0.00,060625,0.0,E,D*34
$GPGGA,200328.00,3606.2179980,N,14005.1791487,E,4,18,0.7,31.824,M,38.037,M,1.0,*7A
$GPRMC,200329.00,A,3606.2179983,N,14005.1791463,E,0.01,0.00,060625,0.0,E,D*3F
$GPGGA,200329.00,3606.2179983,N,14005.1791463,E,4,18,0.7,31.833,M,38.037,M,2.0,*77
$GPRMC,200330.00,A,3606.2179982,N,14005.1791473,E,0.04,0.00,060625,0.0,E,D*32
$GPGGA,200330.00,3606.2179982,N,14005.1791473,E,4,18,0.7,31.835,M,38.037,M,3.0,*78
$GPRMC,200331.00,A,3606.2180006,N,14005.1791487,E,0.03,0.00,060625,0.0,E,D*3C
$GPGGA,200331.00,3606.2180006,N,14005.1791487,E,4,18,0.7,31.831,M,38.037,M,4.0,*72
$GPRMC,200332.00,A,3606.2179980,N,14005.1791472,E,0.01,0.00,060625,0.0,E,D*36
$GPGGA,200332.00,3606.2179980,N,14005.1791472,E,4,18,0.7,31.832,M,38.037,M,0.0,*7D
$GPRMC,200333.00,A,3606.2179971,N,14005.1791466,E,0.02,0.00,060625,0.0,E,D*3F
$GPGGA,200333.00,3606.2179971,N,14005.1791466,E,4,18,0.7,31.837,M,38.037,M,1.0,*73
$GPRMC,200334.00,A,3606.2179978,N,14005.1791475,E,0.03,0.00,060625,0.0,E,D*32
$GPGGA,200334.00,3606.2179978,N,14005.1791475,E,4,18,0.7,31.832,M,38.037,M,2.0,*79
$GPRMC,200335.00,A,3606.2180002,N,14005.1791480,E,0.02,0.00,060625,0.0,E,D*3A
$GPGGA,200335.00,3606.2180002,N,14005.1791480,E,4,18,0.7,31.830,M,38.037,M,3.0,*73
$GPRMC,200336.00,A,3606.2179998,N,14005.1791484,E,0.01,0.00,060625,0.0,E,D*32
$GPGGA,200336.00,3606.2179998,N,14005.1791484,E,4,18,0.7,31.832,M,38.037,M,4.0,*7D
$GPRMC,200337.00,A,3606.2179988,N,14005.1791489,E,0.02,0.00,060625,0.0,E,D*3C
$GPGGA,200337.00,3606.2179988,N,14005.1791489,E,4,18,0.7,31.831,M,38.037,M,0.0,*77
$GPRMC,200338.00,A,3606.2180004,N,14005.1791508,E,0.02,0.00,060625,0.0,E,D*30
$GPGGA,200338.00,3606.2180004,N,14005.1791508,E,4,18,0.7,31.823,M,38.037,M,1.0,*79
$GPRMC,200339.00,A,3606.2179989,N,14005.1791488,E,0.03,0.00,060625,0.0,E,D*33
$GPGGA,200339.00,3606.2179989,N,14005.1791488,E,4,18,0.7,31.834,M,38.037,M,2.0,*7E
$GPRMC,200340.00,A,3606.2180002,N,14005.1791481,E,0.02,0.00,060625,0.0,E,D*39
$GPGGA,200340.00,3606.2180002,N,14005.1791481,E,4,18,0.7,31.830,M,38.037,M,3.0,*70
$GPRMC,200341.00,A,3606.2180011,N,14005.1791491,E,0.02,0.00,060625,0.0,E,D*3B
$GPGGA,200341.00,3606.2180011,N,14005.1791491,E,4,18,0.7,31.828,M,38.037,M,4.0,*7C
$GPRMC,200342.00,A,3606.2180023,N,14005.1791489,E,0.05,0.00,060625,0.0,E,D*37
$GPGGA,200342.00,3606.2180023,N,14005.1791489,E,4,18,0.7,31.834,M,38.037,M,0.0,*7E
$GPRMC,200343.00,A,3606.2180007,N,14005.1791505,E,0.03,0.00,060625,0.0,E,D*33
$GPGGA,200343.00,3606.2180007,N,14005.1791505,E,4,18,0.7,31.836,M,38.037,M,1.0,*7F
$GPRMC,200344.00,A,3606.2180014,N,14005.1791499,E,0.02,0.00,060625,0.0,E,D*33
$GPGGA,200344.00,3606.2180014,N,14005.1791499,E,4,18,0.7,31.833,M,38.037,M,2.0,*78
$GPRMC,200345.00,A,3606.2180006,N,14005.1791517,E,0.01,0.00,060625,0.0,E,D*35
$GPGGA,200345.00,3606.2180006,N,14005.1791517,E,4,18,0.7,31.833,M,38.037,M,3.0,*7C
$GPRMC,200346.00,A,3606.2180024,N,14005.1791518,E,0.03,0.00,060625,0.0,E,D*3B
$GPGGA,200346.00,3606.2180024,N,14005.1791518,E,4,18,0.7,31.832,M,38.037,M,4.0,*76
$GPRMC,200347.00,A,3606.2180017,N,14005.1791493,E,0.02,0.00,060625,0.0,E,D*39
$GPGGA,200347.00,3606.2180017,N,14005.1791493,E,4,18,0.7,31.828,M,38.037,M,0.0,*7A
$GPRMC,200348.00,A,3606.2180009,N,14005.1791515,E,0.02,0.00,060625,0.0,E,D*36
$GPGGA,200348.00,3606.2180009,N,14005.1791515,E,4,18,0.7,31.827,M,38.037,M,1.0,*7B
$GPRMC,200349.00,A,3606.2180018,N,14005.1791507,E,0.02,0.00,060625,0.0,E,D*34
$GPGGA,200349.00,3606.2180018,N,14005.1791507,E,4,18,0.7,31.826,M,38.037,M,2.0,*7B
$GPRMC,200350.00,A,3606.2180012,N,14005.1791509,E,0.02,0.00,060625,0.0,E,D*38
$GPGGA,200350.00,3606.2180012,N,14005.1791509,E,4,18,0.7,31.825,M,38.037,M,3.0,*75
$GPRMC,200351.00,A,3606.2180011,N,14005.1791509,E,0.03,0.00,060625,0.0,E,D*3B
$GPGGA,200351.00,3606.2180011,N,14005.1791509,E,4,18,0.7,31.827,M,38.037,M,4.0,*72
$GPRMC,200352.00,A,3606.2179990,N,14005.1791484,E,0.02,0.00,060625,0.0,E,D*3B
$GPGGA,200352.00,3606.2179990,N,14005.1791484,E,4,18,0.7,31.829,M,38.037,M,0.0,*79
$GPRMC,200353.00,A,3606.2180011,N,14005.1791491,E,0.03,0.00,060625,0.0,E,D*39
$GPGGA,200353.00,3606.2180011,N,14005.1791491,E,4,18,0.7,31.825,M,38.037,M,1.0,*77
$GPRMC,200354.00,A,3606.2180008,N,14005.1791495,E,0.03,0.00,060625,0.0,E,D*32
$GPGGA,200354.00,3606.2180008,N,14005.1791495,E,4,18,0.7,31.829,M,38.037,M,2.0,*73
$GPRMC,200355.00,A,3606.2180011,N,14005.1791485,E,0.01,0.00,060625,0.0,E,D*38
$GPGGA,200355.00,3606.2180011,N,14005.1791485,E,4,18,0.7,31.827,M,38.037,M,3.0,*74
$GPRMC,200356.00,A,3606.2179991,N,14005.1791496,E,0.02,0.00,060625,0.0,E,D*3D
$GPGGA,200356.00,3606.2179991,N,14005.1791496,E,4,18,0.7,31.832,M,38.037,M,4.0,*71
$GPRMC,200357.00,A,3606.2179934,N,14005.1791481,E,0.01,0.00,060625,0.0,E,D*36
$GPGGA,200357.00,3606.2179934,N,14005.1791481,E,4,18,0.7,31.836,M,38.037,M,0.0,*79
$GPRMC,200358.00,A,3606.2179939,N,14005.1791469,E,0.02,0.00,060625,0.0,E,D*31
$GPGGA,200358.00,3606.2179939,N,14005.1791469,E,4,18,0.7,31.831,M,38.037,M,1.0,*7B
$GPRMC,200359.00,A,3606.2179936,N,14005.1791495,E,0.01,0.00,060625,0.0,E,D*3F
$GPGGA,200359.00,3606.2179936,N,14005.1791495,E,4,18,0.7,31.828,M,38.037,M,2.0,*7D
$GPRMC,200400.00,A,3606.2179947,N,14005.1791484,E,0.02,0.00,060625,0.0,E,D*31
$GPGGA,200400.00,3606.2179947,N,14005.1791484,E,4,18,0.7,31.831,M,38.037,M,3.0,*79
$GPRMC,200401.00,A,3606.2179947,N,14005.1791460,E,0.03,0.00,060625,0.0,E,D*3B
$GPGGA,200401.00,3606.2179947,N,14005.1791460,E,4,18,0.7,31.841,M,38.037,M,4.0,*72
$GPRMC,200402.00,A,3606.2179934,N,14005.1791492,E,0.02,0.00,060625,0.0,E,D*30
$GPGGA,200402.00,3606.2179934,N,14005.1791492,E,4,18,0.7,31.833,M,38.037,M,0.0,*79
$GPRMC,200403.00,A,3606.2179950,N,14005.1791465,E,0.01,0.00,060625,0.0,E,D*38
$GPGGA,200403.00,3606.2179950,N,14005.1791465,E,4,18,0.7,31.833,M,38.037,M,1.0,*73
$GPRMC,200404.00,A,3606.2179942,N,14005.1791492,E,0.03,0.00,060625,0.0,E,D*36
$GPGGA,200404.00,3606.2179942,N,14005.1791492,E,4,18,0.7,31.833,M,38.037,M,2.0,*7C
$GPRMC,200405.00,A,3606.2179944,N,14005.1791477,E,0.02,0.00,060625,0.0,E,D*3B
$GPGGA,200405.00,3606.2179944,N,14005.1791477,E,4,18,0.7,31.833,M,38.037,M,3.0,*71
$GPRMC,200406.00,A,3606.2179950,N,14005.1791471,E,0.02,0.00,060625,0.0,E,D*3B
$GPGGA,200406.00,3606.2179950,N,14005.1791471,E,4,18,0.7,31.843,M,38.037,M,4.0,*71
$GPRMC,200407.00,A,3606.2179949,N,14005.1791485,E,0.03,0.00,060625,0.0,E,D*38
$GPGGA,200407.00,3606.2179949,N,14005.1791485,E,4,18,0.7,31.835,M,38.037,M,0.0,*76
$GPRMC,200408.00,A,3606.2179936,N,14005.1791469,E,0.03,0.00,060625,0.0,E,D*3D
$GPGGA,200408.00,3606.2179936,N,14005.1791469,E,4,18,0.7,31.839,M,38.037,M,1.0,*7E
$GPRMC,200409.00,A,3606.2179969,N,14005.1791481,E,0.01,0.00,060625,0.0,E,D*32
$GPGGA,200409.00,3606.2179969,N,14005.1791481,E,4,18,0.7,31.836,M,38.037,M,2.0,*7F
$GPRMC,200410.00,A,3606.2179973,N,14005.1791504,E,0.02,0.00,060625,0.0,E,D*3E
$GPGGA,200410.00,3606.2179973,N,14005.1791504,E,4,18,0.7,31.832,M,38.037,M,3.0,*75
$GPRMC,200411.00,A,3606.2179964,N,14005.1791478,E,0.02,0.00,060625,0.0,E,D*33
$GPGGA,200411.00,3606.2179964,N,14005.1791478,E,4,18,0.7,31.839,M,38.037,M,4.0,*74
$GPRMC,200412.00,A,3606.2179950,N,14005.1791467,E,0.03,0.00,060625,0.0,E,D*38
$GPGGA,200412.00,3606.2179950,N,14005.1791467,E,4,18,0.7,31.842,M,38.037,M,0.0,*76
$GPRMC,200413.00,A,3606.2179951,N,14005.1791482,E,0.02,0.00,060625,0.0,E,D*32
$GPGGA,200413.00,3606.2179951,N,14005.1791482,E,4,18,0.7,31.836,M,38.037,M,1.0,*7F
$GPRMC,200414.00,A,3606.2179965,N,14005.1791472,E,0.01,0.00,060625,0.0,E,D*3E
$GPGGA,200414.00,3606.2179965,N,14005.1791472,E,4,18,0.7,31.841,M,38.037,M,2.0,*73
$GPRMC,200415.00,A,3606.2179961,N,14005.1791480,E,0.01,0.00,060625,0.0,E,D*36
$GPGGA,200415.00,3606.2179961,N,14005.1791480,E,4,18,0.7,31.835,M,38.037,M,3.0,*79
$GPRMC,200416.00,A,3606.2179948,N,14005.1791487,E,0.01,0.00,060625,0.0,E,D*39
$GPGGA,200416.00,3606.2179948,N,14005.1791487,E,4,18,0.7,31.834,M,38.037,M,4.0,*70
$GPRMC,200417.00,A,3606.2180115,N,14005.1791462,E,0.02,0.00,060625,0.0,E,D*36
$GPGGA,200417.00,3606.2180115,N,14005.1791462,E,4,17,0.7,31.804,M,38.037,M,0.0,*74
$GPRMC,200418.00,A,3606.2180040,N,14005.1791477,E,0.02,0.00,060625,0.0,E,D*3C
$GPGGA,200418.00,3606.2180040,N,14005.1791477,E,4,18,0.7,31.802,M,38.037,M,1.0,*76
$GPRMC,200419.00,A,3606.2180029,N,14005.1791490,E,0.01,0.00,060625,0.0,E,D*38
$GPGGA,200419.00,3606.2180029,N,14005.1791490,E,4,18,0.7,31.805,M,38.037,M,2.0,*75
$GPRMC,200420.00,A,3606.2180049,N,14005.1791490,E,0.02,0.00,060625,0.0,E,D*37
$GPGGA,200420.00,3606.2180049,N,14005.1791490,E,4,18,0.7,31.801,M,38.037,M,3.0,*7C
$GPRMC,200421.00,A,3606.2180040,N,14005.1791483,E,0.03,0.00,060625,0.0,E,D*3C
$GPGGA,200421.00,3606.2180040,N,14005.1791483,E,4,18,0.7,31.800,M,38.037,M,4.0,*70
$GPRMC,200422.00,A,3606.2180035,N,14005.1791518,E,0.01,0.00,060625,0.0,E,D*3C
$GPGGA,200422.00,3606.2180035,N,14005.1791518,E,4,18,0.7,31.790,M,38.037,M,0.0,*70
$GPRMC,200423.00,A,3606.2180021,N,14005.1791497,E,0.01,0.00,060625,0.0,E,D*3E
$GPGGA,200423.00,3606.2180021,N,14005.1791497,E,4,18,0.7,31.792,M,38.037,M,1.0,*71
$GPRMC,200424.00,A,3606.2180031,N,14005.1791512,E,0.05,0.00,060625,0.0,E,D*30
$GPGGA,200424.00,3606.2180031,N,14005.1791512,E,4,18,0.7,31.793,M,38.037,M,2.0,*79
$GPRMC,200425.00,A,3606.2180050,N,14005.1791501,E,0.02,0.00,060625,0.0,E,D*33
$GPGGA,200425.00,3606.2180050,N,14005.1791501,E,4,18,0.7,31.789,M,38.037,M,3.0,*77
$GPRMC,200426.00,A,3606.2180046,N,14005.1791511,E,0.03,0.00,060625,0.0,E,D*37
$GPGGA,200426.00,3606.2180046,N,14005.1791511,E,4,18,0.7,31.793,M,38.037,M,4.0,*7E
$GPRMC,200427.00,A,3606.2179960,N,14005.1791525,E,0.02,0.00,060625,0.0,E,D*3B
$GPGGA,200427.00,3606.2179960,N,14005.1791525,E,4,18,0.7,31.814,M,38.037,M,0.0,*77
$GPRMC,200428.00,A,3606.2180010,N,14005.1791511,E,0.03,0.00,060625,0.0,E,D*3A
$GPGGA,200428.00,3606.2180010,N,14005.1791511,E,4,18,0.7,31.810,M,38.037,M,1.0,*72
$GPRMC,200429.00,A,3606.2179992,N,14005.1791520,E,0.01,0.00,060625,0.0,E,D*3E
$GPGGA,200429.00,3606.2179992,N,14005.1791520,E,4,18,0.7,31.811,M,38.037,M,2.0,*76
$GPRMC,200430.00,A,3606.2179991,N,14005.1791515,E,0.04,0.00,060625,0.0,E,D*36
$GPGGA,200430.00,3606.2179991,N,14005.1791515,E,4,18,0.7,31.816,M,38.037,M,3.0,*7D
$GPRMC,200431.00,A,3606.2179982,N,14005.1791513,E,0.03,0.00,060625,0.0,E,D*34
$GPGGA,200431.00,3606.2179982,N,14005.1791513,E,4,18,0.7,31.815,M,38.037,M,4.0,*7C
$GPRMC,200432.00,A,3606.2179982,N,14005.1791504,E,0.03,0.00,060625,0.0,E,D*31
$GPGGA,200432.00,3606.2179982,N,14005.1791504,E,4,18,0.7,31.812,M,38.037,M,0.0,*7A
$GPRMC,200433.00,A,3606.2179976,N,14005.1791522,E,0.02,0.00,060625,0.0,E,D*3E
$GPGGA,200433.00,3606.2179976,N,14005.1791522,E,4,18,0.7,31.805,M,38.037,M,1.0,*73
$GPRMC,200434.00,A,3606.2179962,N,14005.1791507,E,0.01,0.00,060625,0.0,E,D*38
$GPGGA,200434.00,3606.2179962,N,14005.1791507,E,4,18,0.7,31.810,M,38.037,M,2.0,*71
$GPRMC,200435.00,A,3606.2179975,N,14005.1791526,E,0.01,0.00,060625,0.0,E,D*3C
$GPGGA,200435.00,3606.2179975,N,14005.1791526,E,4,18,0.7,31.808,M,38.037,M,3.0,*7D
$GPRMC,200436.00,A,3606.2179959,N,14005.1791513,E,0.01,0.00,060625,0.0,E,D*37
$GPGGA,200436.00,3606.2179959,N,14005.1791513,E,4,18,0.7,31.808,M,38.037,M,4.0,*71
$GPRMC,200437.00,A,3606.2179938,N,14005.1791501,E,0.02,0.00,060625,0.0,E,D*31
$GPGGA,200437.00,3606.2179938,N,14005.1791501,E,4,18,0.7,31.812,M,38.037,M,0.0,*7B
$GPRMC,200438.00,A,3606.2179950,N,14005.1791499,E,0.01,0.00,060625,0.0,E,D*33
$GPGGA,200438.00,3606.2179950,N,14005.1791499,E,4,18,0.7,31.810,M,38.037,M,1.0,*79
$GPRMC,200439.00,A,3606.2179962,N,14005.1791535,E,0.03,0.00,060625,0.0,E,D*36
$GPGGA,200439.00,3606.2179962,N,14005.1791535,E,4,18,0.7,31.807,M,38.037,M,2.0,*7B
$GPRMC,200440.00,A,3606.2179957,N,14005.1791518,E,0.01,0.00,060625,0.0,E,D*33
$GPGGA,200440.00,3606.2179957,N,14005.1791518,E,4,18,0.7,31.808,M,38.037,M,3.0,*72
$GPRMC,200441.00,A,3606.2179934,N,14005.1791506,E,0.01,0.00,060625,0.0,E,D*38
$GPGGA,200441.00,3606.2179934,N,14005.1791506,E,4,18,0.7,31.814,M,38.037,M,4.0,*73
$GPRMC,200442.00,A,3606.2179949,N,14005.1791519,E,0.02,0.00,060625,0.0,E,D*3C
$GPGGA,200442.00,3606.2179949,N,14005.1791519,E,4,18,0.7,31.810,M,38.037,M,0.0,*74
$GPRMC,200443.00,A,3606.2179934,N,14005.1791532,E,0.01,0.00,060625,0.0,E,D*3D
$GPGGA,200443.00,3606.2179934,N,14005.1791532,E,4,18,0.7,31.814,M,38.037,M,1.0,*73
$GPRMC,200444.00,A,3606.2179958,N,14005.1791533,E,0.03,0.00,060625,0.0,E,D*33
$GPGGA,200444.00,3606.2179958,N,14005.1791533,E,4,18,0.7,31.810,M,38.037,M,2.0,*78
$GPRMC,200445.00,A,3606.2179956,N,14005.1791523,E,0.01,0.00,060625,0.0,E,D*3F
$GPGGA,200445.00,3606.2179956,N,14005.1791523,E,4,18,0.7,31.813,M,38.037,M,3.0,*74
$GPRMC,200446.00,A,3606.2179968,N,14005.1791522,E,0.04,0.00,060625,0.0,E,D*35
$GPGGA,200446.00,3606.2179968,N,14005.1791522,E,4,18,0.7,31.809,M,38.037,M,4.0,*77
$GPRMC,200447.00,A,3606.2179978,N,14005.1791531,E,0.02,0.00,060625,0.0,E,D*31
$GPGGA,200447.00,3606.2179978,N,14005.1791531,E,4,18,0.7,31.813,M,38.037,M,0.0,*7A
$GPRMC,200448.00,A,3606.2179952,N,14005.1791512,E,0.04,0.00,060625,0.0,E,D*31
$GPGGA,200448.00,3606.2179952,N,14005.1791512,E,4,18,0.7,31.814,M,38.037,M,1.0,*7A
$GPRMC,200449.00,A,3606.2179954,N,14005.1791518,E,0.01,0.00,060625,0.0,E,D*39
$GPGGA,200449.00,3606.2179954,N,14005.1791518,E,4,18,0.7,31.813,M,38.037,M,2.0,*73
$GPRMC,200450.00,A,3606.2179950,N,14005.1791519,E,0.01,0.00,060625,0.0,E,D*34
$GPGGA,200450.00,3606.2179950,N,14005.1791519,E,4,18,0.7,31.813,M,38.037,M,3.0,*7F
$GPRMC,200451.00,A,3606.2179966,N,14005.1791525,E,0.01,0.00,060625,0.0,E,D*3F
$GPGGA,200451.00,3606.2179966,N,14005.1791525,E,4,18,0.7,31.812,M,38.037,M,4.0,*72
$GPRMC,200452.00,A,3606.2179972,N,14005.1791521,E,0.01,0.00,060625,0.0,E,D*3D
$GPGGA,200452.00,3606.2179972,N,14005.1791521,E,4,18,0.7,31.815,M,38.037,M,0.0,*73
$GPRMC,200453.00,A,3606.2179968,N,14005.1791527,E,0.01,0.00,060625,0.0,E,D*31
$GPGGA,200453.00,3606.2179968,N,14005.1791527,E,4,18,0.7,31.814,M,38.037,M,1.0,*7F
$GPRMC,200454.00,A,3606.2179961,N,14005.1791541,E,0.03,0.00,060625,0.0,E,D*3D
$GPGGA,200454.00,3606.2179961,N,14005.1791541,E,4,18,0.7,31.816,M,38.037,M,2.0,*70
$GPRMC,200455.00,A,3606.2179947,N,14005.1791539,E,0.01,0.00,060625,0.0,E,D*35
$GPGGA,200455.00,3606.2179947,N,14005.1791539,E,4,18,0.7,31.813,M,38.037,M,3.0,*7E
$GPRMC,200456.00,A,3606.2179949,N,14005.1791532,E,0.02,0.00,060625,0.0,E,D*30
$GPGGA,200456.00,3606.2179949,N,14005.1791532,E,4,18,0.7,31.810,M,38.037,M,4.0,*7C
$GPRMC,200457.00,A,3606.2179942,N,14005.1791515,E,0.01,0.00,060625,0.0,E,D*3C
$GPGGA,200457.00,3606.2179942,N,14005.1791515,E,4,18,0.7,31.822,M,38.037,M,0.0,*76
$GPRMC,200458.00,A,3606.2179934,N,14005.1791526,E,0.02,0.00,060625,0.0,E,D*31
$GPGGA,200458.00,3606.2179934,N,14005.1791526,E,4,18,0.7,31.821,M,38.037,M,1.0,*7A
$GPRMC,200459.00,A,3606.2179918,N,14005.1791500,E,0.01,0.00,060625,0.0,E,D*39
$GPGGA,200459.00,3606.2179918,N,14005.1791500,E,4,18,0.7,31.821,M,38.037,M,2.0,*72
$GPRMC,200500.00,A,3606.2179909,N,14005.1791521,E,0.02,0.00,060625,0.0,E,D*34
$GPGGA,200500.00,3606.2179909,N,14005.1791521,E,4,18,0.7,31.828,M,38.037,M,3.0,*74
$GPRMC,200501.00,A,3606.2179894,N,14005.1791525,E,0.02,0.00,060625,0.0,E,D*34
$GPGGA,200501.00,3606.2179894,N,14005.1791525,E,4,18,0.7,31.828,M,38.037,M,4.0,*73
$GPRMC,200502.00,A,3606.2179895,N,14005.1791517,E,0.01,0.00,060625,0.0,E,D*34
$GPGGA,200502.00,3606.2179895,N,14005.1791517,E,4,18,0.7,31.828,M,38.037,M,0.0,*74
$GPRMC,200503.00,A,3606.2179894,N,14005.1791503,E,0.02,0.00,060625,0.0,E,D*32
$GPGGA,200503.00,3606.2179894,N,14005.1791503,E,4,18,0.7,31.831,M,38.037,M,1.0,*78
$GPRMC,200504.00,A,3606.2179890,N,14005.1791509,E,0.03,0.00,060625,0.0,E,D*3A
$GPGGA,200504.00,3606.2179890,N,14005.1791509,E,4,18,0.7,31.835,M,38.037,M,2.0,*76
$GPRMC,200505.00,A,3606.2179882,N,14005.1791517,E,0.01,0.00,060625,0.0,E,D*35
$GPGGA,200505.00,3606.2179882,N,14005.1791517,E,4,18,0.7,31.840,M,38.037,M,3.0,*78
$GPRMC,200506.00,A,3606.2179887,N,14005.1791531,E,0.01,0.00,060625,0.0,E,D*37
$GPGGA,200506.00,3606.2179887,N,14005.1791531,E,4,18,0.7,31.839,M,38.037,M,4.0,*73
$GPRMC,200507.00,A,3606.2179887,N,14005.1791515,E,0.01,0.00,060625,0.0,E,D*30
$GPGGA,200507.00,3606.2179887,N,14005.1791515,E,4,18,0.7,31.842,M,38.037,M,0.0,*7C
$GPRMC,200508.00,A,3606.2179879,N,14005.1791515,E,0.02,0.00,060625,0.0,E,D*3D
$GPGGA,200508.00,3606.2179879,N,14005.1791515,E,4,18,0.7,31.844,M,38.037,M,1.0,*75
$GPRMC,200509.00,A,3606.2179908,N,14005.1791540,E,0.01,0.00,060625,0.0,E,D*38
$GPGGA,200509.00,3606.2179908,N,14005.1791540,E,4,18,0.7,31.843,M,38.037,M,2.0,*77
$GPRMC,200510.00,A,3606.2179897,N,14005.1791539,E,0.02,0.00,060625,0.0,E,D*3A
$GPGGA,200510.00,3606.2179897,N,14005.1791539,E,4,18,0.7,31.842,M,38.037,M,3.0,*76
$GPRMC,200511.00,A,3606.2179911,N,14005.1791527,E,0.02,0.00,060625,0.0,E,D*3B
$GPGGA,200511.00,3606.2179911,N,14005.1791527,E,4,18,0.7,31.842,M,38.037,M,4.0,*70
$GPRMC,200512.00,A,3606.2179899,N,14005.1791528,E,0.01,0.00,060625,0.0,E,D*35
$GPGGA,200512.00,3606.2179899,N,14005.1791528,E,4,18,0.7,31.842,M,38.037,M,0.0,*79
$GPRMC,200513.00,A,3606.2179895,N,14005.1791523,E,0.01,0.00,060625,0.0,E,D*33
$GPGGA,200513.00,3606.2179895,N,14005.1791523,E,4,18,0.7,31.852,M,38.037,M,1.0,*7F
$GPRMC,200514.00,A,3606.2179900,N,14005.1791541,E,0.01,0.00,060625,0.0,E,D*3D
$GPGGA,200514.00,3606.2179900,N,14005.1791541,E,4,18,0.7,31.845,M,38.037,M,2.0,*74
$GPRMC,200515.00,A,3606.2179906,N,14005.1791531,E,0.01,0.00,060625,0.0,E,D*3D
$GPGGA,200515.00,3606.2179906,N,14005.1791531,E,4,18,0.7,31.840,M,38.037,M,3.0,*70
$GPRMC,200516.00,A,3606.2179908,N,14005.1791552,E,0.02,0.00,060625,0.0,E,D*36
$GPGGA,200516.00,3606.2179908,N,14005.1791552,E,4,18,0.7,31.843,M,38.037,M,4.0,*7C
$GPRMC,200517.00,A,3606.2179907,N,14005.1791541,E,0.02,0.00,060625,0.0,E,D*3A
$GPGGA,200517.00,3606.2179907,N,14005.1791541,E,4,18,0.7,31.843,M,38.037,M,0.0,*74
$GPRMC,200518.00,A,3606.2179889,N,14005.1791521,E,0.02,0.00,060625,0.0,E,D*34
$GPGGA,200518.00,3606.2179889,N,14005.1791521,E,4,18,0.7,31.848,M,38.037,M,1.0,*70
$GPRMC,200519.00,A,3606.2179907,N,14005.1791534,E,0.01,0.00,060625,0.0,E,D*35
$GPGGA,200519.00,3606.2179907,N,14005.1791534,E,4,18,0.7,31.845,M,38.037,M,2.0,*7C
$GPRMC,200520.00,A,3606.2179885,N,14005.1791519,E,0.03,0.00,060625,0.0,E,D*39
$GPGGA,200520.00,3606.2179885,N,14005.1791519,E,4,18,0.7,31.848,M,38.037,M,3.0,*7E
$GPRMC,200521.00,A,3606.2179909,N,14005.1791532,E,0.02,0.00,060625,0.0,E,D*35
$GPGGA,200521.00,3606.2179909,N,14005.1791532,E,4,18,0.7,31.849,M,38.037,M,4.0,*75
$GPRMC,200522.00,A,3606.2179902,N,14005.1791561,E,0.02,0.00,060625,0.0,E,D*3B
$GPGGA,200522.00,3606.2179902,N,14005.1791561,E,4,18,0.7,31.837,M,38.037,M,0.0,*76
$GPRMC,200523.00,A,3606.2179885,N,14005.1791545,E,0.02,0.00,060625,0.0,E,D*32
$GPGGA,200523.00,3606.2179885,N,14005.1791545,E,4,18,0.7,31.841,M,38.037,M,1.0,*7F
$GPRMC,200524.00,A,3606.2179871,N,14005.1791550,E,0.03,0.00,060625,0.0,E,D*3B
$GPGGA,200524.00,3606.2179871,N,14005.1791550,E,4,18,0.7,31.849,M,38.037,M,2.0,*7C
$GPRMC,200525.00,A,3606.2179883,N,14005.1791535,E,0.03,0.00,060625,0.0,E,D*34
$GPGGA,200525.00,3606.2179883,N,14005.1791535,E,4,18,0.7,31.845,M,38.037,M,3.0,*7E
$GPRMC,200526.00,A,3606.2179902,N,14005.1791543,E,0.02,0.00,060625,0.0,E,D*3F
$GPGGA,200526.00,3606.2179902,N,14005.1791543,E,4,18,0.7,31.842,M,38.037,M,4.0,*74
$GPRMC,200527.00,A,3606.2179868,N,14005.1791573,E,0.04,0.00,060625,0.0,E,D*36
$GPGGA,200527.00,3606.2179868,N,14005.1791573,E,4,18,0.7,31.837,M,38.037,M,0.0,*7D
$GPRMC,200528.00,A,3606.2179856,N,14005.1791580,E,0.02,0.00,060625,0.0,E,D*3E
$GPGGA,200528.00,3606.2179856,N,14005.1791580,E,4,18,0.7,31.838,M,38.037,M,1.0,*7D
$GPRMC,200529.00,A,3606.2179840,N,14005.1791573,E,0.01,0.00,060625,0.0,E,D*37
$GPGGA,200529.00,3606.2179840,N,14005.1791573,E,4,18,0.7,31.841,M,38.037,M,2.0,*7A
$GPRMC,200530.00,A,3606.2179844,N,14005.1791594,E,0.01,0.00,060625,0.0,E,D*32
$GPGGA,200530.00,3606.2179844,N,14005.1791594,E,4,18,0.7,31.838,M,38.037,M,3.0,*70
$GPRMC,200531.00,A,3606.2179856,N,14005.1791576,E,0.01,0.00,060625,0.0,E,D*3C
$GPGGA,200531.00,3606.2179856,N,14005.1791576,E,4,18,0.7,31.837,M,38.037,M,4.0,*76
$GPRMC,200532.00,A,3606.2179844,N,14005.1791568,E,0.03,0.00,060625,0.0,E,D*31
$GPGGA,200532.00,3606.2179844,N,14005.1791568,E,4,18,0.7,31.838,M,38.037,M,0.0,*72
$GPRMC,200533.00,A,3606.2179836,N,14005.1791568,E,0.02,0.00,060625,0.0,E,D*34
$GPGGA,200533.00,3606.2179836,N,14005.1791568,E,4,18,0.7,31.839,M,38.037,M,1.0,*76
$GPRMC,200534.00,A,3606.2179841,N,14005.1791603,E,0.02,0.00,060625,0.0,E,D*3D
$GPGGA,200534.00,3606.2179841,N,14005.1791603,E,4,18,0.7,31.831,M,38.037,M,2.0,*74
$GPRMC,200535.00,A,3606.2179848,N,14005.1791579,E,0.03,0.00,060625,0.0,E,D*3A
$GPGGA,200535.00,3606.2179848,N,14005.1791579,E,4,18,0.7,31.826,M,38.037,M,3.0,*75
$GPRMC,200536.00,A,3606.2179847,N,14005.1791573,E,0.03,0.00,060625,0.0,E,D*3C
$GPGGA,200536.00,3606.2179847,N,14005.1791573,E,4,18,0.7,31.833,M,38.037,M,4.0,*70
$GPRMC,200537.00,A,3606.2179844,N,14005.1791587,E,0.04,0.00,060625,0.0,E,D*32
$GPGGA,200537.00,3606.2179844,N,14005.1791587,E,4,18,0.7,31.832,M,38.037,M,0.0,*7C
$GPRMC,200538.00,A,3606.2179842,N,14005.1791569,E,0.01,0.00,060625,0.0,E,D*3E
$GPGGA,200538.00,3606.2179842,N,14005.1791569,E,4,18,0.7,31.829,M,38.037,M,1.0,*7E
$GPRMC,200539.00,A,3606.2179840,N,14005.1791576,E,0.01,0.00,060625,0.0,E,D*33
$GPGGA,200539.00,3606.2179840,N,14005.1791576,E,4,18,0.7,31.833,M,38.037,M,2.0,*7B
$GPRMC,200540.00,A,3606.2179834,N,14005.1791559,E,0.02,0.00,060625,0.0,E,D*30
$GPGGA,200540.00,3606.2179834,N,14005.1791559,E,4,18,0.7,31.835,M,38.037,M,3.0,*7C
$GPRMC,200541.00,A,3606.2179841,N,14005.1791579,E,0.07,0.00,060625,0.0,E,D*34
$GPGGA,200541.00,3606.2179841,N,14005.1791579,E,4,18,0.7,31.832,M,38.037,M,4.0,*7D
$GPRMC,200542.00,A,3606.2179872,N,14005.1791566,E,0.02,0.00,060625,0.0,E,D*3C
$GPGGA,200542.00,3606.2179872,N,14005.1791566,E,4,18,0.7,31.825,M,38.037,M,0.0,*72
$GPRMC,200543.00,A,3606.2179851,N,14005.1791593,E,0.03,0.00,060625,0.0,E,D*37
$GPGGA,200543.00,3606.2179851,N,14005.1791593,E,4,18,0.7,31.834,M,38.037,M,1.0,*79
$GPRMC,200544.00,A,3606.2179837,N,14005.1791581,E,0.04,0.00,060625,0.0,E,D*34
$GPGGA,200544.00,3606.2179837,N,14005.1791581,E,4,18,0.7,31.834,M,38.037,M,2.0,*7E
$GPRMC,200545.00,A,3606.2179833,N,14005.1791568,E,0.03,0.00,060625,0.0,E,D*31
$GPGGA,200545.00,3606.2179833,N,14005.1791568,E,4,18,0.7,31.838,M,38.037,M,3.0,*71
$GPRMC,200546.00,A,3606.2179845,N,14005.1791590,E,0.01,0.00,060625,0.0,E,D*36
$GPGGA,200546.00,3606.2179845,N,14005.1791590,E,4,18,0.7,31.833,M,38.037,M,4.0,*78
$GPRMC,200547.00,A,3606.2179856,N,14005.1791594,E,0.03,0.00,060625,0.0,E,D*33
$GPGGA,200547.00,3606.2179856,N,14005.1791594,E,4,18,0.7,31.829,M,38.037,M,0.0,*70
$GPRMC,200548.00,A,3606.2179846,N,14005.1791578,E,0.01,0.00,060625,0.0,E,D*3D
$GPGGA,200548.00,3606.2179846,N,14005.1791578,E,4,18,0.7,31.832,M,38.037,M,1.0,*77
$GPRMC,200549.00,A,3606.2179842,N,14005.1791574,E,0.02,0.00,060625,0.0,E,D*37
$GPGGA,200549.00,3606.2179842,N,14005.1791574,E,4,18,0.7,31.838,M,38.037,M,2.0,*77
$GPRMC,200550.00,A,3606.2179838,N,14005.1791573,E,0.01,0.00,060625,0.0,E,D*36
$GPGGA,200550.00,3606.2179838,N,14005.1791573,E,4,18,0.7,31.830,M,38.037,M,3.0,*7C
$GPRMC,200551.00,A,3606.2179849,N,14005.1791567,E,0.01,0.00,060625,0.0,E,D*34
$GPGGA,200551.00,3606.2179849,N,14005.1791567,E,4,18,0.7,31.832,M,38.037,M,4.0,*7B
$GPRMC,200552.00,A,3606.2179812,N,14005.1791574,E,0.01,0.00,060625,0.0,E,D*3B
$GPGGA,200552.00,3606.2179812,N,14005.1791574,E,4,18,0.7,31.830,M,38.037,M,0.0,*72
$GPRMC,200553.00,A,3606.2179819,N,14005.1791556,E,0.02,0.00,060625,0.0,E,D*32
$GPGGA,200553.00,3606.2179819,N,14005.1791556,E,4,18,0.7,31.827,M,38.037,M,1.0,*7F
$GPRMC,200554.00,A,3606.2179826,N,14005.1791571,E,0.02,0.00,060625,0.0,E,D*3C
