$GPRMC,155942.00,A,3606.2179530,N,14005.1791621,E,0.06,0.00,220125,0.0,E,D*3D
$GPGGA,155942.00,3606.2179530,N,14005.1791621,E,5,13,1.1,31.845,M,38.037,M,0.0,*7D
$GPRMC,155943.00,A,3606.2179743,N,14005.1791682,E,0.02,0.00,220125,0.0,E,D*37
$GPGGA,155943.00,3606.2179743,N,14005.1791682,E,5,13,1.1,31.833,M,38.037,M,1.0,*73
$GPRMC,155944.00,A,3606.2179777,N,14005.1791678,E,0.02,0.00,220125,0.0,E,D*32
$GPGGA,155944.00,3606.2179777,N,14005.1791678,E,5,13,1.1,31.778,M,38.037,M,2.0,*75
$GPRMC,155945.00,A,3606.2179790,N,14005.1791694,E,0.01,0.00,220125,0.0,E,D*3B
$GPGGA,155945.00,3606.2179790,N,14005.1791694,E,5,13,1.1,31.701,M,38.037,M,3.0,*70
$GPRMC,155946.00,A,3606.2179770,N,14005.1791595,E,0.02,0.00,220125,0.0,E,D*37
$GPGGA,155946.00,3606.2179770,N,14005.1791595,E,5,13,1.1,31.699,M,38.037,M,4.0,*78
$GPRMC,155947.00,A,3606.2179855,N,14005.1791734,E,0.01,0.00,220125,0.0,E,D*34
$GPGGA,155947.00,3606.2179855,N,14005.1791734,E,4,13,1.1,31.742,M,38.037,M,0.0,*7A
$GPRMC,155948.00,A,3606.2179863,N,14005.1791744,E,0.01,0.00,220125,0.0,E,D*39
$GPGGA,155948.00,3606.2179863,N,14005.1791744,E,4,13,1.1,31.744,M,38.037,M,1.0,*70
$GPRMC,155949.00,A,3606.2179850,N,14005.1791750,E,0.03,0.00,220125,0.0,E,D*3F
$GPGGA,155949.00,3606.2179850,N,14005.1791750,E,4,13,1.1,31.740,M,38.037,M,2.0,*73
$GPRMC,155950.00,A,3606.2179840,N,14005.1791749,E,0.01,0.00,220125,0.0,E,D*3C
$GPGGA,155950.00,3606.2179840,N,14005.1791749,E,4,13,1.1,31.735,M,38.037,M,3.0,*71
$GPRMC,155951.00,A,3606.2179862,N,14005.1791749,E,0.03,0.00,220125,0.0,E,D*3F
$GPGGA,155951.00,3606.2179862,N,14005.1791749,E,4,13,1.1,31.736,M,38.037,M,4.0,*74
$GPRMC,155952.00,A,3606.2179873,N,14005.1791761,E,0.04,0.00,220125,0.0,E,D*31
$GPGGA,155952.00,3606.2179873,N,14005.1791761,E,4,13,1.1,31.741,M,38.037,M,0.0,*79
$GPRMC,155953.00,A,3606.2179891,N,14005.1791780,E,0.03,0.00,220125,0.0,E,D*34
$GPGGA,155953.00,3606.2179891,N,14005.1791780,E,4,13,1.1,31.741,M,38.037,M,1.0,*7A
$GPRMC,155954.00,A,3606.2179890,N,14005.1791770,E,0.04,0.00,220125,0.0,E,D*3A
$GPGGA,155954.00,3606.2179890,N,14005.1791770,E,4,13,1.1,31.743,M,38.037,M,2.0,*72
$GPRMC,155955.00,A,3606.2179851,N,14005.1791761,E,0.02,0.00,220125,0.0,E,D*30
$GPGGA,155955.00,3606.2179851,N,14005.1791761,E,4,13,1.1,31.735,M,38.037,M,3.0,*7E
$GPRMC,155956.00,A,3606.2179845,N,14005.1791752,E,0.03,0.00,220125,0.0,E,D*37
$GPGGA,155956.00,3606.2179845,N,14005.1791752,E,4,13,1.1,31.736,M,38.037,M,4.0,*7C
$GPRMC,155957.00,A,3606.2179890,N,14005.1791789,E,0.02,0.00,220125,0.0,E,D*39
$GPGGA,155957.00,3606.2179890,N,14005.1791789,E,4,13,1.1,31.744,M,38.037,M,0.0,*72
$GPRMC,155958.00,A,3606.2179863,N,14005.1791773,E,0.01,0.00,220125,0.0,E,D*3C
$GPGGA,155958.00,3606.2179863,N,14005.1791773,E,4,13,1.1,31.735,M,38.037,M,1.0,*73
$GPRMC,155959.00,A,3606.2179871,N,14005.1791758,E,0.01,0.00,220125,0.0,E,D*37
$GPGGA,155959.00,3606.2179871,N,14005.1791758,E,4,13,1.1,31.735,M,38.037,M,2.0,*7B
$GPRMC,160000.00,A,3606.2179836,N,14005.1791739,E,0.02,0.00,220125,0.0,E,D*33
$GPGGA,160000.00,3606.2179836,N,14005.1791739,E,4,13,1.1,31.736,M,38.037,M,3.0,*7E
$GPRMC,160001.00,A,3606.2179844,N,14005.1791756,E,0.03,0.00,220125,0.0,E,D*3F
$GPGGA,160001.00,3606.2179844,N,14005.1791756,E,4,13,1.1,31.742,M,38.037,M,4.0,*77
$GPRMC,160002.00,A,3606.2179879,N,14005.1791777,E,0.01,0.00,220125,0.0,E,D*33
$GPGGA,160002.00,3606.2179879,N,14005.1791777,E,4,13,1.1,31.740,M,38.037,M,0.0,*7F
$GPRMC,160003.00,A,3606.2179817,N,14005.1791752,E,0.02,0.00,220125,0.0,E,D*3E
$GPGGA,160003.00,3606.2179817,N,14005.1791752,E,4,13,1.1,31.738,M,38.037,M,1.0,*7F
$GPRMC,160004.00,A,3606.2179835,N,14005.1791778,E,0.03,0.00,220125,0.0,E,D*30
$GPGGA,160004.00,3606.2179835,N,14005.1791778,E,4,13,1.1,31.742,M,38.037,M,2.0,*7E
$GPRMC,160005.00,A,3606.2179835,N,14005.1791778,E,0.05,0.00,220125,0.0,E,D*37
$GPGGA,160005.00,3606.2179835,N,14005.1791778,E,4,13,1.1,31.740,M,38.037,M,3.0,*7C
$GPRMC,160006.00,A,3606.2179823,N,14005.1791777,E,0.02,0.00,220125,0.0,E,D*3B
$GPGGA,160006.00,3606.2179823,N,14005.1791777,E,4,13,1.1,31.737,M,38.037,M,4.0,*70
$GPRMC,160007.00,A,3606.2179833,N,14005.1791767,E,0.02,0.00,220125,0.0,E,D*3A
$GPGGA,160007.00,3606.2179833,N,14005.1791767,E,4,13,1.1,31.746,M,38.037,M,0.0,*73
$GPRMC,160008.00,A,3606.2179846,N,14005.1791748,E,0.02,0.00,220125,0.0,E,D*3A
$GPGGA,160008.00,3606.2179846,N,14005.1791748,E,4,13,1.1,31.744,M,38.037,M,1.0,*70
$GPRMC,160009.00,A,3606.2179862,N,14005.1791780,E,0.04,0.00,220125,0.0,E,D*3F
$GPGGA,160009.00,3606.2179862,N,14005.1791780,E,4,13,1.1,31.747,M,38.037,M,2.0,*73
$GPRMC,160010.00,A,3606.2179846,N,14005.1791772,E,0.02,0.00,220125,0.0,E,D*3A
$GPGGA,160010.00,3606.2179846,N,14005.1791772,E,4,13,1.1,31.747,M,38.037,M,3.0,*71
$GPRMC,160011.00,A,3606.2179828,N,14005.1791789,E,0.01,0.00,220125,0.0,E,D*34
$GPGGA,160011.00,3606.2179828,N,14005.1791789,E,4,13,1.1,31.743,M,38.037,M,4.0,*7F
$GPRMC,160012.00,A,3606.2179843,N,14005.1791805,E,0.01,0.00,220125,0.0,E,D*31
$GPGGA,160012.00,3606.2179843,N,14005.1791805,E,4,13,1.1,31.745,M,38.037,M,0.0,*78
$GPRMC,160013.00,A,3606.2179837,N,14005.1791794,E,0.02,0.00,220125,0.0,E,D*37
$GPGGA,160013.00,3606.2179837,N,14005.1791794,E,4,13,1.1,31.742,M,38.037,M,1.0,*7B
$GPRMC,160014.00,A,3606.2179834,N,14005.1791813,E,0.02,0.00,220125,0.0,E,D*33
$GPGGA,160014.00,3606.2179834,N,14005.1791813,E,4,13,1.1,31.741,M,38.037,M,2.0,*7F
$GPRMC,160015.00,A,3606.2179809,N,14005.1791789,E,0.01,0.00,220125,0.0,E,D*33
$GPGGA,160015.00,3606.2179809,N,14005.1791789,E,4,13,1.1,31.743,M,38.037,M,3.0,*7F
$GPRMC,160016.00,A,3606.2179832,N,14005.1791803,E,0.02,0.00,220125,0.0,E,D*36
$GPGGA,160016.00,3606.2179832,N,14005.1791803,E,4,13,1.1,31.742,M,38.037,M,4.0,*7F
$GPRMC,160017.00,A,3606.2179832,N,14005.1791800,E,0.01,0.00,220125,0.0,E,D*37
$GPGGA,160017.00,3606.2179832,N,14005.1791800,E,4,13,1.1,31.743,M,38.037,M,0.0,*78
$GPRMC,160018.00,A,3606.2179826,N,14005.1791778,E,0.03,0.00,220125,0.0,E,D*3F
$GPGGA,160018.00,3606.2179826,N,14005.1791778,E,4,13,1.1,31.744,M,38.037,M,1.0,*74
$GPRMC,160019.00,A,3606.2179827,N,14005.1791783,E,0.01,0.00,220125,0.0,E,D*39
$GPGGA,160019.00,3606.2179827,N,14005.1791783,E,4,13,1.1,31.741,M,38.037,M,2.0,*76
$GPRMC,160020.00,A,3606.2179819,N,14005.1791783,E,0.02,0.00,220125,0.0,E,D*3D
$GPGGA,160020.00,3606.2179819,N,14005.1791783,E,4,13,1.1,31.737,M,38.037,M,3.0,*71
$GPRMC,160021.00,A,3606.2179794,N,14005.1791762,E,0.02,0.00,220125,0.0,E,D*39
$GPGGA,160021.00,3606.2179794,N,14005.1791762,E,4,13,1.1,31.747,M,38.037,M,4.0,*75
$GPRMC,160022.00,A,3606.2179813,N,14005.1791737,E,0.03,0.00,220125,0.0,E,D*3B
$GPGGA,160022.00,3606.2179813,N,14005.1791737,E,4,13,1.1,31.744,M,38.037,M,0.0,*71
$GPRMC,160023.00,A,3606.2179793,N,14005.1791726,E,0.04,0.00,220125,0.0,E,D*3A
$GPGGA,160023.00,3606.2179793,N,14005.1791726,E,4,13,1.1,31.738,M,38.037,M,1.0,*7D
$GPRMC,160024.00,A,3606.2179775,N,14005.1791695,E,0.01,0.00,220125,0.0,E,D*39
$GPGGA,160024.00,3606.2179775,N,14005.1791695,E,4,13,1.1,31.743,M,38.037,M,2.0,*74
$GPRMC,160025.00,A,3606.2179780,N,14005.1791689,E,0.02,0.00,220125,0.0,E,D*3C
$GPGGA,160025.00,3606.2179780,N,14005.1791689,E,4,13,1.1,31.746,M,38.037,M,3.0,*76
$GPRMC,160026.00,A,3606.2179806,N,14005.1791720,E,0.01,0.00,220125,0.0,E,D*3F
$GPGGA,160026.00,3606.2179806,N,14005.1791720,E,4,13,1.1,31.743,M,38.037,M,4.0,*74
$GPRMC,160027.00,A,3606.2179776,N,14005.1791668,E,0.03,0.00,220125,0.0,E,D*39
$GPGGA,160027.00,3606.2179776,N,14005.1791668,E,4,13,1.1,31.752,M,38.037,M,0.0,*74
$GPRMC,160028.00,A,3606.2179786,N,14005.1791693,E,0.03,0.00,220125,0.0,E,D*3D
$GPGGA,160028.00,3606.2179786,N,14005.1791693,E,4,13,1.1,31.753,M,38.037,M,1.0,*70
$GPRMC,160029.00,A,3606.2179789,N,14005.1791706,E,0.02,0.00,220125,0.0,E,D*3F
$GPGGA,160029.00,3606.2179789,N,14005.1791706,E,4,13,1.1,31.755,M,38.037,M,2.0,*76
$GPRMC,160030.00,A,3606.2179796,N,14005.1791709,E,0.01,0.00,220125,0.0,E,D*35
$GPGGA,160030.00,3606.2179796,N,14005.1791709,E,4,13,1.1,31.750,M,38.037,M,3.0,*7B
$GPRMC,160031.00,A,3606.2179805,N,14005.1791711,E,0.02,0.00,220125,0.0,E,D*3B
$GPGGA,160031.00,3606.2179805,N,14005.1791711,E,4,13,1.1,31.751,M,38.037,M,4.0,*70
$GPRMC,160032.00,A,3606.2179836,N,14005.1791718,E,0.02,0.00,220125,0.0,E,D*31
$GPGGA,160032.00,3606.2179836,N,14005.1791718,E,4,13,1.1,31.752,M,38.037,M,0.0,*7D
$GPRMC,160033.00,A,3606.2179824,N,14005.1791720,E,0.03,0.00,220125,0.0,E,D*39
$GPGGA,160033.00,3606.2179824,N,14005.1791720,E,4,13,1.1,31.749,M,38.037,M,1.0,*7F
$GPRMC,160034.00,A,3606.2179802,N,14005.1791696,E,0.03,0.00,220125,0.0,E,D*36
$GPGGA,160034.00,3606.2179802,N,14005.1791696,E,4,13,1.1,31.744,M,38.037,M,2.0,*7E
$GPRMC,160035.00,A,3606.2179813,N,14005.1791687,E,0.00,0.00,220125,0.0,E,D*34
$GPGGA,160035.00,3606.2179813,N,14005.1791687,E,4,13,1.1,31.743,M,38.037,M,3.0,*79
$GPRMC,160036.00,A,3606.2179810,N,14005.1791683,E,0.03,0.00,220125,0.0,E,D*33
$GPGGA,160036.00,3606.2179810,N,14005.1791683,E,4,13,1.1,31.750,M,38.037,M,4.0,*78
$GPRMC,160037.00,A,3606.2179806,N,14005.1791737,E,0.04,0.00,220125,0.0,E,D*3C
$GPGGA,160037.00,3606.2179806,N,14005.1791737,E,4,13,1.1,31.755,M,38.037,M,0.0,*71
$GPRMC,160038.00,A,3606.2179827,N,14005.1791749,E,0.02,0.00,220125,0.0,E,D*3F
$GPGGA,160038.00,3606.2179827,N,14005.1791749,E,4,13,1.1,31.746,M,38.037,M,1.0,*77
$GPRMC,160039.00,A,3606.2179806,N,14005.1791741,E,0.02,0.00,220125,0.0,E,D*35
$GPGGA,160039.00,3606.2179806,N,14005.1791741,E,4,13,1.1,31.741,M,38.037,M,2.0,*79
$GPRMC,160040.00,A,3606.2179813,N,14005.1791748,E,0.02,0.00,220125,0.0,E,D*36
$GPGGA,160040.00,3606.2179813,N,14005.1791748,E,4,13,1.1,31.756,M,38.037,M,3.0,*7D
$GPRMC,160041.00,A,3606.2179793,N,14005.1791736,E,0.03,0.00,220125,0.0,E,D*38
$GPGGA,160041.00,3606.2179793,N,14005.1791736,E,4,13,1.1,31.755,M,38.037,M,4.0,*76
$GPRMC,160042.00,A,3606.2179817,N,14005.1791752,E,0.01,0.00,220125,0.0,E,D*38
$GPGGA,160042.00,3606.2179817,N,14005.1791752,E,4,13,1.1,31.753,M,38.037,M,0.0,*76
$GPRMC,160043.00,A,3606.2179789,N,14005.1791752,E,0.02,0.00,220125,0.0,E,D*32
$GPGGA,160043.00,3606.2179789,N,14005.1791752,E,4,13,1.1,31.750,M,38.037,M,1.0,*7D
$GPRMC,160044.00,A,3606.2179796,N,14005.1791748,E,0.01,0.00,220125,0.0,E,D*33
$GPGGA,160044.00,3606.2179796,N,14005.1791748,E,4,13,1.1,31.749,M,38.037,M,2.0,*74
$GPRMC,160045.00,A,3606.2179788,N,14005.1791761,E,0.00,0.00,220125,0.0,E,D*37
$GPGGA,160045.00,3606.2179788,N,14005.1791761,E,4,13,1.1,31.752,M,38.037,M,3.0,*7A
$GPRMC,160046.00,A,3606.2179797,N,14005.1791789,E,0.02,0.00,220125,0.0,E,D*3E
$GPGGA,160046.00,3606.2179797,N,14005.1791789,E,4,13,1.1,31.757,M,38.037,M,4.0,*73
$GPRMC,160047.00,A,3606.2179786,N,14005.1791776,E,0.02,0.00,220125,0.0,E,D*3F
$GPGGA,160047.00,3606.2179786,N,14005.1791776,E,4,13,1.1,31.756,M,38.037,M,0.0,*77
$GPRMC,160048.00,A,3606.2179786,N,14005.1791793,E,0.01,0.00,220125,0.0,E,D*38
$GPGGA,160048.00,3606.2179786,N,14005.1791793,E,4,13,1.1,31.765,M,38.037,M,1.0,*72
$GPRMC,160049.00,A,3606.2179767,N,14005.1791790,E,0.03,0.00,220125,0.0,E,D*37
$GPGGA,160049.00,3606.2179767,N,14005.1791790,E,4,13,1.1,31.766,M,38.037,M,2.0,*7F
$GPRMC,160050.00,A,3606.2179775,N,14005.1791787,E,0.02,0.00,220125,0.0,E,D*3B
$GPGGA,160050.00,3606.2179775,N,14005.1791787,E,4,13,1.1,31.764,M,38.037,M,3.0,*71
$GPRMC,160051.00,A,3606.2179761,N,14005.1791770,E,0.04,0.00,220125,0.0,E,D*31
$GPGGA,160051.00,3606.2179761,N,14005.1791770,E,4,13,1.1,31.764,M,38.037,M,4.0,*7A
$GPRMC,160052.00,A,3606.2179750,N,14005.1791748,E,0.05,0.00,220125,0.0,E,D*3A
$GPGGA,160052.00,3606.2179750,N,14005.1791748,E,4,13,1.1,31.763,M,38.037,M,0.0,*73
$GPRMC,160053.00,A,3606.2179748,N,14005.1791726,E,0.01,0.00,220125,0.0,E,D*3E
$GPGGA,160053.00,3606.2179748,N,14005.1791726,E,4,13,1.1,31.759,M,38.037,M,1.0,*7B
$GPRMC,160054.00,A,3606.2179748,N,14005.1791720,E,0.02,0.00,220125,0.0,E,D*3C
$GPGGA,160054.00,3606.2179748,N,14005.1791720,E,4,13,1.1,31.758,M,38.037,M,2.0,*78
$GPRMC,160055.00,A,3606.2179771,N,14005.1791729,E,0.02,0.00,220125,0.0,E,D*3E
$GPGGA,160055.00,3606.2179771,N,14005.1791729,E,4,13,1.1,31.761,M,38.037,M,3.0,*71
$GPRMC,160056.00,A,3606.2179782,N,14005.1791744,E,0.03,0.00,220125,0.0,E,D*3B
$GPGGA,160056.00,3606.2179782,N,14005.1791744,E,4,13,1.1,31.758,M,38.037,M,4.0,*78
$GPRMC,160057.00,A,3606.2179815,N,14005.1791696,E,0.01,0.00,220125,0.0,E,D*37
$GPGGA,160057.00,3606.2179815,N,14005.1791696,E,4,13,1.1,31.762,M,38.037,M,0.0,*7B
$GPRMC,160058.00,A,3606.2179848,N,14005.1791693,E,0.01,0.00,220125,0.0,E,D*35
$GPGGA,160058.00,3606.2179848,N,14005.1791693,E,4,13,1.1,31.762,M,38.037,M,1.0,*78
$GPRMC,160059.00,A,3606.2179831,N,14005.1791723,E,0.03,0.00,220125,0.0,E,D*32
$GPGGA,160059.00,3606.2179831,N,14005.1791723,E,4,13,1.1,31.765,M,38.037,M,2.0,*79
$GPRMC,160100.00,A,3606.2179869,N,14005.1791731,E,0.03,0.00,220125,0.0,E,D*31
$GPGGA,160100.00,3606.2179869,N,14005.1791731,E,4,13,1.1,31.769,M,38.037,M,3.0,*77
$GPRMC,160101.00,A,3606.2179864,N,14005.1791725,E,0.02,0.00,220125,0.0,E,D*39
$GPGGA,160101.00,3606.2179864,N,14005.1791725,E,4,13,1.1,31.769,M,38.037,M,4.0,*79
$GPRMC,160102.00,A,3606.2179882,N,14005.1791741,E,0.01,0.00,220125,0.0,E,D*33
$GPGGA,160102.00,3606.2179882,N,14005.1791741,E,4,13,1.1,31.766,M,38.037,M,0.0,*7B
$GPRMC,160103.00,A,3606.2179891,N,14005.1791788,E,0.03,0.00,220125,0.0,E,D*37
$GPGGA,160103.00,3606.2179891,N,14005.1791788,E,4,13,1.1,31.765,M,38.037,M,1.0,*7F
$GPRMC,160104.00,A,3606.2179882,N,14005.1791786,E,0.02,0.00,220125,0.0,E,D*3D
$GPGGA,160104.00,3606.2179882,N,14005.1791786,E,4,13,1.1,31.774,M,38.037,M,2.0,*77
$GPRMC,160105.00,A,3606.2179896,N,14005.1791779,E,0.01,0.00,220125,0.0,E,D*3A
$GPGGA,160105.00,3606.2179896,N,14005.1791779,E,4,13,1.1,31.771,M,38.037,M,3.0,*77
$GPRMC,160106.00,A,3606.2179885,N,14005.1791748,E,0.02,0.00,220125,0.0,E,D*3A
$GPGGA,160106.00,3606.2179885,N,14005.1791748,E,4,13,1.1,31.768,M,38.037,M,4.0,*7B
$GPRMC,160107.00,A,3606.2179878,N,14005.1791747,E,0.04,0.00,220125,0.0,E,D*30
$GPGGA,160107.00,3606.2179878,N,14005.1791747,E,4,13,1.1,31.774,M,38.037,M,0.0,*7E
$GPRMC,160108.00,A,3606.2179874,N,14005.1791748,E,0.02,0.00,220125,0.0,E,D*3A
$GPGGA,160108.00,3606.2179874,N,14005.1791748,E,4,13,1.1,31.776,M,38.037,M,1.0,*71
$GPRMC,160109.00,A,3606.2179849,N,14005.1791731,E,0.01,0.00,220125,0.0,E,D*38
$GPGGA,160109.00,3606.2179849,N,14005.1791731,E,4,13,1.1,31.771,M,38.037,M,2.0,*74
$GPRMC,160110.00,A,3606.2179867,N,14005.1791722,E,0.03,0.00,220125,0.0,E,D*3C
$GPGGA,160110.00,3606.2179867,N,14005.1791722,E,4,13,1.1,31.780,M,38.037,M,3.0,*7D
$GPRMC,160111.00,A,3606.2179859,N,14005.1791703,E,0.02,0.00,220125,0.0,E,D*32
$GPGGA,160111.00,3606.2179859,N,14005.1791703,E,4,13,1.1,31.777,M,38.037,M,4.0,*7D
$GPRMC,160112.00,A,3606.2179846,N,14005.1791709,E,0.01,0.00,220125,0.0,E,D*36
$GPGGA,160112.00,3606.2179846,N,14005.1791709,E,4,13,1.1,31.774,M,38.037,M,0.0,*7D
$GPRMC,160113.00,A,3606.2179859,N,14005.1791720,E,0.02,0.00,220125,0.0,E,D*31
$GPGGA,160113.00,3606.2179859,N,14005.1791720,E,4,13,1.1,31.781,M,38.037,M,1.0,*72
$GPRMC,160114.00,A,3606.2179838,N,14005.1791678,E,0.01,0.00,220125,0.0,E,D*3E
$GPGGA,160114.00,3606.2179838,N,14005.1791678,E,4,13,1.1,31.769,M,38.037,M,2.0,*7B
$GPRMC,160115.00,A,3606.2179871,N,14005.1791699,E,0.03,0.00,220125,0.0,E,D*3F
$GPGGA,160115.00,3606.2179871,N,14005.1791699,E,4,13,1.1,31.772,M,38.037,M,3.0,*73
$GPRMC,160116.00,A,3606.2179857,N,14005.1791694,E,0.02,0.00,220125,0.0,E,D*34
$GPGGA,160116.00,3606.2179857,N,14005.1791694,E,4,13,1.1,31.781,M,38.037,M,4.0,*72
$GPRMC,160117.00,A,3606.2179892,N,14005.1791728,E,0.02,0.00,220125,0.0,E,D*3A
$GPGGA,160117.00,3606.2179892,N,14005.1791728,E,4,13,1.1,31.780,M,38.037,M,0.0,*79
$GPRMC,160118.00,A,3606.2179874,N,14005.1791689,E,0.02,0.00,220125,0.0,E,D*37
$GPGGA,160118.00,3606.2179874,N,14005.1791689,E,4,13,1.1,31.777,M,38.037,M,1.0,*7D
$GPRMC,160119.00,A,3606.2179863,N,14005.1791688,E,0.04,0.00,220125,0.0,E,D*37
$GPGGA,160119.00,3606.2179863,N,14005.1791688,E,4,13,1.1,31.774,M,38.037,M,2.0,*7B
$GPRMC,160120.00,A,3606.2179881,N,14005.1791695,E,0.04,0.00,220125,0.0,E,D*3D
$GPGGA,160120.00,3606.2179881,N,14005.1791695,E,4,13,1.1,31.777,M,38.037,M,3.0,*73
$GPRMC,160121.00,A,3606.2179869,N,14005.1791654,E,0.02,0.00,220125,0.0,E,D*31
$GPGGA,160121.00,3606.2179869,N,14005.1791654,E,4,13,1.1,31.775,M,38.037,M,4.0,*7C
$GPRMC,160122.00,A,3606.2179879,N,14005.1791688,E,0.02,0.00,220125,0.0,E,D*32
$GPGGA,160122.00,3606.2179879,N,14005.1791688,E,4,13,1.1,31.770,M,38.037,M,0.0,*7E
$GPRMC,160123.00,A,3606.2179886,N,14005.1791724,E,0.02,0.00,220125,0.0,E,D*34
$GPGGA,160123.00,3606.2179886,N,14005.1791724,E,4,13,1.1,31.771,M,38.037,M,1.0,*78
$GPRMC,160124.00,A,3606.2179892,N,14005.1791701,E,0.02,0.00,220125,0.0,E,D*31
$GPGGA,160124.00,3606.2179892,N,14005.1791701,E,4,13,1.1,31.772,M,38.037,M,2.0,*7D
$GPRMC,160125.00,A,3606.2179909,N,14005.1791712,E,0.04,0.00,220125,0.0,E,D*37
$GPGGA,160125.00,3606.2179909,N,14005.1791712,E,4,13,1.1,31.774,M,38.037,M,3.0,*7A
$GPRMC,160126.00,A,3606.2179876,N,14005.1791692,E,0.01,0.00,220125,0.0,E,D*31
$GPGGA,160126.00,3606.2179876,N,14005.1791692,E,4,13,1.1,31.769,M,38.037,M,4.0,*72
$GPRMC,160127.00,A,3606.2179813,N,14005.1791668,E,0.02,0.00,220125,0.0,E,D*35
$GPGGA,160127.00,3606.2179813,N,14005.1791668,E,4,13,1.1,31.774,M,38.037,M,0.0,*7D
$GPRMC,160128.00,A,3606.2179851,N,14005.1791693,E,0.04,0.00,220125,0.0,E,D*3E
$GPGGA,160128.00,3606.2179851,N,14005.1791693,E,4,13,1.1,31.774,M,38.037,M,1.0,*71
$GPRMC,160129.00,A,3606.2179851,N,14005.1791678,E,0.01,0.00,220125,0.0,E,D*3F
$GPGGA,160129.00,3606.2179851,N,14005.1791678,E,4,13,1.1,31.772,M,38.037,M,2.0,*70
$GPRMC,160130.00,A,3606.2179859,N,14005.1791685,E,0.04,0.00,220125,0.0,E,D*38
$GPGGA,160130.00,3606.2179859,N,14005.1791685,E,4,13,1.1,31.775,M,38.037,M,3.0,*74
$GPRMC,160131.00,A,3606.2179828,N,14005.1791653,E,0.04,0.00,220125,0.0,E,D*34
$GPGGA,160131.00,3606.2179828,N,14005.1791653,E,4,13,1.1,31.765,M,38.037,M,4.0,*7E
$GPRMC,160132.00,A,3606.2179829,N,14005.1791654,E,0.01,0.00,220125,0.0,E,D*34
$GPGGA,160132.00,3606.2179829,N,14005.1791654,E,4,13,1.1,31.762,M,38.037,M,0.0,*78
$GPRMC,160133.00,A,3606.2179825,N,14005.1791640,E,0.02,0.00,220125,0.0,E,D*3F
$GPGGA,160133.00,3606.2179825,N,14005.1791640,E,4,13,1.1,31.752,M,38.037,M,1.0,*72
$GPRMC,160134.00,A,3606.2179855,N,14005.1791637,E,0.01,0.00,220125,0.0,E,D*3C
$GPGGA,160134.00,3606.2179855,N,14005.1791637,E,4,13,1.1,31.757,M,38.037,M,2.0,*74
$GPRMC,160135.00,A,3606.2179842,N,14005.1791619,E,0.03,0.00,220125,0.0,E,D*35
$GPGGA,160135.00,3606.2179842,N,14005.1791619,E,4,13,1.1,31.754,M,38.037,M,3.0,*7D
$GPRMC,160136.00,A,3606.2179833,N,14005.1791610,E,0.02,0.00,220125,0.0,E,D*38
$GPGGA,160136.00,3606.2179833,N,14005.1791610,E,4,13,1.1,31.758,M,38.037,M,4.0,*7A
$GPRMC,160137.00,A,3606.2179831,N,14005.1791612,E,0.03,0.00,220125,0.0,E,D*38
$GPGGA,160137.00,3606.2179831,N,14005.1791612,E,4,13,1.1,31.756,M,38.037,M,0.0,*71
$GPRMC,160138.00,A,3606.2179829,N,14005.1791618,E,0.02,0.00,220125,0.0,E,D*35
$GPGGA,160138.00,3606.2179829,N,14005.1791618,E,4,13,1.1,31.754,M,38.037,M,1.0,*7E
$GPRMC,160139.00,A,3606.2179833,N,14005.1791610,E,0.06,0.00,220125,0.0,E,D*33
$GPGGA,160139.00,3606.2179833,N,14005.1791610,E,4,13,1.1,31.758,M,38.037,M,2.0,*73
$GPRMC,160140.00,A,3606.2179839,N,14005.1791613,E,0.02,0.00,220125,0.0,E,D*30
$GPGGA,160140.00,3606.2179839,N,14005.1791613,E,4,13,1.1,31.750,M,38.037,M,3.0,*7D
$GPRMC,160141.00,A,3606.2179834,N,14005.1791627,E,0.02,0.00,220125,0.0,E,D*3B
$GPGGA,160141.00,3606.2179834,N,14005.1791627,E,4,13,1.1,31.760,M,38.037,M,4.0,*72
$GPRMC,160142.00,A,3606.2179847,N,14005.1791649,E,0.01,0.00,220125,0.0,E,D*37
$GPGGA,160142.00,3606.2179847,N,14005.1791649,E,4,13,1.1,31.759,M,38.037,M,0.0,*73
$GPRMC,160143.00,A,3606.2179842,N,14005.1791621,E,0.01,0.00,220125,0.0,E,D*3D
$GPGGA,160143.00,3606.2179842,N,14005.1791621,E,4,13,1.1,31.760,M,38.037,M,1.0,*72
$GPRMC,160144.00,A,3606.2179799,N,14005.1791593,E,0.00,0.00,220125,0.0,E,D*38
$GPGGA,160144.00,3606.2179799,N,14005.1791593,E,4,13,1.1,31.750,M,38.037,M,2.0,*76
$GPRMC,160145.00,A,3606.2179842,N,14005.1791613,E,0.03,0.00,220125,0.0,E,D*38
$GPGGA,160145.00,3606.2179842,N,14005.1791613,E,4,13,1.1,31.752,M,38.037,M,3.0,*76
$GPRMC,160146.00,A,3606.2179867,N,14005.1791635,E,0.04,0.00,220125,0.0,E,D*3F
$GPGGA,160146.00,3606.2179867,N,14005.1791635,E,4,13,1.1,31.753,M,38.037,M,4.0,*70
$GPRMC,160147.00,A,3606.2179854,N,14005.1791643,E,0.05,0.00,220125,0.0,E,D*3E
$GPGGA,160147.00,3606.2179854,N,14005.1791643,E,4,13,1.1,31.752,M,38.037,M,0.0,*75
$GPRMC,160148.00,A,3606.2179884,N,14005.1791669,E,0.03,0.00,220125,0.0,E,D*32
$GPGGA,160148.00,3606.2179884,N,14005.1791669,E,4,13,1.1,31.755,M,38.037,M,1.0,*79
$GPRMC,160149.00,A,3606.2179885,N,14005.1791650,E,0.02,0.00,220125,0.0,E,D*39
$GPGGA,160149.00,3606.2179885,N,14005.1791650,E,4,13,1.1,31.761,M,38.037,M,2.0,*77
$GPRMC,160150.00,A,3606.2179904,N,14005.1791672,E,0.03,0.00,220125,0.0,E,D*38
$GPGGA,160150.00,3606.2179904,N,14005.1791672,E,4,13,1.1,31.757,M,38.037,M,3.0,*73
$GPRMC,160151.00,A,3606.2179881,N,14005.1791679,E,0.01,0.00,220125,0.0,E,D*3C
$GPGGA,160151.00,3606.2179881,N,14005.1791679,E,4,13,1.1,31.761,M,38.037,M,4.0,*77
$GPRMC,160152.00,A,3606.2179926,N,14005.1791725,E,0.02,0.00,220125,0.0,E,D*38
$GPGGA,160152.00,3606.2179926,N,14005.1791725,E,4,13,1.1,31.752,M,38.037,M,0.0,*74
$GPRMC,160153.00,A,3606.2179902,N,14005.1791716,E,0.01,0.00,220125,0.0,E,D*3C
$GPGGA,160153.00,3606.2179902,N,14005.1791716,E,4,13,1.1,31.756,M,38.037,M,1.0,*76
$GPRMC,160154.00,A,3606.2179901,N,14005.1791728,E,0.02,0.00,220125,0.0,E,D*36
$GPGGA,160154.00,3606.2179901,N,14005.1791728,E,4,13,1.1,31.751,M,38.037,M,2.0,*7B
$GPRMC,160155.00,A,3606.2179927,N,14005.1791754,E,0.01,0.00,220125,0.0,E,D*3B
$GPGGA,160155.00,3606.2179927,N,14005.1791754,E,4,13,1.1,31.756,M,38.037,M,3.0,*73
$GPRMC,160156.00,A,3606.2179907,N,14005.1791738,E,0.01,0.00,220125,0.0,E,D*30
$GPGGA,160156.00,3606.2179907,N,14005.1791738,E,4,13,1.1,31.752,M,38.037,M,4.0,*7B
$GPRMC,160157.00,A,3606.2179930,N,14005.1791818,E,0.05,0.00,220125,0.0,E,D*3C
$GPGGA,160157.00,3606.2179930,N,14005.1791818,E,4,13,1.1,31.755,M,38.037,M,0.0,*70
$GPRMC,160158.00,A,3606.2179966,N,14005.1791849,E,0.05,0.00,220125,0.0,E,D*34
$GPGGA,160158.00,3606.2179966,N,14005.1791849,E,4,13,1.1,31.757,M,38.037,M,1.0,*7B
$GPRMC,160159.00,A,3606.2179950,N,14005.1791818,E,0.02,0.00,220125,0.0,E,D*33
$GPGGA,160159.00,3606.2179950,N,14005.1791818,E,4,13,1.1,31.758,M,38.037,M,2.0,*77
$GPRMC,160200.00,A,3606.2179966,N,14005.1791860,E,0.02,0.00,220125,0.0,E,D*36
$GPGGA,160200.00,3606.2179966,N,14005.1791860,E,4,13,1.1,31.763,M,38.037,M,3.0,*7B
$GPRMC,160201.00,A,3606.2179927,N,14005.1791808,E,0.03,0.00,220125,0.0,E,D*3D
$GPGGA,160201.00,3606.2179927,N,14005.1791808,E,4,13,1.1,31.760,M,38.037,M,4.0,*75
$GPRMC,160202.00,A,3606.2179934,N,14005.1791811,E,0.01,0.00,220125,0.0,E,D*36
$GPGGA,160202.00,3606.2179934,N,14005.1791811,E,4,13,1.1,31.761,M,38.037,M,0.0,*79
$GPRMC,160203.00,A,3606.2179903,N,14005.1791810,E,0.01,0.00,220125,0.0,E,D*32
$GPGGA,160203.00,3606.2179903,N,14005.1791810,E,4,13,1.1,31.757,M,38.037,M,1.0,*79
$GPRMC,160204.00,A,3606.2179922,N,14005.1791811,E,0.07,0.00,220125,0.0,E,D*31
$GPGGA,160204.00,3606.2179922,N,14005.1791811,E,4,13,1.1,31.758,M,38.037,M,2.0,*70
$GPRMC,160205.00,A,3606.2179923,N,14005.1791814,E,0.06,0.00,220125,0.0,E,D*35
$GPGGA,160205.00,3606.2179923,N,14005.1791814,E,4,13,1.1,31.766,M,38.037,M,3.0,*79
$GPRMC,160206.00,A,3606.2179897,N,14005.1791810,E,0.01,0.00,220125,0.0,E,D*3B
$GPGGA,160206.00,3606.2179897,N,14005.1791810,E,4,13,1.1,31.763,M,38.037,M,4.0,*72
$GPRMC,160207.00,A,3606.2179863,N,14005.1791759,E,0.02,0.00,220125,0.0,E,D*30
$GPGGA,160207.00,3606.2179863,N,14005.1791759,E,4,13,1.1,31.756,M,38.037,M,0.0,*78
$GPRMC,160208.00,A,3606.2179894,N,14005.1791787,E,0.01,0.00,220125,0.0,E,D*37
$GPGGA,160208.00,3606.2179894,N,14005.1791787,E,4,13,1.1,31.760,M,38.037,M,1.0,*78
$GPRMC,160209.00,A,3606.2179868,N,14005.1791776,E,0.04,0.00,220125,0.0,E,D*3E
$GPGGA,160209.00,3606.2179868,N,14005.1791776,E,4,13,1.1,31.767,M,38.037,M,2.0,*70
$GPRMC,160210.00,A,3606.2179869,N,14005.1791787,E,0.01,0.00,220125,0.0,E,D*3C
$GPGGA,160210.00,3606.2179869,N,14005.1791787,E,4,13,1.1,31.770,M,38.037,M,3.0,*70
$GPRMC,160211.00,A,3606.2179851,N,14005.1791755,E,0.01,0.00,220125,0.0,E,D*39
$GPGGA,160211.00,3606.2179851,N,14005.1791755,E,4,13,1.1,31.768,M,38.037,M,4.0,*7B
$GPRMC,160212.00,A,3606.2179863,N,14005.1791798,E,0.04,0.00,220125,0.0,E,D*3F
$GPGGA,160212.00,3606.2179863,N,14005.1791798,E,4,13,1.1,31.760,M,38.037,M,0.0,*74
$GPRMC,160213.00,A,3606.2179887,N,14005.1791795,E,0.03,0.00,220125,0.0,E,D*3E
$GPGGA,160213.00,3606.2179887,N,14005.1791795,E,4,13,1.1,31.759,M,38.037,M,1.0,*79
$GPRMC,160214.00,A,3606.2179868,N,14005.1791801,E,0.02,0.00,220125,0.0,E,D*3B
$GPGGA,160214.00,3606.2179868,N,14005.1791801,E,4,13,1.1,31.772,M,38.037,M,2.0,*77
$GPRMC,160215.00,A,3606.2179869,N,14005.1791817,E,0.04,0.00,220125,0.0,E,D*3A
$GPGGA,160215.00,3606.2179869,N,14005.1791817,E,4,13,1.1,31.769,M,38.037,M,3.0,*7B
$GPRMC,160216.00,A,3606.2179856,N,14005.1791832,E,0.02,0.00,220125,0.0,E,D*34
$GPGGA,160216.00,3606.2179856,N,14005.1791832,E,4,13,1.1,31.770,M,38.037,M,4.0,*7C
$GPRMC,160217.00,A,3606.2179883,N,14005.1791842,E,0.04,0.00,220125,0.0,E,D*3C
$GPGGA,160217.00,3606.2179883,N,14005.1791842,E,4,13,1.1,31.771,M,38.037,M,0.0,*77
$GPRMC,160218.00,A,3606.2179883,N,14005.1791863,E,0.03,0.00,220125,0.0,E,D*37
$GPGGA,160218.00,3606.2179883,N,14005.1791863,E,4,13,1.1,31.781,M,38.037,M,1.0,*75
$GPRMC,160219.00,A,3606.2179883,N,14005.1791858,E,0.02,0.00,220125,0.0,E,D*3F
$GPGGA,160219.00,3606.2179883,N,14005.1791858,E,4,13,1.1,31.777,M,38.037,M,2.0,*76
$GPRMC,160220.00,A,3606.2179867,N,14005.1791861,E,0.01,0.00,220125,0.0,E,D*36
$GPGGA,160220.00,3606.2179867,N,14005.1791861,E,4,13,1.1,31.778,M,38.037,M,3.0,*72
$GPRMC,160221.00,A,3606.2179848,N,14005.1791847,E,0.02,0.00,220125,0.0,E,D*3D
$GPGGA,160221.00,3606.2179848,N,14005.1791847,E,4,13,1.1,31.776,M,38.037,M,4.0,*73
$GPRMC,160222.00,A,3606.2179868,N,14005.1791821,E,0.02,0.00,220125,0.0,E,D*3C
$GPGGA,160222.00,3606.2179868,N,14005.1791821,E,4,13,1.1,31.772,M,38.037,M,0.0,*72
$GPRMC,160223.00,A,3606.2179853,N,14005.1791833,E,0.02,0.00,220125,0.0,E,D*36
$GPGGA,160223.00,3606.2179853,N,14005.1791833,E,4,13,1.1,31.772,M,38.037,M,1.0,*79
$GPRMC,160224.00,A,3606.2179812,N,14005.1791812,E,0.02,0.00,220125,0.0,E,D*37
$GPGGA,160224.00,3606.2179812,N,14005.1791812,E,4,13,1.1,31.777,M,38.037,M,2.0,*7E
$GPRMC,160225.00,A,3606.2179817,N,14005.1791824,E,0.02,0.00,220125,0.0,E,D*36
$GPGGA,160225.00,3606.2179817,N,14005.1791824,E,4,13,1.1,31.771,M,38.037,M,3.0,*78
$GPRMC,160226.00,A,3606.2179837,N,14005.1791855,E,0.03,0.00,220125,0.0,E,D*30
$GPGGA,160226.00,3606.2179837,N,14005.1791855,E,4,13,1.1,31.779,M,38.037,M,4.0,*70
$GPRMC,160227.00,A,3606.2179800,N,14005.1791771,E,0.04,0.00,220125,0.0,E,D*3B
$GPGGA,160227.00,3606.2179800,N,14005.1791771,E,4,13,1.1,31.780,M,38.037,M,0.0,*7E
$GPRMC,160228.00,A,3606.2179794,N,14005.1791748,E,0.03,0.00,220125,0.0,E,D*3B
$GPGGA,160228.00,3606.2179794,N,14005.1791748,E,4,13,1.1,31.769,M,38.037,M,1.0,*7F
$GPRMC,160229.00,A,3606.2179783,N,14005.1791756,E,0.02,0.00,220125,0.0,E,D*32
$GPGGA,160229.00,3606.2179783,N,14005.1791756,E,4,13,1.1,31.768,M,38.037,M,2.0,*75
$GPRMC,160230.00,A,3606.2179824,N,14005.1791793,E,0.02,0.00,220125,0.0,E,D*31
$GPGGA,160230.00,3606.2179824,N,14005.1791793,E,4,13,1.1,31.765,M,38.037,M,3.0,*7A
$GPRMC,160231.00,A,3606.2179803,N,14005.1791766,E,0.02,0.00,220125,0.0,E,D*3F
$GPGGA,160231.00,3606.2179803,N,14005.1791766,E,4,13,1.1,31.764,M,38.037,M,4.0,*72
$GPRMC,160232.00,A,3606.2179784,N,14005.1791738,E,0.02,0.00,220125,0.0,E,D*37
$GPGGA,160232.00,3606.2179784,N,14005.1791738,E,4,13,1.1,31.756,M,38.037,M,0.0,*7F
$GPRMC,160233.00,A,3606.2179808,N,14005.1791748,E,0.02,0.00,220125,0.0,E,D*3A
$GPGGA,160233.00,3606.2179808,N,14005.1791748,E,4,13,1.1,31.755,M,38.037,M,1.0,*70
$GPRMC,160234.00,A,3606.2179798,N,14005.1791753,E,0.02,0.00,220125,0.0,E,D*31
$GPGGA,160234.00,3606.2179798,N,14005.1791753,E,4,13,1.1,31.754,M,38.037,M,2.0,*79
$GPRMC,160235.00,A,3606.2179816,N,14005.1791765,E,0.02,0.00,220125,0.0,E,D*3C
$GPGGA,160235.00,3606.2179816,N,14005.1791765,E,4,13,1.1,31.760,M,38.037,M,3.0,*72
$GPRMC,160236.00,A,3606.2179793,N,14005.1791780,E,0.01,0.00,220125,0.0,E,D*35
$GPGGA,160236.00,3606.2179793,N,14005.1791780,E,4,13,1.1,31.763,M,38.037,M,4.0,*7C
$GPRMC,160237.00,A,3606.2179854,N,14005.1791773,E,0.02,0.00,220125,0.0,E,D*3F
$GPGGA,160237.00,3606.2179854,N,14005.1791773,E,4,13,1.1,31.756,M,38.037,M,0.0,*77
$GPRMC,160238.00,A,3606.2179896,N,14005.1791805,E,0.02,0.00,220125,0.0,E,D*30
$GPGGA,160238.00,3606.2179896,N,14005.1791805,E,4,13,1.1,31.760,M,38.037,M,1.0,*7C
$GPRMC,160239.00,A,3606.2179912,N,14005.1791842,E,0.02,0.00,220125,0.0,E,D*3F
$GPGGA,160239.00,3606.2179912,N,14005.1791842,E,4,13,1.1,31.769,M,38.037,M,2.0,*79
$GPRMC,160240.00,A,3606.2179930,N,14005.1791841,E,0.03,0.00,220125,0.0,E,D*33
$GPGGA,160240.00,3606.2179930,N,14005.1791841,E,4,13,1.1,31.772,M,38.037,M,3.0,*7F
$GPRMC,160241.00,A,3606.2179929,N,14005.1791810,E,0.01,0.00,220125,0.0,E,D*3C
$GPGGA,160241.00,3606.2179929,N,14005.1791810,E,4,13,1.1,31.769,M,38.037,M,4.0,*7F
$GPRMC,160242.00,A,3606.2179918,N,14005.1791799,E,0.02,0.00,220125,0.0,E,D*30
$GPGGA,160242.00,3606.2179918,N,14005.1791799,E,4,13,1.1,31.768,M,38.037,M,0.0,*75
$GPRMC,160243.00,A,3606.2179973,N,14005.1791859,E,0.01,0.00,220125,0.0,E,D*3C
$GPGGA,160243.00,3606.2179973,N,14005.1791859,E,4,13,1.1,31.772,M,38.037,M,1.0,*70
$GPRMC,160244.00,A,3606.2179961,N,14005.1791831,E,0.03,0.00,220125,0.0,E,D*34
$GPGGA,160244.00,3606.2179961,N,14005.1791831,E,4,13,1.1,31.770,M,38.037,M,2.0,*7B
$GPRMC,160245.00,A,3606.2179947,N,14005.1791847,E,0.02,0.00,220125,0.0,E,D*31
$GPGGA,160245.00,3606.2179947,N,14005.1791847,E,4,13,1.1,31.765,M,38.037,M,3.0,*7A
$GPRMC,160246.00,A,3606.2179962,N,14005.1791846,E,0.01,0.00,220125,0.0,E,D*37
$GPGGA,160246.00,3606.2179962,N,14005.1791846,E,4,13,1.1,31.765,M,38.037,M,4.0,*78
$GPRMC,160247.00,A,3606.2179962,N,14005.1791843,E,0.02,0.00,220125,0.0,E,D*30
$GPGGA,160247.00,3606.2179962,N,14005.1791843,E,4,13,1.1,31.771,M,38.037,M,0.0,*7D
$GPRMC,160248.00,A,3606.2179915,N,14005.1791787,E,0.01,0.00,220125,0.0,E,D*3B
$GPGGA,160248.00,3606.2179915,N,14005.1791787,E,4,13,1.1,31.766,M,38.037,M,1.0,*72
$GPRMC,160249.00,A,3606.2179922,N,14005.1791805,E,0.02,0.00,220125,0.0,E,D*38
$GPGGA,160249.00,3606.2179922,N,14005.1791805,E,4,13,1.1,31.768,M,38.037,M,2.0,*7F
$GPRMC,160250.00,A,3606.2179922,N,14005.1791808,E,0.02,0.00,220125,0.0,E,D*3D
$GPGGA,160250.00,3606.2179922,N,14005.1791808,E,4,13,1.1,31.768,M,38.037,M,3.0,*7B
$GPRMC,160251.00,A,3606.2179925,N,14005.1791821,E,0.01,0.00,220125,0.0,E,D*33
$GPGGA,160251.00,3606.2179925,N,14005.1791821,E,4,13,1.1,31.762,M,38.037,M,4.0,*7B
$GPRMC,160252.00,A,3606.2179863,N,14005.1791773,E,0.01,0.00,220125,0.0,E,D*3B
$GPGGA,160252.00,3606.2179863,N,14005.1791773,E,4,13,1.1,31.763,M,38.037,M,0.0,*76
$GPRMC,160253.00,A,3606.2179868,N,14005.1791781,E,0.01,0.00,220125,0.0,E,D*3C
$GPGGA,160253.00,3606.2179868,N,14005.1791781,E,4,13,1.1,31.767,M,38.037,M,1.0,*74
$GPRMC,160254.00,A,3606.2179865,N,14005.1791764,E,0.03,0.00,220125,0.0,E,D*3F
$GPGGA,160254.00,3606.2179865,N,14005.1791764,E,4,13,1.1,31.757,M,38.037,M,2.0,*75
$GPRMC,160255.00,A,3606.2179872,N,14005.1791789,E,0.02,0.00,220125,0.0,E,D*3A
$GPGGA,160255.00,3606.2179872,N,14005.1791789,E,4,13,1.1,31.766,M,38.037,M,3.0,*72
$GPRMC,160256.00,A,3606.2179891,N,14005.1791793,E,0.04,0.00,220125,0.0,E,D*39
$GPGGA,160256.00,3606.2179891,N,14005.1791793,E,4,13,1.1,31.759,M,38.037,M,4.0,*7C
$GPRMC,160257.00,A,3606.2179914,N,14005.1791813,E,0.04,0.00,220125,0.0,E,D*33
$GPGGA,160257.00,3606.2179914,N,14005.1791813,E,4,13,1.1,31.764,M,38.037,M,0.0,*7C
$GPRMC,160258.00,A,3606.2179916,N,14005.1791780,E,0.04,0.00,220125,0.0,E,D*3B
$GPGGA,160258.00,3606.2179916,N,14005.1791780,E,4,13,1.1,31.760,M,38.037,M,1.0,*71
$GPRMC,160259.00,A,3606.2179939,N,14005.1791828,E,0.01,0.00,220125,0.0,E,D*3F
$GPGGA,160259.00,3606.2179939,N,14005.1791828,E,4,13,1.1,31.772,M,38.037,M,2.0,*70
$GPRMC,160300.00,A,3606.2179925,N,14005.1791802,E,0.01,0.00,220125,0.0,E,D*37
$GPGGA,160300.00,3606.2179925,N,14005.1791802,E,4,13,1.1,31.772,M,38.037,M,3.0,*79
$GPRMC,160301.00,A,3606.2179929,N,14005.1791836,E,0.03,0.00,220125,0.0,E,D*3F
$GPGGA,160301.00,3606.2179929,N,14005.1791836,E,4,13,1.1,31.766,M,38.037,M,4.0,*71
$GPRMC,160302.00,A,3606.2179930,N,14005.1791833,E,0.02,0.00,220125,0.0,E,D*30
$GPGGA,160302.00,3606.2179930,N,14005.1791833,E,4,13,1.1,31.771,M,38.037,M,0.0,*7D
$GPRMC,160303.00,A,3606.2179928,N,14005.1791835,E,0.02,0.00,220125,0.0,E,D*3E
$GPGGA,160303.00,3606.2179928,N,14005.1791835,E,4,13,1.1,31.771,M,38.037,M,1.0,*72
$GPRMC,160304.00,A,3606.2179923,N,14005.1791832,E,0.02,0.00,220125,0.0,E,D*35
$GPGGA,160304.00,3606.2179923,N,14005.1791832,E,4,13,1.1,31.768,M,38.037,M,2.0,*72
$GPRMC,160305.00,A,3606.2179947,N,14005.1791844,E,0.02,0.00,220125,0.0,E,D*37
$GPGGA,160305.00,3606.2179947,N,14005.1791844,E,4,13,1.1,31.771,M,38.037,M,3.0,*79
$GPRMC,160306.00,A,3606.2179936,N,14005.1791832,E,0.03,0.00,220125,0.0,E,D*32
$GPGGA,160306.00,3606.2179936,N,14005.1791832,E,4,13,1.1,31.763,M,38.037,M,4.0,*79
$GPRMC,160307.00,A,3606.2179934,N,14005.1791835,E,0.01,0.00,220125,0.0,E,D*34
$GPGGA,160307.00,3606.2179934,N,14005.1791835,E,4,13,1.1,31.770,M,38.037,M,0.0,*7B
$GPRMC,160308.00,A,3606.2179956,N,14005.1791846,E,0.02,0.00,220125,0.0,E,D*38
$GPGGA,160308.00,3606.2179956,N,14005.1791846,E,4,13,1.1,31.770,M,38.037,M,1.0,*75
$GPRMC,160309.00,A,3606.2179956,N,14005.1791857,E,0.02,0.00,220125,0.0,E,D*39
$GPGGA,160309.00,3606.2179956,N,14005.1791857,E,4,13,1.1,31.774,M,38.037,M,2.0,*73
$GPRMC,160310.00,A,3606.2179954,N,14005.1791856,E,0.02,0.00,220125,0.0,E,D*32
$GPGGA,160310.00,3606.2179954,N,14005.1791856,E,4,13,1.1,31.777,M,38.037,M,3.0,*7A
$GPRMC,160311.00,A,3606.2179956,N,14005.1791855,E,0.02,0.00,220125,0.0,E,D*32
$GPGGA,160311.00,3606.2179956,N,14005.1791855,E,4,13,1.1,31.777,M,38.037,M,4.0,*7D
$GPRMC,160312.00,A,3606.2179944,N,14005.1791875,E,0.02,0.00,220125,0.0,E,D*30
$GPGGA,160312.00,3606.2179944,N,14005.1791875,E,4,13,1.1,31.784,M,38.037,M,0.0,*77
$GPRMC,160313.00,A,3606.2179972,N,14005.1791886,E,0.02,0.00,220125,0.0,E,D*38
$GPGGA,160313.00,3606.2179972,N,14005.1791886,E,4,13,1.1,31.778,M,38.037,M,1.0,*7D
$GPRMC,160314.00,A,3606.2179958,N,14005.1791880,E,0.01,0.00,220125,0.0,E,D*32
$GPGGA,160314.00,3606.2179958,N,14005.1791880,E,4,13,1.1,31.778,M,38.037,M,2.0,*77
$GPRMC,160315.00,A,3606.2179985,N,14005.1791899,E,0.01,0.00,220125,0.0,E,D*3B
$GPGGA,160315.00,3606.2179985,N,14005.1791899,E,4,13,1.1,31.778,M,38.037,M,3.0,*7F
$GPRMC,160316.00,A,3606.2179974,N,14005.1791922,E,0.02,0.00,220125,0.0,E,D*34
$GPGGA,160316.00,3606.2179974,N,14005.1791922,E,4,13,1.1,31.782,M,38.037,M,4.0,*71
$GPRMC,160317.00,A,3606.2179971,N,14005.1791886,E,0.03,0.00,220125,0.0,E,D*3E
$GPGGA,160317.00,3606.2179971,N,14005.1791886,E,4,13,1.1,31.776,M,38.037,M,0.0,*75
$GPRMC,160318.00,A,3606.2179957,N,14005.1791877,E,0.01,0.00,220125,0.0,E,D*39
$GPGGA,160318.00,3606.2179957,N,14005.1791877,E,4,13,1.1,31.777,M,38.037,M,1.0,*70
$GPRMC,160319.00,A,3606.2179990,N,14005.1791886,E,0.03,0.00,220125,0.0,E,D*3F
$GPGGA,160319.00,3606.2179990,N,14005.1791886,E,4,13,1.1,31.774,M,38.037,M,2.0,*74
$GPRMC,160320.00,A,3606.2180004,N,14005.1791921,E,0.02,0.00,220125,0.0,E,D*3A
$GPGGA,160320.00,3606.2180004,N,14005.1791921,E,4,13,1.1,31.778,M,38.037,M,3.0,*7D
$GPRMC,160321.00,A,3606.2179979,N,14005.1791906,E,0.01,0.00,220125,0.0,E,D*38
$GPGGA,160321.00,3606.2179979,N,14005.1791906,E,4,13,1.1,31.773,M,38.037,M,4.0,*70
$GPRMC,160322.00,A,3606.2179963,N,14005.1791883,E,0.02,0.00,220125,0.0,E,D*3F
$GPGGA,160322.00,3606.2179963,N,14005.1791883,E,4,13,1.1,31.779,M,38.037,M,0.0,*7A
$GPRMC,160323.00,A,3606.2179954,N,14005.1791865,E,0.02,0.00,220125,0.0,E,D*32
$GPGGA,160323.00,3606.2179954,N,14005.1791865,E,4,13,1.1,31.768,M,38.037,M,1.0,*76
$GPRMC,160324.00,A,3606.2179949,N,14005.1791879,E,0.01,0.00,220125,0.0,E,D*37
$GPGGA,160324.00,3606.2179949,N,14005.1791879,E,4,13,1.1,31.768,M,38.037,M,2.0,*73
$GPRMC,160325.00,A,3606.2179946,N,14005.1791876,E,0.02,0.00,220125,0.0,E,D*35
$GPGGA,160325.00,3606.2179946,N,14005.1791876,E,4,13,1.1,31.769,M,38.037,M,3.0,*72
$GPRMC,160326.00,A,3606.2179957,N,14005.1791878,E,0.02,0.00,220125,0.0,E,D*38
$GPGGA,160326.00,3606.2179957,N,14005.1791878,E,4,13,1.1,31.766,M,38.037,M,4.0,*77
$GPRMC,160327.00,A,3606.2179875,N,14005.1791799,E,0.02,0.00,220125,0.0,E,D*38
$GPGGA,160327.00,3606.2179875,N,14005.1791799,E,4,13,1.1,31.767,M,38.037,M,0.0,*72
$GPRMC,160328.00,A,3606.2179878,N,14005.1791786,E,0.04,0.00,220125,0.0,E,D*32
$GPGGA,160328.00,3606.2179878,N,14005.1791786,E,4,13,1.1,31.761,M,38.037,M,1.0,*79
$GPRMC,160329.00,A,3606.2179870,N,14005.1791804,E,0.02,0.00,220125,0.0,E,D*38
$GPGGA,160329.00,3606.2179870,N,14005.1791804,E,4,13,1.1,31.762,M,38.037,M,2.0,*75
$GPRMC,160330.00,A,3606.2179897,N,14005.1791815,E,0.02,0.00,220125,0.0,E,D*39
$GPGGA,160330.00,3606.2179897,N,14005.1791815,E,4,14,0.9,31.765,M,38.037,M,3.0,*7C
$GPRMC,160331.00,A,3606.2179876,N,14005.1791798,E,0.02,0.00,220125,0.0,E,D*3D
$GPGGA,160331.00,3606.2179876,N,14005.1791798,E,4,14,0.9,31.764,M,38.037,M,4.0,*7E
$GPRMC,160332.00,A,3606.2179872,N,14005.1791765,E,0.01,0.00,220125,0.0,E,D*3B
$GPGGA,160332.00,3606.2179872,N,14005.1791765,E,4,14,0.9,31.768,M,38.037,M,0.0,*73
$GPRMC,160333.00,A,3606.2179874,N,14005.1791769,E,0.01,0.00,220125,0.0,E,D*30
$GPGGA,160333.00,3606.2179874,N,14005.1791769,E,4,14,0.9,31.769,M,38.037,M,1.0,*78
$GPRMC,160334.00,A,3606.2179860,N,14005.1791752,E,0.01,0.00,220125,0.0,E,D*3A
$GPGGA,160334.00,3606.2179860,N,14005.1791752,E,4,14,0.9,31.769,M,38.037,M,2.0,*71
$GPRMC,160335.00,A,3606.2179871,N,14005.1791750,E,0.02,0.00,220125,0.0,E,D*3A
$GPGGA,160335.00,3606.2179871,N,14005.1791750,E,4,14,0.9,31.771,M,38.037,M,3.0,*7A
$GPRMC,160336.00,A,3606.2179857,N,14005.1791736,E,0.04,0.00,220125,0.0,E,D*3B
$GPGGA,160336.00,3606.2179857,N,14005.1791736,E,4,14,0.9,31.770,M,38.037,M,4.0,*7B
$GPRMC,160337.00,A,3606.2179860,N,14005.1791736,E,0.04,0.00,220125,0.0,E,D*3E
$GPGGA,160337.00,3606.2179860,N,14005.1791736,E,4,14,0.9,31.762,M,38.037,M,0.0,*79
$GPRMC,160338.00,A,3606.2179847,N,14005.1791736,E,0.02,0.00,220125,0.0,E,D*32
$GPGGA,160338.00,3606.2179847,N,14005.1791736,E,4,14,0.9,31.770,M,38.037,M,1.0,*71
$GPRMC,160339.00,A,3606.2179829,N,14005.1791727,E,0.02,0.00,220125,0.0,E,D*3B
$GPGGA,160339.00,3606.2179829,N,14005.1791727,E,4,14,0.9,31.771,M,38.037,M,2.0,*7A
$GPRMC,160340.00,A,3606.2179839,N,14005.1791720,E,0.03,0.00,220125,0.0,E,D*32
$GPGGA,160340.00,3606.2179839,N,14005.1791720,E,4,14,0.9,31.769,M,38.037,M,3.0,*7A
$GPRMC,160341.00,A,3606.2179811,N,14005.1791698,E,0.00,0.00,220125,0.0,E,D*38
$GPGGA,160341.00,3606.2179811,N,14005.1791698,E,4,14,0.9,31.776,M,38.037,M,4.0,*7A
$GPRMC,160342.00,A,3606.2179825,N,14005.1791738,E,0.02,0.00,220125,0.0,E,D*35
$GPGGA,160342.00,3606.2179825,N,14005.1791738,E,4,14,0.9,31.771,M,38.037,M,0.0,*76
$GPRMC,160343.00,A,3606.2179828,N,14005.1791731,E,0.02,0.00,220125,0.0,E,D*30
$GPGGA,160343.00,3606.2179828,N,14005.1791731,E,4,14,0.9,31.769,M,38.037,M,1.0,*7B
$GPRMC,160344.00,A,3606.2179847,N,14005.1791740,E,0.01,0.00,220125,0.0,E,D*3B
$GPGGA,160344.00,3606.2179847,N,14005.1791740,E,4,14,0.9,31.774,M,38.037,M,2.0,*7C
$GPRMC,160345.00,A,3606.2179829,N,14005.1791728,E,0.01,0.00,220125,0.0,E,D*3C
$GPGGA,160345.00,3606.2179829,N,14005.1791728,E,4,14,0.9,31.769,M,38.037,M,3.0,*76
$GPRMC,160346.00,A,3606.2179834,N,14005.1791730,E,0.02,0.00,220125,0.0,E,D*39
$GPGGA,160346.00,3606.2179834,N,14005.1791730,E,4,14,0.9,31.768,M,38.037,M,4.0,*76
$GPRMC,160347.00,A,3606.2179833,N,14005.1791750,E,0.02,0.00,220125,0.0,E,D*39
$GPGGA,160347.00,3606.2179833,N,14005.1791750,E,4,14,0.9,31.778,M,38.037,M,0.0,*73
$GPRMC,160348.00,A,3606.2179852,N,14005.1791759,E,0.03,0.00,220125,0.0,E,D*39
$GPGGA,160348.00,3606.2179852,N,14005.1791759,E,4,14,0.9,31.775,M,38.037,M,1.0,*7E
$GPRMC,160349.00,A,3606.2179840,N,14005.1791745,E,0.02,0.00,220125,0.0,E,D*37
$GPGGA,160349.00,3606.2179840,N,14005.1791745,E,4,14,0.9,31.772,M,38.037,M,2.0,*75
$GPRMC,160350.00,A,3606.2179828,N,14005.1791729,E,0.04,0.00,220125,0.0,E,D*3D
$GPGGA,160350.00,3606.2179828,N,14005.1791729,E,4,14,0.9,31.784,M,38.037,M,3.0,*71
$GPRMC,160351.00,A,3606.2179863,N,14005.1791728,E,0.01,0.00,220125,0.0,E,D*37
$GPGGA,160351.00,3606.2179863,N,14005.1791728,E,4,14,0.9,31.780,M,38.037,M,4.0,*7D
$GPRMC,160352.00,A,3606.2179884,N,14005.1791764,E,0.02,0.00,220125,0.0,E,D*36
$GPGGA,160352.00,3606.2179884,N,14005.1791764,E,4,14,0.9,31.782,M,38.037,M,0.0,*79
$GPRMC,160353.00,A,3606.2179885,N,14005.1791766,E,0.01,0.00,220125,0.0,E,D*37
$GPGGA,160353.00,3606.2179885,N,14005.1791766,E,4,14,0.9,31.776,M,38.037,M,1.0,*71
$GPRMC,160354.00,A,3606.2179870,N,14005.1791733,E,0.04,0.00,220125,0.0,E,D*3F
$GPGGA,160354.00,3606.2179870,N,14005.1791733,E,4,14,0.9,31.779,M,38.037,M,2.0,*70
$GPRMC,160355.00,A,3606.2179880,N,14005.1791746,E,0.04,0.00,220125,0.0,E,D*33
$GPGGA,160355.00,3606.2179880,N,14005.1791746,E,4,14,0.9,31.776,M,38.037,M,3.0,*72
$GPRMC,160356.00,A,3606.2179872,N,14005.1791741,E,0.00,0.00,220125,0.0,E,D*3E
$GPGGA,160356.00,3606.2179872,N,14005.1791741,E,4,14,0.9,31.778,M,38.037,M,4.0,*72
$GPRMC,160357.00,A,3606.2179890,N,14005.1791718,E,0.02,0.00,220125,0.0,E,D*3D
$GPGGA,160357.00,3606.2179890,N,14005.1791718,E,4,13,0.9,31.782,M,38.037,M,0.0,*75
$GPRMC,160358.00,A,3606.2179884,N,14005.1791696,E,0.02,0.00,220125,0.0,E,D*30
$GPGGA,160358.00,3606.2179884,N,14005.1791696,E,4,13,0.9,31.790,M,38.037,M,1.0,*7A
$GPRMC,160359.00,A,3606.2179893,N,14005.1791670,E,0.01,0.00,220125,0.0,E,D*3C
$GPGGA,160359.00,3606.2179893,N,14005.1791670,E,4,13,0.9,31.792,M,38.037,M,2.0,*74
$GPRMC,160400.00,A,3606.2179921,N,14005.1791657,E,0.03,0.00,220125,0.0,E,D*38
$GPGGA,160400.00,3606.2179921,N,14005.1791657,E,4,13,0.9,31.795,M,38.037,M,3.0,*74
$GPRMC,160401.00,A,3606.2179920,N,14005.1791679,E,0.03,0.00,220125,0.0,E,D*34
$GPGGA,160401.00,3606.2179920,N,14005.1791679,E,4,13,0.9,31.796,M,38.037,M,4.0,*7C
$GPRMC,160402.00,A,3606.2179955,N,14005.1791693,E,0.01,0.00,220125,0.0,E,D*33
$GPGGA,160402.00,3606.2179955,N,14005.1791693,E,4,13,0.9,31.797,M,38.037,M,0.0,*7C
$GPRMC,160403.00,A,3606.2179949,N,14005.1791691,E,0.01,0.00,220125,0.0,E,D*3D
$GPGGA,160403.00,3606.2179949,N,14005.1791691,E,4,13,0.9,31.799,M,38.037,M,1.0,*7D
$GPRMC,160404.00,A,3606.2179973,N,14005.1791723,E,0.02,0.00,220125,0.0,E,D*38
$GPGGA,160404.00,3606.2179973,N,14005.1791723,E,4,13,0.9,31.804,M,38.037,M,2.0,*73
$GPRMC,160405.00,A,3606.2179987,N,14005.1791704,E,0.02,0.00,220125,0.0,E,D*37
$GPGGA,160405.00,3606.2179987,N,14005.1791704,E,4,13,0.9,31.801,M,38.037,M,3.0,*78
$GPRMC,160406.00,A,3606.2179999,N,14005.1791732,E,0.02,0.00,220125,0.0,E,D*3E
$GPGGA,160406.00,3606.2179999,N,14005.1791732,E,4,13,0.9,31.798,M,38.037,M,4.0,*79
$GPRMC,160407.00,A,3606.2179987,N,14005.1791731,E,0.05,0.00,220125,0.0,E,D*34
$GPGGA,160407.00,3606.2179987,N,14005.1791731,E,4,13,0.9,31.797,M,38.037,M,0.0,*7F
$GPRMC,160408.00,A,3606.2179987,N,14005.1791717,E,0.02,0.00,220125,0.0,E,D*38
$GPGGA,160408.00,3606.2179987,N,14005.1791717,E,4,13,0.9,31.796,M,38.037,M,1.0,*74
$GPRMC,160409.00,A,3606.2179996,N,14005.1791725,E,0.01,0.00,220125,0.0,E,D*3B
$GPGGA,160409.00,3606.2179996,N,14005.1791725,E,4,13,0.9,31.798,M,38.037,M,2.0,*79
$GPRMC,160410.00,A,3606.2179995,N,14005.1791729,E,0.03,0.00,220125,0.0,E,D*3E
$GPGGA,160410.00,3606.2179995,N,14005.1791729,E,4,13,0.9,31.800,M,38.037,M,3.0,*71
$GPRMC,160411.00,A,3606.2179993,N,14005.1791726,E,0.01,0.00,220125,0.0,E,D*34
$GPGGA,160411.00,3606.2179993,N,14005.1791726,E,4,13,0.9,31.803,M,38.037,M,4.0,*7D
$GPRMC,160412.00,A,3606.2179990,N,14005.1791720,E,0.01,0.00,220125,0.0,E,D*32
$GPGGA,160412.00,3606.2179990,N,14005.1791720,E,4,13,0.9,31.799,M,38.037,M,0.0,*73
$GPRMC,160413.00,A,3606.2179982,N,14005.1791719,E,0.03,0.00,220125,0.0,E,D*38
$GPGGA,160413.00,3606.2179982,N,14005.1791719,E,4,13,0.9,31.802,M,38.037,M,1.0,*77
$GPRMC,160414.00,A,3606.2180001,N,14005.1791727,E,0.02,0.00,220125,0.0,E,D*37
$GPGGA,160414.00,3606.2180001,N,14005.1791727,E,4,13,0.9,31.795,M,38.037,M,2.0,*7B
$GPRMC,160415.00,A,3606.2179984,N,14005.1791730,E,0.02,0.00,220125,0.0,E,D*32
$GPGGA,160415.00,3606.2179984,N,14005.1791730,E,4,13,0.9,31.789,M,38.037,M,3.0,*72
$GPRMC,160416.00,A,3606.2179976,N,14005.1791736,E,0.04,0.00,220125,0.0,E,D*3C
$GPGGA,160416.00,3606.2179976,N,14005.1791736,E,4,13,0.9,31.792,M,38.037,M,4.0,*77
$GPRMC,160417.00,A,3606.2179952,N,14005.1791718,E,0.02,0.00,220125,0.0,E,D*31
$GPGGA,160417.00,3606.2179952,N,14005.1791718,E,4,13,0.9,31.782,M,38.037,M,0.0,*79
$GPRMC,160418.00,A,3606.2179969,N,14005.1791723,E,0.02,0.00,220125,0.0,E,D*3E
$GPGGA,160418.00,3606.2179969,N,14005.1791723,E,4,13,0.9,31.789,M,38.037,M,1.0,*7C
$GPRMC,160419.00,A,3606.2179961,N,14005.1791719,E,0.03,0.00,220125,0.0,E,D*3F
$GPGGA,160419.00,3606.2179961,N,14005.1791719,E,4,13,0.9,31.786,M,38.037,M,2.0,*70
$GPRMC,160420.00,A,3606.2179952,N,14005.1791696,E,0.01,0.00,220125,0.0,E,D*31
$GPGGA,160420.00,3606.2179952,N,14005.1791696,E,4,13,0.9,31.789,M,38.037,M,3.0,*72
$GPRMC,160421.00,A,3606.2179946,N,14005.1791694,E,0.02,0.00,220125,0.0,E,D*34
$GPGGA,160421.00,3606.2179946,N,14005.1791694,E,4,13,0.9,31.789,M,38.037,M,4.0,*73
$GPRMC,160422.00,A,3606.2179942,N,14005.1791687,E,0.01,0.00,220125,0.0,E,D*32
$GPGGA,160422.00,3606.2179942,N,14005.1791687,E,4,13,0.9,31.790,M,38.037,M,0.0,*7A
$GPRMC,160423.00,A,3606.2179937,N,14005.1791703,E,0.02,0.00,220125,0.0,E,D*3F
$GPGGA,160423.00,3606.2179937,N,14005.1791703,E,4,13,0.9,31.787,M,38.037,M,1.0,*73
$GPRMC,160424.00,A,3606.2179962,N,14005.1791711,E,0.02,0.00,220125,0.0,E,D*3B
$GPGGA,160424.00,3606.2179962,N,14005.1791711,E,4,13,0.9,31.784,M,38.037,M,2.0,*77
$GPRMC,160425.00,A,3606.2179953,N,14005.1791717,E,0.04,0.00,220125,0.0,E,D*38
$GPGGA,160425.00,3606.2179953,N,14005.1791717,E,4,13,0.9,31.782,M,38.037,M,3.0,*75
$GPRMC,160426.00,A,3606.2179963,N,14005.1791729,E,0.02,0.00,220125,0.0,E,D*33
$GPGGA,160426.00,3606.2179963,N,14005.1791729,E,4,13,0.9,31.782,M,38.037,M,4.0,*7F
$GPRMC,160427.00,A,3606.2179908,N,14005.1791784,E,0.02,0.00,220125,0.0,E,D*38
$GPGGA,160427.00,3606.2179908,N,14005.1791784,E,4,13,0.9,31.769,M,38.037,M,0.0,*75
$GPRMC,160428.00,A,3606.2179923,N,14005.1791779,E,0.02,0.00,220125,0.0,E,D*3C
$GPGGA,160428.00,3606.2179923,N,14005.1791779,E,4,13,0.9,31.770,M,38.037,M,1.0,*78
$GPRMC,160429.00,A,3606.2179939,N,14005.1791776,E,0.01,0.00,220125,0.0,E,D*3A
$GPGGA,160429.00,3606.2179939,N,14005.1791776,E,4,13,0.9,31.775,M,38.037,M,2.0,*7B
$GPRMC,160430.00,A,3606.2179950,N,14005.1791758,E,0.02,0.00,220125,0.0,E,D*32
$GPGGA,160430.00,3606.2179950,N,14005.1791758,E,4,13,0.9,31.770,M,38.037,M,3.0,*74
$GPRMC,160431.00,A,3606.2179955,N,14005.1791771,E,0.01,0.00,220125,0.0,E,D*3E
$GPGGA,160431.00,3606.2179955,N,14005.1791771,E,4,13,0.9,31.770,M,38.037,M,4.0,*7C
$GPRMC,160432.00,A,3606.2179931,N,14005.1791759,E,0.01,0.00,220125,0.0,E,D*35
$GPGGA,160432.00,3606.2179931,N,14005.1791759,E,4,13,0.9,31.768,M,38.037,M,0.0,*7A
$GPRMC,160433.00,A,3606.2179940,N,14005.1791779,E,0.03,0.00,220125,0.0,E,D*32
$GPGGA,160433.00,3606.2179940,N,14005.1791779,E,4,13,0.9,31.764,M,38.037,M,1.0,*72
$GPRMC,160434.00,A,3606.2179956,N,14005.1791802,E,0.02,0.00,220125,0.0,E,D*30
$GPGGA,160434.00,3606.2179956,N,14005.1791802,E,4,13,0.9,31.764,M,38.037,M,2.0,*72
$GPRMC,160435.00,A,3606.2179960,N,14005.1791800,E,0.02,0.00,220125,0.0,E,D*36
$GPGGA,160435.00,3606.2179960,N,14005.1791800,E,4,13,0.9,31.767,M,38.037,M,3.0,*76
$GPRMC,160436.00,A,3606.2179979,N,14005.1791832,E,0.02,0.00,220125,0.0,E,D*3C
$GPGGA,160436.00,3606.2179979,N,14005.1791832,E,4,13,0.9,31.760,M,38.037,M,4.0,*7C
$GPRMC,160437.00,A,3606.2179959,N,14005.1791835,E,0.03,0.00,220125,0.0,E,D*39
$GPGGA,160437.00,3606.2179959,N,14005.1791835,E,4,13,0.9,31.768,M,38.037,M,0.0,*74
$GPRMC,160438.00,A,3606.2179976,N,14005.1791838,E,0.01,0.00,220125,0.0,E,D*34
$GPGGA,160438.00,3606.2179976,N,14005.1791838,E,4,13,0.9,31.761,M,38.037,M,1.0,*73
$GPRMC,160439.00,A,3606.2179980,N,14005.1791847,E,0.02,0.00,220125,0.0,E,D*37
$GPGGA,160439.00,3606.2179980,N,14005.1791847,E,4,13,0.9,31.754,M,38.037,M,2.0,*76
$GPRMC,160440.00,A,3606.2179976,N,14005.1791840,E,0.02,0.00,220125,0.0,E,D*37
$GPGGA,160440.00,3606.2179976,N,14005.1791840,E,4,13,0.9,31.763,M,38.037,M,3.0,*73
$GPRMC,160441.00,A,3606.2179987,N,14005.1791849,E,0.01,0.00,220125,0.0,E,D*32
$GPGGA,160441.00,3606.2179987,N,14005.1791849,E,4,13,0.9,31.756,M,38.037,M,4.0,*74
$GPRMC,160442.00,A,3606.2180010,N,14005.1791861,E,0.02,0.00,220125,0.0,E,D*39
$GPGGA,160442.00,3606.2180010,N,14005.1791861,E,4,13,0.9,31.761,M,38.037,M,0.0,*7C
$GPRMC,160443.00,A,3606.2179995,N,14005.1791862,E,0.03,0.00,220125,0.0,E,D*38
$GPGGA,160443.00,3606.2179995,N,14005.1791862,E,4,13,0.9,31.760,M,38.037,M,1.0,*7C
$GPRMC,160444.00,A,3606.2180002,N,14005.1791863,E,0.01,0.00,220125,0.0,E,D*3D
$GPGGA,160444.00,3606.2180002,N,14005.1791863,E,4,13,0.9,31.760,M,38.037,M,2.0,*78
$GPRMC,160445.00,A,3606.2179984,N,14005.1791860,E,0.03,0.00,220125,0.0,E,D*3C
$GPGGA,160445.00,3606.2179984,N,14005.1791860,E,4,13,0.9,31.763,M,38.037,M,3.0,*79
$GPRMC,160446.00,A,3606.2179989,N,14005.1791876,E,0.02,0.00,220125,0.0,E,D*34
$GPGGA,160446.00,3606.2179989,N,14005.1791876,E,4,13,0.9,31.758,M,38.037,M,4.0,*7F
$GPRMC,160447.00,A,3606.2179956,N,14005.1791830,E,0.02,0.00,220125,0.0,E,D*35
$GPGGA,160447.00,3606.2179956,N,14005.1791830,E,4,13,0.9,31.770,M,38.037,M,0.0,*70
$GPRMC,160448.00,A,3606.2179940,N,14005.1791839,E,0.02,0.00,220125,0.0,E,D*34
$GPGGA,160448.00,3606.2179940,N,14005.1791839,E,4,13,0.9,31.765,M,38.037,M,1.0,*74
$GPRMC,160449.00,A,3606.2179937,N,14005.1791829,E,0.03,0.00,220125,0.0,E,D*35
$GPGGA,160449.00,3606.2179937,N,14005.1791829,E,4,13,0.9,31.761,M,38.037,M,2.0,*73
$GPRMC,160450.00,A,3606.2179954,N,14005.1791831,E,0.02,0.00,220125,0.0,E,D*30
$GPGGA,160450.00,3606.2179954,N,14005.1791831,E,4,13,0.9,31.764,M,38.037,M,3.0,*73
$GPRMC,160451.00,A,3606.2179959,N,14005.1791833,E,0.04,0.00,220125,0.0,E,D*38
$GPGGA,160451.00,3606.2179959,N,14005.1791833,E,4,13,0.9,31.763,M,38.037,M,4.0,*7D
$GPRMC,160452.00,A,3606.2179932,N,14005.1791756,E,0.02,0.00,220125,0.0,E,D*3C
$GPGGA,160452.00,3606.2179932,N,14005.1791756,E,4,13,0.9,31.782,M,38.037,M,0.0,*74
$GPRMC,160453.00,A,3606.2179926,N,14005.1791777,E,0.01,0.00,220125,0.0,E,D*38
$GPGGA,160453.00,3606.2179926,N,14005.1791777,E,4,13,0.9,31.776,M,38.037,M,1.0,*79
$GPRMC,160454.00,A,3606.2179905,N,14005.1791770,E,0.02,0.00,220125,0.0,E,D*3A
$GPGGA,160454.00,3606.2179905,N,14005.1791770,E,4,13,0.9,31.777,M,38.037,M,2.0,*7A
$GPRMC,160455.00,A,3606.2179908,N,14005.1791768,E,0.05,0.00,220125,0.0,E,D*38
$GPGGA,160455.00,3606.2179908,N,14005.1791768,E,4,13,0.9,31.775,M,38.037,M,3.0,*7C
$GPRMC,160456.00,A,3606.2179909,N,14005.1791770,E,0.01,0.00,220125,0.0,E,D*37
$GPGGA,160456.00,3606.2179909,N,14005.1791770,E,4,13,0.9,31.778,M,38.037,M,4.0,*7D
$GPRMC,160457.00,A,3606.2179943,N,14005.1791755,E,0.03,0.00,220125,0.0,E,D*3D
$GPGGA,160457.00,3606.2179943,N,14005.1791755,E,4,13,0.9,31.784,M,38.037,M,0.0,*72
$GPRMC,160458.00,A,3606.2179942,N,14005.1791754,E,0.03,0.00,220125,0.0,E,D*32
$GPGGA,160458.00,3606.2179942,N,14005.1791754,E,4,13,0.9,31.779,M,38.037,M,1.0,*7E
$GPRMC,160459.00,A,3606.2179927,N,14005.1791759,E,0.02,0.00,220125,0.0,E,D*3C
$GPGGA,160459.00,3606.2179927,N,14005.1791759,E,4,13,0.9,31.777,M,38.037,M,2.0,*7C
$GPRMC,160500.00,A,3606.2179927,N,14005.1791756,E,0.02,0.00,220125,0.0,E,D*3E
$GPGGA,160500.00,3606.2179927,N,14005.1791756,E,4,13,0.9,31.782,M,38.037,M,3.0,*75
$GPRMC,160501.00,A,3606.2179915,N,14005.1791766,E,0.02,0.00,220125,0.0,E,D*3D
$GPGGA,160501.00,3606.2179915,N,14005.1791766,E,4,13,0.9,31.783,M,38.037,M,4.0,*70
$GPRMC,160502.00,A,3606.2179881,N,14005.1791737,E,0.01,0.00,220125,0.0,E,D*35
$GPGGA,160502.00,3606.2179881,N,14005.1791737,E,4,13,0.9,31.788,M,38.037,M,0.0,*74
$GPRMC,160503.00,A,3606.2179889,N,14005.1791715,E,0.01,0.00,220125,0.0,E,D*3C
$GPGGA,160503.00,3606.2179889,N,14005.1791715,E,4,13,0.9,31.779,M,38.037,M,1.0,*72
$GPRMC,160504.00,A,3606.2179887,N,14005.1791743,E,0.03,0.00,220125,0.0,E,D*34
$GPGGA,160504.00,3606.2179887,N,14005.1791743,E,4,13,0.9,31.783,M,38.037,M,2.0,*7E
$GPRMC,160505.00,A,3606.2179873,N,14005.1791718,E,0.03,0.00,220125,0.0,E,D*30
$GPGGA,160505.00,3606.2179873,N,14005.1791718,E,4,13,0.9,31.796,M,38.037,M,3.0,*7F
$GPRMC,160506.00,A,3606.2179871,N,14005.1791723,E,0.03,0.00,220125,0.0,E,D*39
$GPGGA,160506.00,3606.2179871,N,14005.1791723,E,4,13,0.9,31.795,M,38.037,M,4.0,*72
$GPRMC,160507.00,A,3606.2179871,N,14005.1791694,E,0.02,0.00,220125,0.0,E,D*34
$GPGGA,160507.00,3606.2179871,N,14005.1791694,E,4,13,0.9,31.795,M,38.037,M,0.0,*7A
$GPRMC,160508.00,A,3606.2179880,N,14005.1791694,E,0.02,0.00,220125,0.0,E,D*35
$GPGGA,160508.00,3606.2179880,N,14005.1791694,E,4,13,0.9,31.795,M,38.037,M,1.0,*7A
$GPRMC,160509.00,A,3606.2179863,N,14005.1791692,E,0.03,0.00,220125,0.0,E,D*3E
$GPGGA,160509.00,3606.2179863,N,14005.1791692,E,4,13,0.9,31.797,M,38.037,M,2.0,*71
$GPRMC,160510.00,A,3606.2179876,N,14005.1791695,E,0.01,0.00,220125,0.0,E,D*37
$GPGGA,160510.00,3606.2179876,N,14005.1791695,E,4,13,0.9,31.799,M,38.037,M,3.0,*75
$GPRMC,160511.00,A,3606.2179876,N,14005.1791706,E,0.03,0.00,220125,0.0,E,D*3F
$GPGGA,160511.00,3606.2179876,N,14005.1791706,E,4,13,0.9,31.794,M,38.037,M,4.0,*75
$GPRMC,160512.00,A,3606.2179861,N,14005.1791700,E,0.02,0.00,220125,0.0,E,D*3D
$GPGGA,160512.00,3606.2179861,N,14005.1791700,E,4,13,0.9,31.799,M,38.037,M,0.0,*7F
$GPRMC,160513.00,A,3606.2179872,N,14005.1791709,E,0.02,0.00,220125,0.0,E,D*37
$GPGGA,160513.00,3606.2179872,N,14005.1791709,E,4,13,0.9,31.803,M,38.037,M,1.0,*78
$GPRMC,160514.00,A,3606.2179891,N,14005.1791703,E,0.02,0.00,220125,0.0,E,D*37
$GPGGA,160514.00,3606.2179891,N,14005.1791703,E,4,13,0.9,31.810,M,38.037,M,2.0,*79
$GPRMC,160515.00,A,3606.2179883,N,14005.1791742,E,0.02,0.00,220125,0.0,E,D*30
$GPGGA,160515.00,3606.2179883,N,14005.1791742,E,4,13,0.9,31.813,M,38.037,M,3.0,*7C
$GPRMC,160516.00,A,3606.2179920,N,14005.1791732,E,0.02,0.00,220125,0.0,E,D*3C
$GPGGA,160516.00,3606.2179920,N,14005.1791732,E,4,13,0.9,31.808,M,38.037,M,4.0,*7D
$GPRMC,160517.00,A,3606.2179924,N,14005.1791745,E,0.02,0.00,220125,0.0,E,D*39
$GPGGA,160517.00,3606.2179924,N,14005.1791745,E,4,13,0.9,31.796,M,38.037,M,0.0,*74
$GPRMC,160518.00,A,3606.2179931,N,14005.1791771,E,0.02,0.00,220125,0.0,E,D*35
$GPGGA,160518.00,3606.2179931,N,14005.1791771,E,4,13,0.9,31.805,M,38.037,M,1.0,*7C
$GPRMC,160519.00,A,3606.2179929,N,14005.1791755,E,0.02,0.00,220125,0.0,E,D*3B
$GPGGA,160519.00,3606.2179929,N,14005.1791755,E,4,13,0.9,31.806,M,38.037,M,2.0,*72
$GPRMC,160520.00,A,3606.2179951,N,14005.1791763,E,0.02,0.00,220125,0.0,E,D*3B
$GPGGA,160520.00,3606.2179951,N,14005.1791763,E,4,13,0.9,31.796,M,38.037,M,3.0,*75
$GPRMC,160521.00,A,3606.2179958,N,14005.1791774,E,0.02,0.00,220125,0.0,E,D*35
$GPGGA,160521.00,3606.2179958,N,14005.1791774,E,4,13,0.9,31.802,M,38.037,M,4.0,*7E
$GPRMC,160522.00,A,3606.2179952,N,14005.1791758,E,0.02,0.00,220125,0.0,E,D*32
$GPGGA,160522.00,3606.2179952,N,14005.1791758,E,4,13,0.9,31.794,M,38.037,M,0.0,*7D
$GPRMC,160523.00,A,3606.2179955,N,14005.1791775,E,0.02,0.00,220125,0.0,E,D*3B
$GPGGA,160523.00,3606.2179955,N,14005.1791775,E,4,13,0.9,31.792,M,38.037,M,1.0,*73
$GPRMC,160524.00,A,3606.2179966,N,14005.1791780,E,0.01,0.00,220125,0.0,E,D*35
$GPGGA,160524.00,3606.2179966,N,14005.1791780,E,4,13,0.9,31.797,M,38.037,M,2.0,*78
$GPRMC,160525.00,A,3606.2179954,N,14005.1791760,E,0.03,0.00,220125,0.0,E,D*39
$GPGGA,160525.00,3606.2179954,N,14005.1791760,E,4,13,0.9,31.800,M,38.037,M,3.0,*76
$GPRMC,160526.00,A,3606.2179980,N,14005.1791752,E,0.03,0.00,220125,0.0,E,D*32
$GPGGA,160526.00,3606.2179980,N,14005.1791752,E,4,13,0.9,31.796,M,38.037,M,4.0,*7A
$GPRMC,160527.00,A,3606.2180009,N,14005.1791741,E,0.02,0.00,220125,0.0,E,D*3E
$GPGGA,160527.00,3606.2180009,N,14005.1791741,E,4,13,0.9,31.798,M,38.037,M,0.0,*7D
$GPRMC,160528.00,A,3606.2179994,N,14005.1791694,E,0.03,0.00,220125,0.0,E,D*32
$GPGGA,160528.00,3606.2179994,N,14005.1791694,E,4,13,0.9,31.791,M,38.037,M,1.0,*78
$GPRMC,160529.00,A,3606.2179990,N,14005.1791681,E,0.03,0.00,220125,0.0,E,D*33
$GPGGA,160529.00,3606.2179990,N,14005.1791681,E,4,13,0.9,31.788,M,38.037,M,2.0,*72
$GPRMC,160530.00,A,3606.2179973,N,14005.1791667,E,0.02,0.00,220125,0.0,E,D*3F
$GPGGA,160530.00,3606.2179973,N,14005.1791667,E,4,13,0.9,31.788,M,38.037,M,3.0,*7E
$GPRMC,160531.00,A,3606.2179990,N,14005.1791670,E,0.01,0.00,220125,0.0,E,D*36
$GPGGA,160531.00,3606.2179990,N,14005.1791670,E,4,13,0.9,31.785,M,38.037,M,4.0,*7E
$GPRMC,160532.00,A,3606.2179942,N,14005.1791647,E,0.02,0.00,220125,0.0,E,D*3D
$GPGGA,160532.00,3606.2179942,N,14005.1791647,E,4,13,0.9,31.780,M,38.037,M,0.0,*77
$GPRMC,160533.00,A,3606.2179964,N,14005.1791650,E,0.01,0.00,220125,0.0,E,D*3D
$GPGGA,160533.00,3606.2179964,N,14005.1791650,E,4,13,0.9,31.777,M,38.037,M,1.0,*7D
$GPRMC,160534.00,A,3606.2179969,N,14005.1791644,E,0.02,0.00,220125,0.0,E,D*31
$GPGGA,160534.00,3606.2179969,N,14005.1791644,E,4,13,0.9,31.782,M,38.037,M,2.0,*7B
$GPRMC,160535.00,A,3606.2179941,N,14005.1791654,E,0.02,0.00,220125,0.0,E,D*3B
$GPGGA,160535.00,3606.2179941,N,14005.1791654,E,4,13,0.9,31.780,M,38.037,M,3.0,*72
$GPRMC,160536.00,A,3606.2179953,N,14005.1791633,E,0.02,0.00,220125,0.0,E,D*3A
$GPGGA,160536.00,3606.2179953,N,14005.1791633,E,4,13,0.9,31.791,M,38.037,M,4.0,*74
$GPRMC,160537.00,A,3606.2179929,N,14005.1791646,E,0.02,0.00,220125,0.0,E,D*34
$GPGGA,160537.00,3606.2179929,N,14005.1791646,E,4,13,0.9,31.782,M,38.037,M,0.0,*7C
$GPRMC,160538.00,A,3606.2179916,N,14005.1791629,E,0.03,0.00,220125,0.0,E,D*3F
$GPGGA,160538.00,3606.2179916,N,14005.1791629,E,4,13,0.9,31.776,M,38.037,M,1.0,*7C
$GPRMC,160539.00,A,3606.2179913,N,14005.1791647,E,0.02,0.00,220125,0.0,E,D*32
$GPGGA,160539.00,3606.2179913,N,14005.1791647,E,4,13,0.9,31.788,M,38.037,M,2.0,*72
$GPRMC,160540.00,A,3606.2179909,N,14005.1791641,E,0.03,0.00,220125,0.0,E,D*30
$GPGGA,160540.00,3606.2179909,N,14005.1791641,E,4,13,0.9,31.787,M,38.037,M,3.0,*7F
$GPRMC,160541.00,A,3606.2179915,N,14005.1791634,E,0.01,0.00,220125,0.0,E,D*3C
$GPGGA,160541.00,3606.2179915,N,14005.1791634,E,4,13,0.9,31.782,M,38.037,M,4.0,*73
$GPRMC,160542.00,A,3606.2179894,N,14005.1791631,E,0.01,0.00,220125,0.0,E,D*32
$GPGGA,160542.00,3606.2179894,N,14005.1791631,E,4,13,0.9,31.787,M,38.037,M,0.0,*7C
$GPRMC,160543.00,A,3606.2179903,N,14005.1791636,E,0.02,0.00,220125,0.0,E,D*38
$GPGGA,160543.00,3606.2179903,N,14005.1791636,E,4,13,0.9,31.784,M,38.037,M,1.0,*77
$GPRMC,160544.00,A,3606.2179925,N,14005.1791649,E,0.02,0.00,220125,0.0,E,D*33
$GPGGA,160544.00,3606.2179925,N,14005.1791649,E,4,13,0.9,31.791,M,38.037,M,2.0,*7B
$GPRMC,160545.00,A,3606.2179897,N,14005.1791593,E,0.01,0.00,220125,0.0,E,D*3D
$GPGGA,160545.00,3606.2179897,N,14005.1791593,E,4,13,0.9,31.793,M,38.037,M,3.0,*75
$GPRMC,160546.00,A,3606.2179915,N,14005.1791611,E,0.02,0.00,220125,0.0,E,D*3F
$GPGGA,160546.00,3606.2179915,N,14005.1791611,E,4,13,0.9,31.788,M,38.037,M,4.0,*79
$GPRMC,160547.00,A,3606.2179922,N,14005.1791648,E,0.03,0.00,220125,0.0,E,D*37
$GPGGA,160547.00,3606.2179922,N,14005.1791648,E,4,13,0.9,31.796,M,38.037,M,0.0,*7B
$GPRMC,160548.00,A,3606.2179952,N,14005.1791647,E,0.04,0.00,220125,0.0,E,D*37
$GPGGA,160548.00,3606.2179952,N,14005.1791647,E,4,13,0.9,31.792,M,38.037,M,1.0,*79
$GPRMC,160549.00,A,3606.2179941,N,14005.1791644,E,0.03,0.00,220125,0.0,E,D*30
$GPGGA,160549.00,3606.2179941,N,14005.1791644,E,4,13,0.9,31.799,M,38.037,M,2.0,*71
$GPRMC,160550.00,A,3606.2179919,N,14005.1791659,E,0.02,0.00,220125,0.0,E,D*38
$GPGGA,160550.00,3606.2179919,N,14005.1791659,E,4,13,0.9,31.794,M,38.037,M,3.0,*74
$GPRMC,160551.00,A,3606.2179914,N,14005.1791673,E,0.01,0.00,220125,0.0,E,D*3F
$GPGGA,160551.00,3606.2179914,N,14005.1791673,E,4,13,0.9,31.789,M,38.037,M,4.0,*7B
$GPRMC,160552.00,A,3606.2179922,N,14005.1791714,E,0.01,0.00,220125,0.0,E,D*39
$GPGGA,160552.00,3606.2179922,N,14005.1791714,E,4,13,0.9,31.783,M,38.037,M,0.0,*73
$GPRMC,160553.00,A,3606.2179922,N,14005.1791726,E,0.03,0.00,220125,0.0,E,D*3B
$GPGGA,160553.00,3606.2179922,N,14005.1791726,E,4,13,0.9,31.788,M,38.037,M,1.0,*79
$GPRMC,160554.00,A,3606.2179910,N,14005.1791720,E,0.02,0.00,220125,0.0,E,D*3A
