$GPRMC,160002.00,A,3606.2180069,N,14005.1791604,E,0.10,0.00,270819,0.0,E,D*3A
$GPGGA,160002.00,3606.2180069,N,14005.1791604,E,5,11,1.1,32.072,M,38.037,M,0.0,*73
$GPRMC,160003.00,A,3606.2180504,N,14005.1791239,E,0.04,0.00,270819,0.0,E,D*3A
$GPGGA,160003.00,3606.2180504,N,14005.1791239,E,5,11,1.1,31.751,M,38.037,M,1.0,*72
$GPRMC,160004.00,A,3606.2180200,N,14005.1790868,E,0.08,0.00,270819,0.0,E,D*3D
$GPGGA,160004.00,3606.2180200,N,14005.1790868,E,5,11,1.1,31.597,M,38.037,M,2.0,*72
$GPRMC,160005.00,A,3606.2180050,N,14005.1790831,E,0.03,0.00,270819,0.0,E,D*3C
$GPGGA,160005.00,3606.2180050,N,14005.1790831,E,5,11,1.1,31.604,M,38.037,M,3.0,*70
$GPRMC,160006.00,A,3606.2179942,N,14005.1790655,E,0.02,0.00,270819,0.0,E,D*3E
$GPGGA,160006.00,3606.2179942,N,14005.1790655,E,5,11,1.1,31.635,M,38.037,M,4.0,*76
$GPRMC,160007.00,A,3606.2180192,N,14005.1791094,E,0.04,0.00,270819,0.0,E,D*30
$GPGGA,160007.00,3606.2180192,N,14005.1791094,E,4,11,1.1,31.759,M,38.037,M,0.0,*70
$GPRMC,160008.00,A,3606.2180199,N,14005.1791056,E,0.03,0.00,270819,0.0,E,D*3D
$GPGGA,160008.00,3606.2180199,N,14005.1791056,E,4,11,1.1,31.752,M,38.037,M,1.0,*70
$GPRMC,160009.00,A,3606.2180182,N,14005.1791087,E,0.04,0.00,270819,0.0,E,D*3D
$GPGGA,160009.00,3606.2180182,N,14005.1791087,E,4,11,1.1,31.766,M,38.037,M,2.0,*73
$GPRMC,160010.00,A,3606.2180181,N,14005.1791085,E,0.04,0.00,270819,0.0,E,D*34
$GPGGA,160010.00,3606.2180181,N,14005.1791085,E,4,11,1.1,31.755,M,38.037,M,3.0,*7B
$GPRMC,160011.00,A,3606.2180170,N,14005.1791079,E,0.05,0.00,270819,0.0,E,D*39
$GPGGA,160011.00,3606.2180170,N,14005.1791079,E,4,11,1.1,31.751,M,38.037,M,4.0,*74
$GPRMC,160012.00,A,3606.2180174,N,14005.1791083,E,0.07,0.00,270819,0.0,E,D*39
$GPGGA,160012.00,3606.2180174,N,14005.1791083,E,4,11,1.1,31.764,M,38.037,M,0.0,*74
$GPRMC,160013.00,A,3606.2180171,N,14005.1791072,E,0.01,0.00,270819,0.0,E,D*35
$GPGGA,160013.00,3606.2180171,N,14005.1791072,E,4,11,1.1,31.774,M,38.037,M,1.0,*7E
$GPRMC,160014.00,A,3606.2180172,N,14005.1791067,E,0.06,0.00,270819,0.0,E,D*32
$GPGGA,160014.00,3606.2180172,N,14005.1791067,E,4,11,1.1,31.766,M,38.037,M,2.0,*7E
$GPRMC,160015.00,A,3606.2180191,N,14005.1791055,E,0.09,0.00,270819,0.0,E,D*30
$GPGGA,160015.00,3606.2180191,N,14005.1791055,E,4,11,1.1,31.771,M,38.037,M,3.0,*74
$GPRMC,160016.00,A,3606.2180167,N,14005.1791043,E,0.12,0.00,270819,0.0,E,D*37
$GPGGA,160016.00,3606.2180167,N,14005.1791043,E,4,11,1.1,31.764,M,38.037,M,4.0,*7A
$GPRMC,160017.00,A,3606.2180170,N,14005.1791065,E,0.03,0.00,270819,0.0,E,D*34
$GPGGA,160017.00,3606.2180170,N,14005.1791065,E,4,11,1.1,31.764,M,38.037,M,0.0,*7D
$GPRMC,160018.00,A,3606.2180178,N,14005.1791052,E,0.03,0.00,270819,0.0,E,D*37
$GPGGA,160018.00,3606.2180178,N,14005.1791052,E,4,11,1.1,31.777,M,38.037,M,1.0,*7D
$GPRMC,160019.00,A,3606.2180173,N,14005.1791046,E,0.04,0.00,270819,0.0,E,D*3F
$GPGGA,160019.00,3606.2180173,N,14005.1791046,E,4,11,1.1,31.767,M,38.037,M,2.0,*70
$GPRMC,160020.00,A,3606.2180176,N,14005.1791038,E,0.06,0.00,270819,0.0,E,D*3B
$GPGGA,160020.00,3606.2180176,N,14005.1791038,E,4,11,1.1,31.765,M,38.037,M,3.0,*75
$GPRMC,160021.00,A,3606.2180199,N,14005.1791028,E,0.02,0.00,270819,0.0,E,D*3E
$GPGGA,160021.00,3606.2180199,N,14005.1791028,E,4,11,1.1,31.773,M,38.037,M,4.0,*74
$GPRMC,160022.00,A,3606.2180168,N,14005.1791038,E,0.03,0.00,270819,0.0,E,D*33
$GPGGA,160022.00,3606.2180168,N,14005.1791038,E,4,11,1.1,31.773,M,38.037,M,0.0,*7C
$GPRMC,160023.00,A,3606.2180178,N,14005.1791034,E,0.04,0.00,270819,0.0,E,D*38
$GPGGA,160023.00,3606.2180178,N,14005.1791034,E,4,11,1.1,31.773,M,38.037,M,1.0,*71
$GPRMC,160024.00,A,3606.2180195,N,14005.1791008,E,0.05,0.00,270819,0.0,E,D*32
$GPGGA,160024.00,3606.2180195,N,14005.1791008,E,4,11,1.1,31.764,M,38.037,M,2.0,*7F
$GPRMC,160025.00,A,3606.2180182,N,14005.1791019,E,0.09,0.00,270819,0.0,E,D*39
$GPGGA,160025.00,3606.2180182,N,14005.1791019,E,4,11,1.1,31.773,M,38.037,M,3.0,*7F
$GPRMC,160026.00,A,3606.2180161,N,14005.1791013,E,0.02,0.00,270819,0.0,E,D*36
$GPGGA,160026.00,3606.2180161,N,14005.1791013,E,4,11,1.1,31.769,M,38.037,M,4.0,*77
$GPRMC,160027.00,A,3606.2180191,N,14005.1791067,E,0.07,0.00,270819,0.0,E,D*3E
$GPGGA,160027.00,3606.2180191,N,14005.1791067,E,4,11,1.1,31.781,M,38.037,M,0.0,*78
$GPRMC,160028.00,A,3606.2180186,N,14005.1791060,E,0.04,0.00,270819,0.0,E,D*33
$GPGGA,160028.00,3606.2180186,N,14005.1791060,E,4,11,1.1,31.773,M,38.037,M,1.0,*7A
$GPRMC,160029.00,A,3606.2180218,N,14005.1791070,E,0.02,0.00,270819,0.0,E,D*31
$GPGGA,160029.00,3606.2180218,N,14005.1791070,E,4,11,1.1,31.767,M,38.037,M,2.0,*78
$GPRMC,160030.00,A,3606.2180212,N,14005.1791035,E,0.02,0.00,270819,0.0,E,D*32
$GPGGA,160030.00,3606.2180212,N,14005.1791035,E,4,11,1.1,31.786,M,38.037,M,3.0,*75
$GPRMC,160031.00,A,3606.2180202,N,14005.1791049,E,0.01,0.00,270819,0.0,E,D*3A
$GPGGA,160031.00,3606.2180202,N,14005.1791049,E,4,11,1.1,31.778,M,38.037,M,4.0,*78
$GPRMC,160032.00,A,3606.2180219,N,14005.1791083,E,0.01,0.00,270819,0.0,E,D*35
$GPGGA,160032.00,3606.2180219,N,14005.1791083,E,4,11,1.1,31.781,M,38.037,M,0.0,*75
$GPRMC,160033.00,A,3606.2180209,N,14005.1791067,E,0.05,0.00,270819,0.0,E,D*3B
$GPGGA,160033.00,3606.2180209,N,14005.1791067,E,4,11,1.1,31.768,M,38.037,M,1.0,*79
$GPRMC,160034.00,A,3606.2180245,N,14005.1791051,E,0.02,0.00,270819,0.0,E,D*36
$GPGGA,160034.00,3606.2180245,N,14005.1791051,E,4,11,1.1,31.760,M,38.037,M,2.0,*78
$GPRMC,160035.00,A,3606.2180230,N,14005.1791053,E,0.02,0.00,270819,0.0,E,D*37
$GPGGA,160035.00,3606.2180230,N,14005.1791053,E,4,11,1.1,31.769,M,38.037,M,3.0,*71
$GPRMC,160036.00,A,3606.2180235,N,14005.1791068,E,0.03,0.00,270819,0.0,E,D*38
$GPGGA,160036.00,3606.2180235,N,14005.1791068,E,4,11,1.1,31.765,M,38.037,M,4.0,*74
$GPRMC,160037.00,A,3606.2180227,N,14005.1791046,E,0.01,0.00,270819,0.0,E,D*34
$GPGGA,160037.00,3606.2180227,N,14005.1791046,E,4,11,1.1,31.770,M,38.037,M,0.0,*7A
$GPRMC,160038.00,A,3606.2180227,N,14005.1791038,E,0.02,0.00,270819,0.0,E,D*31
$GPGGA,160038.00,3606.2180227,N,14005.1791038,E,4,11,1.1,31.758,M,38.037,M,1.0,*77
$GPRMC,160039.00,A,3606.2180229,N,14005.1791051,E,0.06,0.00,270819,0.0,E,D*35
$GPGGA,160039.00,3606.2180229,N,14005.1791051,E,4,11,1.1,31.767,M,38.037,M,2.0,*78
$GPRMC,160040.00,A,3606.2180246,N,14005.1791044,E,0.05,0.00,270819,0.0,E,D*35
$GPGGA,160040.00,3606.2180246,N,14005.1791044,E,4,11,1.1,31.769,M,38.037,M,3.0,*74
$GPRMC,160041.00,A,3606.2180244,N,14005.1791020,E,0.02,0.00,270819,0.0,E,D*33
$GPGGA,160041.00,3606.2180244,N,14005.1791020,E,4,11,1.1,31.781,M,38.037,M,4.0,*74
$GPRMC,160042.00,A,3606.2180254,N,14005.1791019,E,0.03,0.00,270819,0.0,E,D*3A
$GPGGA,160042.00,3606.2180254,N,14005.1791019,E,4,11,1.1,31.787,M,38.037,M,0.0,*7E
$GPRMC,160043.00,A,3606.2180248,N,14005.1791021,E,0.03,0.00,270819,0.0,E,D*3D
$GPGGA,160043.00,3606.2180248,N,14005.1791021,E,4,11,1.1,31.780,M,38.037,M,1.0,*7F
$GPRMC,160044.00,A,3606.2180229,N,14005.1790993,E,0.03,0.00,270819,0.0,E,D*3C
$GPGGA,160044.00,3606.2180229,N,14005.1790993,E,4,11,1.1,31.768,M,38.037,M,2.0,*7B
$GPRMC,160045.00,A,3606.2180243,N,14005.1791002,E,0.06,0.00,270819,0.0,E,D*34
$GPGGA,160045.00,3606.2180243,N,14005.1791002,E,4,11,1.1,31.775,M,38.037,M,3.0,*7B
$GPRMC,160046.00,A,3606.2180243,N,14005.1790993,E,0.09,0.00,270819,0.0,E,D*38
$GPGGA,160046.00,3606.2180243,N,14005.1790993,E,4,11,1.1,31.772,M,38.037,M,4.0,*78
$GPRMC,160047.00,A,3606.2180247,N,14005.1791002,E,0.01,0.00,270819,0.0,E,D*35
$GPGGA,160047.00,3606.2180247,N,14005.1791002,E,4,11,1.1,31.786,M,38.037,M,0.0,*72
$GPRMC,160048.00,A,3606.2180202,N,14005.1790993,E,0.04,0.00,270819,0.0,E,D*3E
$GPGGA,160048.00,3606.2180202,N,14005.1790993,E,4,11,1.1,31.747,M,38.037,M,1.0,*70
$GPRMC,160049.00,A,3606.2180262,N,14005.1790986,E,0.03,0.00,270819,0.0,E,D*3A
$GPGGA,160049.00,3606.2180262,N,14005.1790986,E,4,11,1.1,31.784,M,38.037,M,2.0,*7F
$GPRMC,160050.00,A,3606.2180231,N,14005.1790994,E,0.03,0.00,270819,0.0,E,D*37
$GPGGA,160050.00,3606.2180231,N,14005.1790994,E,4,11,1.1,31.789,M,38.037,M,3.0,*7E
$GPRMC,160051.00,A,3606.2180233,N,14005.1790962,E,0.05,0.00,270819,0.0,E,D*3B
$GPGGA,160051.00,3606.2180233,N,14005.1790962,E,4,11,1.1,31.770,M,38.037,M,4.0,*75
$GPRMC,160052.00,A,3606.2180245,N,14005.1790964,E,0.04,0.00,270819,0.0,E,D*3E
$GPGGA,160052.00,3606.2180245,N,14005.1790964,E,4,11,1.1,31.773,M,38.037,M,0.0,*76
$GPRMC,160053.00,A,3606.2180244,N,14005.1790981,E,0.08,0.00,270819,0.0,E,D*39
$GPGGA,160053.00,3606.2180244,N,14005.1790981,E,4,11,1.1,31.777,M,38.037,M,1.0,*78
$GPRMC,160054.00,A,3606.2180261,N,14005.1790955,E,0.08,0.00,270819,0.0,E,D*30
$GPGGA,160054.00,3606.2180261,N,14005.1790955,E,4,11,1.1,31.774,M,38.037,M,2.0,*71
$GPRMC,160055.00,A,3606.2180246,N,14005.1790947,E,0.03,0.00,270819,0.0,E,D*3C
$GPGGA,160055.00,3606.2180246,N,14005.1790947,E,4,11,1.1,31.771,M,38.037,M,3.0,*72
$GPRMC,160056.00,A,3606.2180263,N,14005.1790951,E,0.05,0.00,270819,0.0,E,D*39
$GPGGA,160056.00,3606.2180263,N,14005.1790951,E,4,11,1.1,31.786,M,38.037,M,4.0,*7E
$GPRMC,160057.00,A,3606.2180186,N,14005.1791057,E,0.04,0.00,270819,0.0,E,D*3F
$GPGGA,160057.00,3606.2180186,N,14005.1791057,E,4,11,1.1,31.774,M,38.037,M,0.0,*70
$GPRMC,160058.00,A,3606.2180156,N,14005.1791062,E,0.02,0.00,270819,0.0,E,D*3D
$GPGGA,160058.00,3606.2180156,N,14005.1791062,E,4,11,1.1,31.780,M,38.037,M,1.0,*7E
$GPRMC,160059.00,A,3606.2180174,N,14005.1791049,E,0.05,0.00,270819,0.0,E,D*32
$GPGGA,160059.00,3606.2180174,N,14005.1791049,E,4,11,1.1,31.762,M,38.037,M,2.0,*79
$GPRMC,160100.00,A,3606.2180158,N,14005.1791104,E,0.06,0.00,270819,0.0,E,D*3A
$GPGGA,160100.00,3606.2180158,N,14005.1791104,E,4,11,1.1,31.760,M,38.037,M,3.0,*71
$GPRMC,160101.00,A,3606.2180165,N,14005.1791124,E,0.05,0.00,270819,0.0,E,D*34
$GPGGA,160101.00,3606.2180165,N,14005.1791124,E,4,11,1.1,31.777,M,38.037,M,4.0,*7D
$GPRMC,160102.00,A,3606.2180141,N,14005.1791169,E,0.04,0.00,270819,0.0,E,D*39
$GPGGA,160102.00,3606.2180141,N,14005.1791169,E,4,11,1.1,31.779,M,38.037,M,0.0,*7B
$GPRMC,160103.00,A,3606.2180146,N,14005.1791139,E,0.05,0.00,270819,0.0,E,D*3B
$GPGGA,160103.00,3606.2180146,N,14005.1791139,E,4,11,1.1,31.755,M,38.037,M,1.0,*77
$GPRMC,160104.00,A,3606.2180161,N,14005.1791180,E,0.06,0.00,270819,0.0,E,D*38
$GPGGA,160104.00,3606.2180161,N,14005.1791180,E,4,11,1.1,31.759,M,38.037,M,2.0,*78
$GPRMC,160105.00,A,3606.2180146,N,14005.1791154,E,0.01,0.00,270819,0.0,E,D*32
$GPGGA,160105.00,3606.2180146,N,14005.1791154,E,4,11,1.1,31.753,M,38.037,M,3.0,*7E
$GPRMC,160106.00,A,3606.2180167,N,14005.1791259,E,0.08,0.00,270819,0.0,E,D*35
$GPGGA,160106.00,3606.2180167,N,14005.1791259,E,4,11,1.1,31.791,M,38.037,M,4.0,*79
$GPRMC,160107.00,A,3606.2180152,N,14005.1791271,E,0.06,0.00,270819,0.0,E,D*36
$GPGGA,160107.00,3606.2180152,N,14005.1791271,E,4,11,1.1,31.776,M,38.037,M,0.0,*79
$GPRMC,160108.00,A,3606.2180179,N,14005.1791250,E,0.07,0.00,270819,0.0,E,D*32
$GPGGA,160108.00,3606.2180179,N,14005.1791250,E,4,11,1.1,31.772,M,38.037,M,1.0,*79
$GPRMC,160109.00,A,3606.2180175,N,14005.1791237,E,0.03,0.00,270819,0.0,E,D*3A
$GPGGA,160109.00,3606.2180175,N,14005.1791237,E,4,11,1.1,31.779,M,38.037,M,2.0,*7D
$GPRMC,160110.00,A,3606.2180172,N,14005.1791247,E,0.04,0.00,270819,0.0,E,D*35
$GPGGA,160110.00,3606.2180172,N,14005.1791247,E,4,11,1.1,31.773,M,38.037,M,3.0,*7E
$GPRMC,160111.00,A,3606.2180155,N,14005.1791261,E,0.02,0.00,270819,0.0,E,D*33
$GPGGA,160111.00,3606.2180155,N,14005.1791261,E,4,11,1.1,31.770,M,38.037,M,4.0,*7A
$GPRMC,160112.00,A,3606.2180151,N,14005.1791255,E,0.04,0.00,270819,0.0,E,D*35
$GPGGA,160112.00,3606.2180151,N,14005.1791255,E,4,11,1.1,31.765,M,38.037,M,0.0,*7A
$GPRMC,160113.00,A,3606.2180154,N,14005.1791236,E,0.05,0.00,270819,0.0,E,D*35
$GPGGA,160113.00,3606.2180154,N,14005.1791236,E,4,11,1.1,31.775,M,38.037,M,1.0,*7B
$GPRMC,160114.00,A,3606.2180161,N,14005.1791286,E,0.05,0.00,270819,0.0,E,D*3F
$GPGGA,160114.00,3606.2180161,N,14005.1791286,E,4,11,1.1,31.762,M,38.037,M,2.0,*74
$GPRMC,160115.00,A,3606.2180167,N,14005.1791275,E,0.02,0.00,270819,0.0,E,D*33
$GPGGA,160115.00,3606.2180167,N,14005.1791275,E,4,11,1.1,31.777,M,38.037,M,3.0,*7A
$GPRMC,160116.00,A,3606.2180140,N,14005.1791287,E,0.12,0.00,270819,0.0,E,D*39
$GPGGA,160116.00,3606.2180140,N,14005.1791287,E,4,11,1.1,31.771,M,38.037,M,4.0,*70
$GPRMC,160117.00,A,3606.2180139,N,14005.1791191,E,0.09,0.00,270819,0.0,E,D*38
$GPGGA,160117.00,3606.2180139,N,14005.1791191,E,4,11,1.1,31.770,M,38.037,M,0.0,*7E
$GPRMC,160118.00,A,3606.2180142,N,14005.1791221,E,0.02,0.00,270819,0.0,E,D*38
$GPGGA,160118.00,3606.2180142,N,14005.1791221,E,4,11,1.1,31.771,M,38.037,M,1.0,*75
$GPRMC,160119.00,A,3606.2180123,N,14005.1791202,E,0.03,0.00,270819,0.0,E,D*3E
$GPGGA,160119.00,3606.2180123,N,14005.1791202,E,4,11,1.1,31.766,M,38.037,M,2.0,*77
$GPRMC,160120.00,A,3606.2180141,N,14005.1791200,E,0.05,0.00,270819,0.0,E,D*34
$GPGGA,160120.00,3606.2180141,N,14005.1791200,E,4,11,1.1,31.781,M,38.037,M,3.0,*73
$GPRMC,160121.00,A,3606.2180132,N,14005.1791206,E,0.01,0.00,270819,0.0,E,D*33
$GPGGA,160121.00,3606.2180132,N,14005.1791206,E,4,11,1.1,31.760,M,38.037,M,4.0,*78
$GPRMC,160122.00,A,3606.2180173,N,14005.1791159,E,0.05,0.00,270819,0.0,E,D*38
$GPGGA,160122.00,3606.2180173,N,14005.1791159,E,4,11,1.1,31.760,M,38.037,M,0.0,*73
$GPRMC,160123.00,A,3606.2180158,N,14005.1791162,E,0.04,0.00,270819,0.0,E,D*39
$GPGGA,160123.00,3606.2180158,N,14005.1791162,E,4,11,1.1,31.762,M,38.037,M,1.0,*70
$GPRMC,160124.00,A,3606.2180134,N,14005.1791178,E,0.02,0.00,270819,0.0,E,D*39
$GPGGA,160124.00,3606.2180134,N,14005.1791178,E,4,11,1.1,31.771,M,38.037,M,2.0,*77
$GPRMC,160125.00,A,3606.2180138,N,14005.1791143,E,0.03,0.00,270819,0.0,E,D*3D
$GPGGA,160125.00,3606.2180138,N,14005.1791143,E,4,11,1.1,31.736,M,38.037,M,3.0,*70
$GPRMC,160126.00,A,3606.2180168,N,14005.1791222,E,0.05,0.00,270819,0.0,E,D*39
$GPGGA,160126.00,3606.2180168,N,14005.1791222,E,4,11,1.1,31.770,M,38.037,M,4.0,*77
$GPRMC,160127.00,A,3606.2180174,N,14005.1791127,E,0.05,0.00,270819,0.0,E,D*33
$GPGGA,160127.00,3606.2180174,N,14005.1791127,E,4,11,1.1,31.762,M,38.037,M,0.0,*7A
$GPRMC,160128.00,A,3606.2180165,N,14005.1791098,E,0.05,0.00,270819,0.0,E,D*39
$GPGGA,160128.00,3606.2180165,N,14005.1791098,E,4,11,1.1,31.762,M,38.037,M,1.0,*71
$GPRMC,160129.00,A,3606.2180154,N,14005.1791132,E,0.04,0.00,270819,0.0,E,D*3A
$GPGGA,160129.00,3606.2180154,N,14005.1791132,E,4,11,1.1,31.771,M,38.037,M,2.0,*72
$GPRMC,160130.00,A,3606.2180136,N,14005.1791197,E,0.05,0.00,270819,0.0,E,D*38
$GPGGA,160130.00,3606.2180136,N,14005.1791197,E,4,11,1.1,31.770,M,38.037,M,3.0,*71
$GPRMC,160131.00,A,3606.2180142,N,14005.1791146,E,0.04,0.00,270819,0.0,E,D*37
$GPGGA,160131.00,3606.2180142,N,14005.1791146,E,4,11,1.1,31.749,M,38.037,M,4.0,*72
$GPRMC,160132.00,A,3606.2180158,N,14005.1791170,E,0.10,0.00,270819,0.0,E,D*3F
$GPGGA,160132.00,3606.2180158,N,14005.1791170,E,4,11,1.1,31.756,M,38.037,M,0.0,*75
$GPRMC,160133.00,A,3606.2180150,N,14005.1791149,E,0.04,0.00,270819,0.0,E,D*39
$GPGGA,160133.00,3606.2180150,N,14005.1791149,E,4,11,1.1,31.760,M,38.037,M,1.0,*72
$GPRMC,160134.00,A,3606.2180159,N,14005.1791188,E,0.04,0.00,270819,0.0,E,D*3A
$GPGGA,160134.00,3606.2180159,N,14005.1791188,E,4,11,1.1,31.771,M,38.037,M,2.0,*72
$GPRMC,160135.00,A,3606.2180164,N,14005.1791178,E,0.04,0.00,270819,0.0,E,D*3A
$GPGGA,160135.00,3606.2180164,N,14005.1791178,E,4,11,1.1,31.761,M,38.037,M,3.0,*72
$GPRMC,160136.00,A,3606.2180153,N,14005.1791173,E,0.02,0.00,270819,0.0,E,D*30
$GPGGA,160136.00,3606.2180153,N,14005.1791173,E,4,11,1.1,31.781,M,38.037,M,4.0,*77
$GPRMC,160137.00,A,3606.2180181,N,14005.1791117,E,0.01,0.00,270819,0.0,E,D*3F
$GPGGA,160137.00,3606.2180181,N,14005.1791117,E,4,11,1.1,31.754,M,38.037,M,0.0,*77
$GPRMC,160138.00,A,3606.2180182,N,14005.1791142,E,0.01,0.00,270819,0.0,E,D*33
$GPGGA,160138.00,3606.2180182,N,14005.1791142,E,4,11,1.1,31.767,M,38.037,M,1.0,*7A
$GPRMC,160139.00,A,3606.2180163,N,14005.1791101,E,0.04,0.00,270819,0.0,E,D*3F
$GPGGA,160139.00,3606.2180163,N,14005.1791101,E,4,11,1.1,31.751,M,38.037,M,2.0,*75
$GPRMC,160140.00,A,3606.2180183,N,14005.1791145,E,0.02,0.00,270819,0.0,E,D*39
$GPGGA,160140.00,3606.2180183,N,14005.1791145,E,4,11,1.1,31.753,M,38.037,M,3.0,*76
$GPRMC,160141.00,A,3606.2180200,N,14005.1791136,E,0.05,0.00,270819,0.0,E,D*33
$GPGGA,160141.00,3606.2180200,N,14005.1791136,E,4,11,1.1,31.778,M,38.037,M,4.0,*75
$GPRMC,160142.00,A,3606.2180197,N,14005.1791111,E,0.05,0.00,270819,0.0,E,D*38
$GPGGA,160142.00,3606.2180197,N,14005.1791111,E,4,11,1.1,31.759,M,38.037,M,0.0,*79
$GPRMC,160143.00,A,3606.2180214,N,14005.1791122,E,0.02,0.00,270819,0.0,E,D*36
$GPGGA,160143.00,3606.2180214,N,14005.1791122,E,4,11,1.1,31.756,M,38.037,M,1.0,*7E
$GPRMC,160144.00,A,3606.2180200,N,14005.1791077,E,0.07,0.00,270819,0.0,E,D*30
$GPGGA,160144.00,3606.2180200,N,14005.1791077,E,4,11,1.1,31.732,M,38.037,M,2.0,*7C
$GPRMC,160145.00,A,3606.2180199,N,14005.1791078,E,0.06,0.00,270819,0.0,E,D*3C
$GPGGA,160145.00,3606.2180199,N,14005.1791078,E,4,11,1.1,31.729,M,38.037,M,3.0,*7A
$GPRMC,160146.00,A,3606.2180209,N,14005.1791108,E,0.02,0.00,270819,0.0,E,D*37
$GPGGA,160146.00,3606.2180209,N,14005.1791108,E,4,11,1.1,31.757,M,38.037,M,4.0,*7B
$GPRMC,160147.00,A,3606.2180202,N,14005.1791135,E,0.01,0.00,270819,0.0,E,D*30
$GPGGA,160147.00,3606.2180202,N,14005.1791135,E,4,11,1.1,31.766,M,38.037,M,0.0,*79
$GPRMC,160148.00,A,3606.2180203,N,14005.1791096,E,0.04,0.00,270819,0.0,E,D*33
$GPGGA,160148.00,3606.2180203,N,14005.1791096,E,4,11,1.1,31.750,M,38.037,M,1.0,*7B
$GPRMC,160149.00,A,3606.2180199,N,14005.1791101,E,0.03,0.00,270819,0.0,E,D*3A
$GPGGA,160149.00,3606.2180199,N,14005.1791101,E,4,11,1.1,31.759,M,38.037,M,2.0,*7F
$GPRMC,160150.00,A,3606.2180200,N,14005.1791091,E,0.03,0.00,270819,0.0,E,D*39
$GPGGA,160150.00,3606.2180200,N,14005.1791091,E,4,11,1.1,31.758,M,38.037,M,3.0,*7C
$GPRMC,160151.00,A,3606.2180210,N,14005.1791100,E,0.04,0.00,270819,0.0,E,D*37
$GPGGA,160151.00,3606.2180210,N,14005.1791100,E,4,11,1.1,31.748,M,38.037,M,4.0,*73
$GPRMC,160152.00,A,3606.2180178,N,14005.1791144,E,0.08,0.00,270819,0.0,E,D*35
$GPGGA,160152.00,3606.2180178,N,14005.1791144,E,4,11,1.1,31.763,M,38.037,M,0.0,*70
$GPRMC,160153.00,A,3606.2180176,N,14005.1791105,E,0.03,0.00,270819,0.0,E,D*34
$GPGGA,160153.00,3606.2180176,N,14005.1791105,E,4,11,1.1,31.775,M,38.037,M,1.0,*7C
$GPRMC,160154.00,A,3606.2180189,N,14005.1791127,E,0.02,0.00,270819,0.0,E,D*32
$GPGGA,160154.00,3606.2180189,N,14005.1791127,E,4,11,1.1,31.771,M,38.037,M,2.0,*7C
$GPRMC,160155.00,A,3606.2180174,N,14005.1791147,E,0.05,0.00,270819,0.0,E,D*30
$GPGGA,160155.00,3606.2180174,N,14005.1791147,E,4,11,1.1,31.787,M,38.037,M,3.0,*71
$GPRMC,160156.00,A,3606.2180160,N,14005.1791091,E,0.02,0.00,270819,0.0,E,D*3B
$GPGGA,160156.00,3606.2180160,N,14005.1791091,E,4,11,1.1,31.755,M,38.037,M,4.0,*75
$GPRMC,160157.00,A,3606.2180194,N,14005.1791079,E,0.02,0.00,270819,0.0,E,D*37
$GPGGA,160157.00,3606.2180194,N,14005.1791079,E,4,11,1.1,31.746,M,38.037,M,0.0,*7F
$GPRMC,160158.00,A,3606.2180193,N,14005.1791090,E,0.05,0.00,270819,0.0,E,D*3F
$GPGGA,160158.00,3606.2180193,N,14005.1791090,E,4,11,1.1,31.753,M,38.037,M,1.0,*75
$GPRMC,160159.00,A,3606.2180193,N,14005.1791087,E,0.07,0.00,270819,0.0,E,D*3A
$GPGGA,160159.00,3606.2180193,N,14005.1791087,E,4,11,1.1,31.764,M,38.037,M,2.0,*75
$GPRMC,160200.00,A,3606.2180182,N,14005.1791107,E,0.01,0.00,270819,0.0,E,D*3A
$GPGGA,160200.00,3606.2180182,N,14005.1791107,E,4,11,1.1,31.756,M,38.037,M,3.0,*73
$GPRMC,160201.00,A,3606.2180208,N,14005.1791079,E,0.02,0.00,270819,0.0,E,D*31
$GPGGA,160201.00,3606.2180208,N,14005.1791079,E,4,11,1.1,31.753,M,38.037,M,4.0,*79
$GPRMC,160202.00,A,3606.2180193,N,14005.1791060,E,0.00,0.00,270819,0.0,E,D*39
$GPGGA,160202.00,3606.2180193,N,14005.1791060,E,4,11,1.1,31.737,M,38.037,M,0.0,*75
$GPRMC,160203.00,A,3606.2180184,N,14005.1791031,E,0.03,0.00,270819,0.0,E,D*39
$GPGGA,160203.00,3606.2180184,N,14005.1791031,E,4,11,1.1,31.740,M,38.037,M,1.0,*77
$GPRMC,160204.00,A,3606.2180197,N,14005.1791108,E,0.06,0.00,270819,0.0,E,D*32
$GPGGA,160204.00,3606.2180197,N,14005.1791108,E,4,11,1.1,31.771,M,38.037,M,2.0,*78
$GPRMC,160205.00,A,3606.2180196,N,14005.1791091,E,0.08,0.00,270819,0.0,E,D*3D
$GPGGA,160205.00,3606.2180196,N,14005.1791091,E,4,11,1.1,31.777,M,38.037,M,3.0,*7E
$GPRMC,160206.00,A,3606.2180212,N,14005.1791064,E,0.01,0.00,270819,0.0,E,D*32
$GPGGA,160206.00,3606.2180212,N,14005.1791064,E,4,11,1.1,31.738,M,38.037,M,4.0,*74
$GPRMC,160207.00,A,3606.2180206,N,14005.1791069,E,0.04,0.00,270819,0.0,E,D*3E
$GPGGA,160207.00,3606.2180206,N,14005.1791069,E,4,11,1.1,31.751,M,38.037,M,0.0,*76
$GPRMC,160208.00,A,3606.2180219,N,14005.1791063,E,0.01,0.00,270819,0.0,E,D*30
$GPGGA,160208.00,3606.2180219,N,14005.1791063,E,4,11,1.1,31.757,M,38.037,M,1.0,*7A
$GPRMC,160209.00,A,3606.2180232,N,14005.1791019,E,0.01,0.00,270819,0.0,E,D*35
$GPGGA,160209.00,3606.2180232,N,14005.1791019,E,4,11,1.1,31.718,M,38.037,M,2.0,*77
$GPRMC,160210.00,A,3606.2180234,N,14005.1791035,E,0.06,0.00,270819,0.0,E,D*32
$GPGGA,160210.00,3606.2180234,N,14005.1791035,E,4,11,1.1,31.734,M,38.037,M,3.0,*78
$GPRMC,160211.00,A,3606.2180242,N,14005.1791044,E,0.05,0.00,270819,0.0,E,D*37
$GPGGA,160211.00,3606.2180242,N,14005.1791044,E,4,11,1.1,31.745,M,38.037,M,4.0,*7F
$GPRMC,160212.00,A,3606.2180230,N,14005.1791070,E,0.02,0.00,270819,0.0,E,D*31
$GPGGA,160212.00,3606.2180230,N,14005.1791070,E,4,11,1.1,31.760,M,38.037,M,0.0,*7D
$GPRMC,160213.00,A,3606.2180224,N,14005.1791010,E,0.02,0.00,270819,0.0,E,D*33
$GPGGA,160213.00,3606.2180224,N,14005.1791010,E,4,11,1.1,31.738,M,38.037,M,1.0,*73
$GPRMC,160214.00,A,3606.2180238,N,14005.1790991,E,0.03,0.00,270819,0.0,E,D*39
$GPGGA,160214.00,3606.2180238,N,14005.1790991,E,4,11,1.1,31.713,M,38.037,M,2.0,*72
$GPRMC,160215.00,A,3606.2180252,N,14005.1791051,E,0.03,0.00,270819,0.0,E,D*30
$GPGGA,160215.00,3606.2180252,N,14005.1791051,E,4,11,1.1,31.748,M,38.037,M,3.0,*74
$GPRMC,160216.00,A,3606.2180236,N,14005.1790976,E,0.02,0.00,270819,0.0,E,D*3D
$GPGGA,160216.00,3606.2180236,N,14005.1790976,E,4,11,1.1,31.710,M,38.037,M,4.0,*72
$GPRMC,160217.00,A,3606.2180220,N,14005.1791004,E,0.08,0.00,270819,0.0,E,D*3C
$GPGGA,160217.00,3606.2180220,N,14005.1791004,E,4,11,1.1,31.757,M,38.037,M,0.0,*7E
$GPRMC,160218.00,A,3606.2180216,N,14005.1791005,E,0.01,0.00,270819,0.0,E,D*3E
$GPGGA,160218.00,3606.2180216,N,14005.1791005,E,4,11,1.1,31.748,M,38.037,M,1.0,*7A
$GPRMC,160219.00,A,3606.2180233,N,14005.1790967,E,0.04,0.00,270819,0.0,E,D*31
$GPGGA,160219.00,3606.2180233,N,14005.1790967,E,4,11,1.1,31.735,M,38.037,M,2.0,*79
$GPRMC,160220.00,A,3606.2180233,N,14005.1790985,E,0.07,0.00,270819,0.0,E,D*34
$GPGGA,160220.00,3606.2180233,N,14005.1790985,E,4,11,1.1,31.738,M,38.037,M,3.0,*73
$GPRMC,160221.00,A,3606.2180219,N,14005.1790985,E,0.08,0.00,270819,0.0,E,D*32
$GPGGA,160221.00,3606.2180219,N,14005.1790985,E,4,11,1.1,31.729,M,38.037,M,4.0,*7D
$GPRMC,160222.00,A,3606.2180217,N,14005.1790997,E,0.05,0.00,270819,0.0,E,D*31
$GPGGA,160222.00,3606.2180217,N,14005.1790997,E,4,11,1.1,31.730,M,38.037,M,0.0,*7F
$GPRMC,160223.00,A,3606.2180207,N,14005.1790986,E,0.07,0.00,270819,0.0,E,D*33
$GPGGA,160223.00,3606.2180207,N,14005.1790986,E,4,11,1.1,31.740,M,38.037,M,1.0,*79
$GPRMC,160224.00,A,3606.2180208,N,14005.1790998,E,0.04,0.00,270819,0.0,E,D*37
$GPGGA,160224.00,3606.2180208,N,14005.1790998,E,4,11,1.1,31.755,M,38.037,M,2.0,*79
$GPRMC,160225.00,A,3606.2180220,N,14005.1790991,E,0.04,0.00,270819,0.0,E,D*35
$GPGGA,160225.00,3606.2180220,N,14005.1790991,E,4,11,1.1,31.745,M,38.037,M,3.0,*7B
$GPRMC,160226.00,A,3606.2180231,N,14005.1790994,E,0.04,0.00,270819,0.0,E,D*33
$GPGGA,160226.00,3606.2180231,N,14005.1790994,E,4,11,1.1,31.744,M,38.037,M,4.0,*7B
$GPRMC,160227.00,A,3606.2180185,N,14005.1791034,E,0.07,0.00,270819,0.0,E,D*3F
$GPGGA,160227.00,3606.2180185,N,14005.1791034,E,4,11,1.1,31.736,M,38.037,M,0.0,*75
$GPRMC,160228.00,A,3606.2180220,N,14005.1791068,E,0.02,0.00,270819,0.0,E,D*30
$GPGGA,160228.00,3606.2180220,N,14005.1791068,E,4,11,1.1,31.756,M,38.037,M,1.0,*78
$GPRMC,160229.00,A,3606.2180191,N,14005.1791101,E,0.02,0.00,270819,0.0,E,D*36
$GPGGA,160229.00,3606.2180191,N,14005.1791101,E,4,11,1.1,31.749,M,38.037,M,2.0,*73
$GPRMC,160230.00,A,3606.2180186,N,14005.1791086,E,0.07,0.00,270819,0.0,E,D*33
$GPGGA,160230.00,3606.2180186,N,14005.1791086,E,4,11,1.1,31.761,M,38.037,M,3.0,*78
$GPRMC,160231.00,A,3606.2180173,N,14005.1791120,E,0.09,0.00,270819,0.0,E,D*3B
$GPGGA,160231.00,3606.2180173,N,14005.1791120,E,4,11,1.1,31.755,M,38.037,M,4.0,*7E
$GPRMC,160232.00,A,3606.2180173,N,14005.1791136,E,0.03,0.00,270819,0.0,E,D*35
$GPGGA,160232.00,3606.2180173,N,14005.1791136,E,4,11,1.1,31.756,M,38.037,M,0.0,*7D
$GPRMC,160233.00,A,3606.2180177,N,14005.1791111,E,0.06,0.00,270819,0.0,E,D*30
$GPGGA,160233.00,3606.2180177,N,14005.1791111,E,4,11,1.1,31.753,M,38.037,M,1.0,*79
$GPRMC,160234.00,A,3606.2180168,N,14005.1791111,E,0.05,0.00,270819,0.0,E,D*3A
$GPGGA,160234.00,3606.2180168,N,14005.1791111,E,4,11,1.1,31.761,M,38.037,M,2.0,*72
$GPRMC,160235.00,A,3606.2180190,N,14005.1791135,E,0.05,0.00,270819,0.0,E,D*3A
$GPGGA,160235.00,3606.2180190,N,14005.1791135,E,4,11,1.1,31.765,M,38.037,M,3.0,*77
$GPRMC,160236.00,A,3606.2180174,N,14005.1791166,E,0.05,0.00,270819,0.0,E,D*35
$GPGGA,160236.00,3606.2180174,N,14005.1791166,E,4,11,1.1,31.750,M,38.037,M,4.0,*79
$GPRMC,160237.00,A,3606.2180129,N,14005.1791132,E,0.03,0.00,270819,0.0,E,D*3B
$GPGGA,160237.00,3606.2180129,N,14005.1791132,E,4,11,1.1,31.755,M,38.037,M,0.0,*70
$GPRMC,160238.00,A,3606.2180147,N,14005.1791164,E,0.03,0.00,270819,0.0,E,D*3F
$GPGGA,160238.00,3606.2180147,N,14005.1791164,E,4,11,1.1,31.763,M,38.037,M,1.0,*70
$GPRMC,160239.00,A,3606.2180145,N,14005.1791128,E,0.04,0.00,270819,0.0,E,D*33
$GPGGA,160239.00,3606.2180145,N,14005.1791128,E,4,11,1.1,31.766,M,38.037,M,2.0,*7D
$GPRMC,160240.00,A,3606.2180158,N,14005.1791153,E,0.07,0.00,270819,0.0,E,D*3E
$GPGGA,160240.00,3606.2180158,N,14005.1791153,E,4,11,1.1,31.786,M,38.037,M,3.0,*7C
$GPRMC,160241.00,A,3606.2180157,N,14005.1791159,E,0.06,0.00,270819,0.0,E,D*3B
$GPGGA,160241.00,3606.2180157,N,14005.1791159,E,4,11,1.1,31.770,M,38.037,M,4.0,*76
$GPRMC,160242.00,A,3606.2180150,N,14005.1791160,E,0.05,0.00,270819,0.0,E,D*36
$GPGGA,160242.00,3606.2180150,N,14005.1791160,E,4,11,1.1,31.770,M,38.037,M,0.0,*7C
$GPRMC,160243.00,A,3606.2180156,N,14005.1791176,E,0.06,0.00,270819,0.0,E,D*35
$GPGGA,160243.00,3606.2180156,N,14005.1791176,E,4,11,1.1,31.772,M,38.037,M,1.0,*7F
$GPRMC,160244.00,A,3606.2180138,N,14005.1791208,E,0.03,0.00,270819,0.0,E,D*35
$GPGGA,160244.00,3606.2180138,N,14005.1791208,E,4,11,1.1,31.779,M,38.037,M,2.0,*72
$GPRMC,160245.00,A,3606.2180125,N,14005.1791210,E,0.02,0.00,270819,0.0,E,D*30
$GPGGA,160245.00,3606.2180125,N,14005.1791210,E,4,11,1.1,31.770,M,38.037,M,3.0,*7E
$GPRMC,160246.00,A,3606.2180151,N,14005.1791226,E,0.11,0.00,270819,0.0,E,D*37
$GPGGA,160246.00,3606.2180151,N,14005.1791226,E,4,11,1.1,31.764,M,38.037,M,4.0,*79
$GPRMC,160247.00,A,3606.2180166,N,14005.1791206,E,0.03,0.00,270819,0.0,E,D*33
$GPGGA,160247.00,3606.2180166,N,14005.1791206,E,4,11,1.1,31.768,M,38.037,M,0.0,*76
$GPRMC,160248.00,A,3606.2180166,N,14005.1791244,E,0.03,0.00,270819,0.0,E,D*3A
$GPGGA,160248.00,3606.2180166,N,14005.1791244,E,4,11,1.1,31.765,M,38.037,M,1.0,*73
$GPRMC,160249.00,A,3606.2180164,N,14005.1791257,E,0.01,0.00,270819,0.0,E,D*39
$GPGGA,160249.00,3606.2180164,N,14005.1791257,E,4,11,1.1,31.780,M,38.037,M,2.0,*7A
$GPRMC,160250.00,A,3606.2180154,N,14005.1791261,E,0.04,0.00,270819,0.0,E,D*32
$GPGGA,160250.00,3606.2180154,N,14005.1791261,E,4,11,1.1,31.775,M,38.037,M,3.0,*7F
$GPRMC,160251.00,A,3606.2180175,N,14005.1791274,E,0.02,0.00,270819,0.0,E,D*32
$GPGGA,160251.00,3606.2180175,N,14005.1791274,E,4,11,1.1,31.767,M,38.037,M,4.0,*7D
$GPRMC,160252.00,A,3606.2180165,N,14005.1791253,E,0.09,0.00,270819,0.0,E,D*3E
$GPGGA,160252.00,3606.2180165,N,14005.1791253,E,4,11,1.1,31.777,M,38.037,M,0.0,*7F
$GPRMC,160253.00,A,3606.2180163,N,14005.1791202,E,0.04,0.00,270819,0.0,E,D*30
$GPGGA,160253.00,3606.2180163,N,14005.1791202,E,4,11,1.1,31.768,M,38.037,M,1.0,*73
$GPRMC,160254.00,A,3606.2180137,N,14005.1791227,E,0.04,0.00,270819,0.0,E,D*31
$GPGGA,160254.00,3606.2180137,N,14005.1791227,E,4,11,1.1,31.773,M,38.037,M,2.0,*7B
$GPRMC,160255.00,A,3606.2180141,N,14005.1791183,E,0.05,0.00,270819,0.0,E,D*3D
$GPGGA,160255.00,3606.2180141,N,14005.1791183,E,4,11,1.1,31.778,M,38.037,M,3.0,*7C
$GPRMC,160256.00,A,3606.2180159,N,14005.1791198,E,0.11,0.00,270819,0.0,E,D*38
$GPGGA,160256.00,3606.2180159,N,14005.1791198,E,4,11,1.1,31.782,M,38.037,M,4.0,*7E
$GPRMC,160257.00,A,3606.2180144,N,14005.1791127,E,0.06,0.00,270819,0.0,E,D*37
$GPGGA,160257.00,3606.2180144,N,14005.1791127,E,4,11,1.1,31.758,M,38.037,M,0.0,*74
$GPRMC,160258.00,A,3606.2180147,N,14005.1791117,E,0.02,0.00,270819,0.0,E,D*3C
$GPGGA,160258.00,3606.2180147,N,14005.1791117,E,4,11,1.1,31.769,M,38.037,M,1.0,*78
$GPRMC,160259.00,A,3606.2180167,N,14005.1791121,E,0.02,0.00,270819,0.0,E,D*3A
$GPGGA,160259.00,3606.2180167,N,14005.1791121,E,4,11,1.1,31.780,M,38.037,M,2.0,*7A
$GPRMC,160300.00,A,3606.2180143,N,14005.1791145,E,0.02,0.00,270819,0.0,E,D*33
$GPGGA,160300.00,3606.2180143,N,14005.1791145,E,4,11,1.1,31.777,M,38.037,M,3.0,*7A
$GPRMC,160301.00,A,3606.2180139,N,14005.1791164,E,0.01,0.00,270819,0.0,E,D*3F
$GPGGA,160301.00,3606.2180139,N,14005.1791164,E,4,11,1.1,31.769,M,38.037,M,4.0,*7D
$GPRMC,160302.00,A,3606.2180138,N,14005.1791098,E,0.06,0.00,270819,0.0,E,D*38
$GPGGA,160302.00,3606.2180138,N,14005.1791098,E,4,11,1.1,31.777,M,38.037,M,0.0,*76
$GPRMC,160303.00,A,3606.2180144,N,14005.1791092,E,0.03,0.00,270819,0.0,E,D*3D
$GPGGA,160303.00,3606.2180144,N,14005.1791092,E,4,11,1.1,31.775,M,38.037,M,1.0,*75
$GPRMC,160304.00,A,3606.2180149,N,14005.1791096,E,0.04,0.00,270819,0.0,E,D*34
$GPGGA,160304.00,3606.2180149,N,14005.1791096,E,4,11,1.1,31.774,M,38.037,M,2.0,*79
$GPRMC,160305.00,A,3606.2180163,N,14005.1791110,E,0.07,0.00,270819,0.0,E,D*31
$GPGGA,160305.00,3606.2180163,N,14005.1791110,E,4,11,1.1,31.777,M,38.037,M,3.0,*7D
$GPRMC,160306.00,A,3606.2180152,N,14005.1791111,E,0.03,0.00,270819,0.0,E,D*35
$GPGGA,160306.00,3606.2180152,N,14005.1791111,E,4,11,1.1,31.783,M,38.037,M,4.0,*71
$GPRMC,160307.00,A,3606.2180168,N,14005.1791080,E,0.05,0.00,270819,0.0,E,D*32
$GPGGA,160307.00,3606.2180168,N,14005.1791080,E,4,11,1.1,31.775,M,38.037,M,0.0,*7D
$GPRMC,160308.00,A,3606.2180190,N,14005.1791087,E,0.05,0.00,270819,0.0,E,D*3D
$GPGGA,160308.00,3606.2180190,N,14005.1791087,E,4,11,1.1,31.765,M,38.037,M,1.0,*72
$GPRMC,160309.00,A,3606.2180190,N,14005.1791073,E,0.02,0.00,270819,0.0,E,D*30
$GPGGA,160309.00,3606.2180190,N,14005.1791073,E,4,11,1.1,31.779,M,38.037,M,2.0,*76
$GPRMC,160310.00,A,3606.2180217,N,14005.1791048,E,0.05,0.00,270819,0.0,E,D*3B
$GPGGA,160310.00,3606.2180217,N,14005.1791048,E,4,11,1.1,31.762,M,38.037,M,3.0,*71
$GPRMC,160311.00,A,3606.2180215,N,14005.1791056,E,0.07,0.00,270819,0.0,E,D*35
$GPGGA,160311.00,3606.2180215,N,14005.1791056,E,4,11,1.1,31.755,M,38.037,M,4.0,*7E
$GPRMC,160312.00,A,3606.2180235,N,14005.1791065,E,0.05,0.00,270819,0.0,E,D*36
$GPGGA,160312.00,3606.2180235,N,14005.1791065,E,4,09,1.1,31.777,M,38.037,M,0.0,*72
$GPRMC,160313.00,A,3606.2180234,N,14005.1791044,E,0.08,0.00,270819,0.0,E,D*38
$GPGGA,160313.00,3606.2180234,N,14005.1791044,E,4,09,1.1,31.792,M,38.037,M,1.0,*7B
$GPRMC,160314.00,A,3606.2180234,N,14005.1791028,E,0.02,0.00,270819,0.0,E,D*3F
$GPGGA,160314.00,3606.2180234,N,14005.1791028,E,4,09,1.1,31.794,M,38.037,M,2.0,*73
$GPRMC,160315.00,A,3606.2180240,N,14005.1791051,E,0.04,0.00,270819,0.0,E,D*35
$GPGGA,160315.00,3606.2180240,N,14005.1791051,E,4,09,1.1,31.790,M,38.037,M,3.0,*7A
$GPRMC,160316.00,A,3606.2180222,N,14005.1791061,E,0.03,0.00,270819,0.0,E,D*36
$GPGGA,160316.00,3606.2180222,N,14005.1791061,E,4,09,1.1,31.801,M,38.037,M,4.0,*7E
$GPRMC,160317.00,A,3606.2180231,N,14005.1791052,E,0.07,0.00,270819,0.0,E,D*31
$GPGGA,160317.00,3606.2180231,N,14005.1791052,E,4,09,1.1,31.787,M,38.037,M,0.0,*78
$GPRMC,160318.00,A,3606.2180230,N,14005.1791043,E,0.10,0.00,270819,0.0,E,D*39
$GPGGA,160318.00,3606.2180230,N,14005.1791043,E,4,09,1.1,31.772,M,38.037,M,1.0,*7D
$GPRMC,160319.00,A,3606.2180211,N,14005.1791077,E,0.04,0.00,270819,0.0,E,D*39
$GPGGA,160319.00,3606.2180211,N,14005.1791077,E,4,09,1.1,31.777,M,38.037,M,2.0,*7E
$GPRMC,160320.00,A,3606.2180212,N,14005.1791077,E,0.03,0.00,270819,0.0,E,D*37
$GPGGA,160320.00,3606.2180212,N,14005.1791077,E,4,09,1.1,31.775,M,38.037,M,3.0,*74
$GPRMC,160321.00,A,3606.2180239,N,14005.1791045,E,0.04,0.00,270819,0.0,E,D*39
$GPGGA,160321.00,3606.2180239,N,14005.1791045,E,4,09,1.1,31.777,M,38.037,M,4.0,*78
$GPRMC,160322.00,A,3606.2180200,N,14005.1791051,E,0.09,0.00,270819,0.0,E,D*38
$GPGGA,160322.00,3606.2180200,N,14005.1791051,E,4,09,1.1,31.770,M,38.037,M,0.0,*77
$GPRMC,160323.00,A,3606.2180206,N,14005.1791057,E,0.03,0.00,270819,0.0,E,D*33
$GPGGA,160323.00,3606.2180206,N,14005.1791057,E,4,09,1.1,31.764,M,38.037,M,1.0,*72
$GPRMC,160324.00,A,3606.2180216,N,14005.1791037,E,0.02,0.00,270819,0.0,E,D*32
$GPGGA,160324.00,3606.2180216,N,14005.1791037,E,4,09,1.1,31.779,M,38.037,M,2.0,*7D
$GPRMC,160325.00,A,3606.2180224,N,14005.1791042,E,0.09,0.00,270819,0.0,E,D*3B
$GPGGA,160325.00,3606.2180224,N,14005.1791042,E,4,09,1.1,31.786,M,38.037,M,3.0,*7E
$GPRMC,160326.00,A,3606.2180229,N,14005.1791022,E,0.07,0.00,270819,0.0,E,D*3D
$GPGGA,160326.00,3606.2180229,N,14005.1791022,E,4,09,1.1,31.793,M,38.037,M,4.0,*75
$GPRMC,160327.00,A,3606.2180196,N,14005.1791038,E,0.07,0.00,270819,0.0,E,D*30
$GPGGA,160327.00,3606.2180196,N,14005.1791038,E,4,11,1.1,31.770,M,38.037,M,0.0,*78
$GPRMC,160328.00,A,3606.2180199,N,14005.1791040,E,0.03,0.00,270819,0.0,E,D*3B
$GPGGA,160328.00,3606.2180199,N,14005.1791040,E,4,11,1.1,31.779,M,38.037,M,1.0,*7F
$GPRMC,160329.00,A,3606.2180224,N,14005.1791028,E,0.05,0.00,270819,0.0,E,D*37
$GPGGA,160329.00,3606.2180224,N,14005.1791028,E,4,11,1.1,31.787,M,38.037,M,2.0,*77
$GPRMC,160330.00,A,3606.2180231,N,14005.1791023,E,0.06,0.00,270819,0.0,E,D*33
$GPGGA,160330.00,3606.2180231,N,14005.1791023,E,4,11,1.1,31.779,M,38.037,M,3.0,*70
$GPRMC,160331.00,A,3606.2180234,N,14005.1791017,E,0.03,0.00,270819,0.0,E,D*35
$GPGGA,160331.00,3606.2180234,N,14005.1791017,E,4,11,1.1,31.787,M,38.037,M,4.0,*75
$GPRMC,160332.00,A,3606.2180208,N,14005.1791038,E,0.03,0.00,270819,0.0,E,D*34
$GPGGA,160332.00,3606.2180208,N,14005.1791038,E,4,11,1.1,31.791,M,38.037,M,0.0,*77
$GPRMC,160333.00,A,3606.2180199,N,14005.1791017,E,0.07,0.00,270819,0.0,E,D*37
$GPGGA,160333.00,3606.2180199,N,14005.1791017,E,4,11,1.1,31.789,M,38.037,M,1.0,*78
$GPRMC,160334.00,A,3606.2180207,N,14005.1790995,E,0.02,0.00,270819,0.0,E,D*33
$GPGGA,160334.00,3606.2180207,N,14005.1790995,E,4,11,1.1,31.795,M,38.037,M,2.0,*77
$GPRMC,160335.00,A,3606.2180226,N,14005.1790988,E,0.03,0.00,270819,0.0,E,D*3C
$GPGGA,160335.00,3606.2180226,N,14005.1790988,E,4,11,1.1,31.790,M,38.037,M,3.0,*7D
$GPRMC,160336.00,A,3606.2180237,N,14005.1790980,E,0.04,0.00,270819,0.0,E,D*30
$GPGGA,160336.00,3606.2180237,N,14005.1790980,E,4,11,1.1,31.792,M,38.037,M,4.0,*73
$GPRMC,160337.00,A,3606.2180216,N,14005.1791020,E,0.03,0.00,270819,0.0,E,D*37
$GPGGA,160337.00,3606.2180216,N,14005.1791020,E,4,11,1.1,31.791,M,38.037,M,0.0,*74
$GPRMC,160338.00,A,3606.2180236,N,14005.1791019,E,0.03,0.00,270819,0.0,E,D*30
$GPGGA,160338.00,3606.2180236,N,14005.1791019,E,4,11,1.1,31.780,M,38.037,M,1.0,*72
$GPRMC,160339.00,A,3606.2180236,N,14005.1791010,E,0.05,0.00,270819,0.0,E,D*3E
$GPGGA,160339.00,3606.2180236,N,14005.1791010,E,4,11,1.1,31.783,M,38.037,M,2.0,*7A
$GPRMC,160340.00,A,3606.2180231,N,14005.1791004,E,0.03,0.00,270819,0.0,E,D*34
$GPGGA,160340.00,3606.2180231,N,14005.1791004,E,4,11,1.1,31.783,M,38.037,M,3.0,*77
$GPRMC,160341.00,A,3606.2180210,N,14005.1791001,E,0.01,0.00,270819,0.0,E,D*31
$GPGGA,160341.00,3606.2180210,N,14005.1791001,E,4,11,1.1,31.792,M,38.037,M,4.0,*77
$GPRMC,160342.00,A,3606.2180202,N,14005.1791020,E,0.07,0.00,270819,0.0,E,D*34
$GPGGA,160342.00,3606.2180202,N,14005.1791020,E,4,11,1.1,31.794,M,38.037,M,0.0,*76
$GPRMC,160343.00,A,3606.2180224,N,14005.1791023,E,0.04,0.00,270819,0.0,E,D*31
$GPGGA,160343.00,3606.2180224,N,14005.1791023,E,4,11,1.1,31.800,M,38.037,M,1.0,*73
$GPRMC,160344.00,A,3606.2180229,N,14005.1791030,E,0.05,0.00,270819,0.0,E,D*38
$GPGGA,160344.00,3606.2180229,N,14005.1791030,E,4,11,1.1,31.805,M,38.037,M,2.0,*7D
$GPRMC,160345.00,A,3606.2180201,N,14005.1791054,E,0.08,0.00,270819,0.0,E,D*3C
$GPGGA,160345.00,3606.2180201,N,14005.1791054,E,4,11,1.1,31.796,M,38.037,M,3.0,*70
$GPRMC,160346.00,A,3606.2180189,N,14005.1791068,E,0.05,0.00,270819,0.0,E,D*3E
$GPGGA,160346.00,3606.2180189,N,14005.1791068,E,4,11,1.1,31.791,M,38.037,M,4.0,*7F
$GPRMC,160347.00,A,3606.2180207,N,14005.1791071,E,0.11,0.00,270819,0.0,E,D*37
$GPGGA,160347.00,3606.2180207,N,14005.1791071,E,4,11,1.1,31.773,M,38.037,M,0.0,*7B
$GPRMC,160348.00,A,3606.2180194,N,14005.1791101,E,0.02,0.00,270819,0.0,E,D*35
$GPGGA,160348.00,3606.2180194,N,14005.1791101,E,4,11,1.1,31.784,M,38.037,M,1.0,*72
$GPRMC,160349.00,A,3606.2180177,N,14005.1791127,E,0.01,0.00,270819,0.0,E,D*3E
$GPGGA,160349.00,3606.2180177,N,14005.1791127,E,4,11,1.1,31.779,M,38.037,M,2.0,*7B
$GPRMC,160350.00,A,3606.2180177,N,14005.1791156,E,0.05,0.00,270819,0.0,E,D*34
$GPGGA,160350.00,3606.2180177,N,14005.1791156,E,4,11,1.1,31.790,M,38.037,M,3.0,*73
$GPRMC,160351.00,A,3606.2180163,N,14005.1791163,E,0.02,0.00,270819,0.0,E,D*31
$GPGGA,160351.00,3606.2180163,N,14005.1791163,E,4,11,1.1,31.782,M,38.037,M,4.0,*75
$GPRMC,160352.00,A,3606.2180157,N,14005.1791168,E,0.07,0.00,270819,0.0,E,D*3B
$GPGGA,160352.00,3606.2180157,N,14005.1791168,E,4,11,1.1,31.788,M,38.037,M,0.0,*74
$GPRMC,160353.00,A,3606.2180162,N,14005.1791140,E,0.02,0.00,270819,0.0,E,D*33
$GPGGA,160353.00,3606.2180162,N,14005.1791140,E,4,11,1.1,31.784,M,38.037,M,1.0,*74
$GPRMC,160354.00,A,3606.2180146,N,14005.1791148,E,0.04,0.00,270819,0.0,E,D*3C
$GPGGA,160354.00,3606.2180146,N,14005.1791148,E,4,11,1.1,31.782,M,38.037,M,2.0,*78
$GPRMC,160355.00,A,3606.2180137,N,14005.1791158,E,0.02,0.00,270819,0.0,E,D*3C
$GPGGA,160355.00,3606.2180137,N,14005.1791158,E,4,11,1.1,31.782,M,38.037,M,3.0,*7F
$GPRMC,160356.00,A,3606.2180132,N,14005.1791169,E,0.03,0.00,270819,0.0,E,D*39
$GPGGA,160356.00,3606.2180132,N,14005.1791169,E,4,11,1.1,31.790,M,38.037,M,4.0,*7F
$GPRMC,160357.00,A,3606.2180161,N,14005.1791160,E,0.02,0.00,270819,0.0,E,D*36
$GPGGA,160357.00,3606.2180161,N,14005.1791160,E,4,10,1.1,31.756,M,38.037,M,0.0,*7E
$GPRMC,160358.00,A,3606.2180158,N,14005.1791180,E,0.03,0.00,270819,0.0,E,D*3C
$GPGGA,160358.00,3606.2180158,N,14005.1791180,E,4,10,1.1,31.780,M,38.037,M,1.0,*7F
$GPRMC,160359.00,A,3606.2180142,N,14005.1791175,E,0.03,0.00,270819,0.0,E,D*3C
$GPGGA,160359.00,3606.2180142,N,14005.1791175,E,4,10,1.1,31.777,M,38.037,M,2.0,*74
$GPRMC,160400.00,A,3606.2180137,N,14005.1791174,E,0.01,0.00,270819,0.0,E,D*36
$GPGGA,160400.00,3606.2180137,N,14005.1791174,E,4,10,1.1,31.777,M,38.037,M,3.0,*7D
$GPRMC,160401.00,A,3606.2180147,N,14005.1791188,E,0.03,0.00,270819,0.0,E,D*31
$GPGGA,160401.00,3606.2180147,N,14005.1791188,E,4,10,1.1,31.777,M,38.037,M,4.0,*7F
$GPRMC,160402.00,A,3606.2180154,N,14005.1791145,E,0.03,0.00,270819,0.0,E,D*31
$GPGGA,160402.00,3606.2180154,N,14005.1791145,E,4,10,1.1,31.776,M,38.037,M,0.0,*7A
$GPRMC,160403.00,A,3606.2180142,N,14005.1791137,E,0.07,0.00,270819,0.0,E,D*36
$GPGGA,160403.00,3606.2180142,N,14005.1791137,E,4,10,1.1,31.789,M,38.037,M,1.0,*78
$GPRMC,160404.00,A,3606.2180133,N,14005.1791183,E,0.04,0.00,270819,0.0,E,D*3B
$GPGGA,160404.00,3606.2180133,N,14005.1791183,E,4,10,1.1,31.787,M,38.037,M,2.0,*7B
$GPRMC,160405.00,A,3606.2180156,N,14005.1791187,E,0.04,0.00,270819,0.0,E,D*3D
$GPGGA,160405.00,3606.2180156,N,14005.1791187,E,4,10,1.1,31.796,M,38.037,M,3.0,*7C
$GPRMC,160406.00,A,3606.2180146,N,14005.1791193,E,0.03,0.00,270819,0.0,E,D*3D
$GPGGA,160406.00,3606.2180146,N,14005.1791193,E,4,10,1.1,31.798,M,38.037,M,4.0,*72
$GPRMC,160407.00,A,3606.2180164,N,14005.1791124,E,0.05,0.00,270819,0.0,E,D*36
$GPGGA,160407.00,3606.2180164,N,14005.1791124,E,4,10,1.1,31.794,M,38.037,M,0.0,*77
$GPRMC,160408.00,A,3606.2180126,N,14005.1791167,E,0.02,0.00,270819,0.0,E,D*3F
$GPGGA,160408.00,3606.2180126,N,14005.1791167,E,4,10,1.1,31.793,M,38.037,M,1.0,*7F
$GPRMC,160409.00,A,3606.2180144,N,14005.1791176,E,0.02,0.00,270819,0.0,E,D*3A
$GPGGA,160409.00,3606.2180144,N,14005.1791176,E,4,10,1.1,31.806,M,38.037,M,2.0,*7A
$GPRMC,160410.00,A,3606.2180148,N,14005.1791176,E,0.02,0.00,270819,0.0,E,D*3E
$GPGGA,160410.00,3606.2180148,N,14005.1791176,E,4,10,1.1,31.813,M,38.037,M,3.0,*7B
$GPRMC,160411.00,A,3606.2180146,N,14005.1791192,E,0.03,0.00,270819,0.0,E,D*3A
$GPGGA,160411.00,3606.2180146,N,14005.1791192,E,4,10,1.1,31.818,M,38.037,M,4.0,*72
$GPRMC,160412.00,A,3606.2180132,N,14005.1791215,E,0.06,0.00,270819,0.0,E,D*33
$GPGGA,160412.00,3606.2180132,N,14005.1791215,E,4,10,1.1,31.807,M,38.037,M,0.0,*74
$GPRMC,160413.00,A,3606.2180126,N,14005.1791199,E,0.10,0.00,270819,0.0,E,D*37
$GPGGA,160413.00,3606.2180126,N,14005.1791199,E,4,10,1.1,31.812,M,38.037,M,1.0,*72
$GPRMC,160414.00,A,3606.2180122,N,14005.1791220,E,0.03,0.00,270819,0.0,E,D*37
$GPGGA,160414.00,3606.2180122,N,14005.1791220,E,4,10,1.1,31.832,M,38.037,M,2.0,*71
$GPRMC,160415.00,A,3606.2180113,N,14005.1791220,E,0.03,0.00,270819,0.0,E,D*34
$GPGGA,160415.00,3606.2180113,N,14005.1791220,E,4,10,1.1,31.831,M,38.037,M,3.0,*70
$GPRMC,160416.00,A,3606.2180111,N,14005.1791231,E,0.07,0.00,270819,0.0,E,D*31
$GPGGA,160416.00,3606.2180111,N,14005.1791231,E,4,10,1.1,31.820,M,38.037,M,4.0,*76
$GPRMC,160417.00,A,3606.2180128,N,14005.1791180,E,0.06,0.00,270819,0.0,E,D*32
$GPGGA,160417.00,3606.2180128,N,14005.1791180,E,4,10,1.1,31.813,M,38.037,M,0.0,*70
$GPRMC,160418.00,A,3606.2180124,N,14005.1791204,E,0.02,0.00,270819,0.0,E,D*3A
$GPGGA,160418.00,3606.2180124,N,14005.1791204,E,4,10,1.1,31.812,M,38.037,M,1.0,*7C
$GPRMC,160419.00,A,3606.2180140,N,14005.1791188,E,0.05,0.00,270819,0.0,E,D*39
$GPGGA,160419.00,3606.2180140,N,14005.1791188,E,4,10,1.1,31.816,M,38.037,M,2.0,*7F
$GPRMC,160420.00,A,3606.2180141,N,14005.1791202,E,0.08,0.00,270819,0.0,E,D*3E
$GPGGA,160420.00,3606.2180141,N,14005.1791202,E,4,10,1.1,31.803,M,38.037,M,3.0,*70
$GPRMC,160421.00,A,3606.2180140,N,14005.1791195,E,0.02,0.00,270819,0.0,E,D*39
$GPGGA,160421.00,3606.2180140,N,14005.1791195,E,4,10,1.1,31.807,M,38.037,M,4.0,*7E
$GPRMC,160422.00,A,3606.2180129,N,14005.1791185,E,0.11,0.00,270819,0.0,E,D*36
$GPGGA,160422.00,3606.2180129,N,14005.1791185,E,4,10,1.1,31.783,M,38.037,M,0.0,*74
$GPRMC,160423.00,A,3606.2180135,N,14005.1791189,E,0.01,0.00,270819,0.0,E,D*37
$GPGGA,160423.00,3606.2180135,N,14005.1791189,E,4,10,1.1,31.805,M,38.037,M,1.0,*74
$GPRMC,160424.00,A,3606.2180142,N,14005.1791187,E,0.03,0.00,270819,0.0,E,D*3C
$GPGGA,160424.00,3606.2180142,N,14005.1791187,E,4,10,1.1,31.807,M,38.037,M,2.0,*7C
$GPRMC,160425.00,A,3606.2180134,N,14005.1791183,E,0.04,0.00,270819,0.0,E,D*3F
$GPGGA,160425.00,3606.2180134,N,14005.1791183,E,4,10,1.1,31.804,M,38.037,M,3.0,*7A
$GPRMC,160426.00,A,3606.2180151,N,14005.1791163,E,0.03,0.00,270819,0.0,E,D*36
$GPGGA,160426.00,3606.2180151,N,14005.1791163,E,4,10,1.1,31.802,M,38.037,M,4.0,*75
$GPRMC,160427.00,A,3606.2180138,N,14005.1791057,E,0.03,0.00,270819,0.0,E,D*3E
$GPGGA,160427.00,3606.2180138,N,14005.1791057,E,4,11,1.1,31.784,M,38.037,M,0.0,*79
$GPRMC,160428.00,A,3606.2180128,N,14005.1791053,E,0.03,0.00,270819,0.0,E,D*34
$GPGGA,160428.00,3606.2180128,N,14005.1791053,E,4,11,1.1,31.775,M,38.037,M,1.0,*7C
$GPRMC,160429.00,A,3606.2180158,N,14005.1791049,E,0.09,0.00,270819,0.0,E,D*33
$GPGGA,160429.00,3606.2180158,N,14005.1791049,E,4,11,1.1,31.771,M,38.037,M,2.0,*76
$GPRMC,160430.00,A,3606.2180146,N,14005.1791031,E,0.05,0.00,270819,0.0,E,D*37
$GPGGA,160430.00,3606.2180146,N,14005.1791031,E,4,11,1.1,31.780,M,38.037,M,3.0,*71
$GPRMC,160431.00,A,3606.2180146,N,14005.1791068,E,0.02,0.00,270819,0.0,E,D*3D
$GPGGA,160431.00,3606.2180146,N,14005.1791068,E,4,11,1.1,31.785,M,38.037,M,4.0,*7E
$GPRMC,160432.00,A,3606.2180148,N,14005.1791043,E,0.02,0.00,270819,0.0,E,D*39
$GPGGA,160432.00,3606.2180148,N,14005.1791043,E,4,11,1.1,31.778,M,38.037,M,0.0,*7C
$GPRMC,160433.00,A,3606.2180173,N,14005.1791052,E,0.04,0.00,270819,0.0,E,D*36
$GPGGA,160433.00,3606.2180173,N,14005.1791052,E,4,11,1.1,31.785,M,38.037,M,1.0,*76
$GPRMC,160434.00,A,3606.2180178,N,14005.1791058,E,0.06,0.00,270819,0.0,E,D*32
$GPGGA,160434.00,3606.2180178,N,14005.1791058,E,4,11,1.1,31.777,M,38.037,M,2.0,*7E
$GPRMC,160435.00,A,3606.2180149,N,14005.1791070,E,0.06,0.00,270819,0.0,E,D*3B
$GPGGA,160435.00,3606.2180149,N,14005.1791070,E,4,11,1.1,31.781,M,38.037,M,3.0,*7F
$GPRMC,160436.00,A,3606.2180154,N,14005.1791047,E,0.04,0.00,270819,0.0,E,D*32
$GPGGA,160436.00,3606.2180154,N,14005.1791047,E,4,11,1.1,31.787,M,38.037,M,4.0,*75
$GPRMC,160437.00,A,3606.2180151,N,14005.1791065,E,0.04,0.00,270819,0.0,E,D*36
$GPGGA,160437.00,3606.2180151,N,14005.1791065,E,4,11,1.1,31.780,M,38.037,M,0.0,*72
$GPRMC,160438.00,A,3606.2180150,N,14005.1791078,E,0.14,0.00,270819,0.0,E,D*35
$GPGGA,160438.00,3606.2180150,N,14005.1791078,E,4,11,1.1,31.769,M,38.037,M,1.0,*76
$GPRMC,160439.00,A,3606.2180135,N,14005.1791071,E,0.08,0.00,270819,0.0,E,D*33
$GPGGA,160439.00,3606.2180135,N,14005.1791071,E,4,11,1.1,31.770,M,38.037,M,2.0,*76
$GPRMC,160440.00,A,3606.2180164,N,14005.1791070,E,0.03,0.00,270819,0.0,E,D*33
$GPGGA,160440.00,3606.2180164,N,14005.1791070,E,4,11,1.1,31.773,M,38.037,M,3.0,*7F
$GPRMC,160441.00,A,3606.2180134,N,14005.1791083,E,0.03,0.00,270819,0.0,E,D*3B
$GPGGA,160441.00,3606.2180134,N,14005.1791083,E,4,11,1.1,31.779,M,38.037,M,4.0,*7A
$GPRMC,160442.00,A,3606.2180161,N,14005.1791083,E,0.08,0.00,270819,0.0,E,D*33
$GPGGA,160442.00,3606.2180161,N,14005.1791083,E,4,11,1.1,31.765,M,38.037,M,0.0,*70
$GPRMC,160443.00,A,3606.2180166,N,14005.1791064,E,0.05,0.00,270819,0.0,E,D*31
$GPGGA,160443.00,3606.2180166,N,14005.1791064,E,4,11,1.1,31.782,M,38.037,M,1.0,*77
$GPRMC,160444.00,A,3606.2180169,N,14005.1791073,E,0.04,0.00,270819,0.0,E,D*3E
$GPGGA,160444.00,3606.2180169,N,14005.1791073,E,4,11,1.1,31.785,M,38.037,M,2.0,*7D
$GPRMC,160445.00,A,3606.2180156,N,14005.1791089,E,0.04,0.00,270819,0.0,E,D*36
$GPGGA,160445.00,3606.2180156,N,14005.1791089,E,4,11,1.1,31.789,M,38.037,M,3.0,*78
$GPRMC,160446.00,A,3606.2180157,N,14005.1791090,E,0.11,0.00,270819,0.0,E,D*38
$GPGGA,160446.00,3606.2180157,N,14005.1791090,E,4,11,1.1,31.790,M,38.037,M,4.0,*7D
$GPRMC,160447.00,A,3606.2180148,N,14005.1791077,E,0.06,0.00,270819,0.0,E,D*38
$GPGGA,160447.00,3606.2180148,N,14005.1791077,E,4,11,1.1,31.790,M,38.037,M,0.0,*7F
$GPRMC,160448.00,A,3606.2180162,N,14005.1791085,E,0.03,0.00,270819,0.0,E,D*37
$GPGGA,160448.00,3606.2180162,N,14005.1791085,E,4,11,1.1,31.796,M,38.037,M,1.0,*72
$GPRMC,160449.00,A,3606.2180140,N,14005.1791080,E,0.02,0.00,270819,0.0,E,D*32
$GPGGA,160449.00,3606.2180140,N,14005.1791080,E,4,11,1.1,31.798,M,38.037,M,2.0,*7B
$GPRMC,160450.00,A,3606.2180149,N,14005.1791100,E,0.02,0.00,270819,0.0,E,D*3A
$GPGGA,160450.00,3606.2180149,N,14005.1791100,E,4,11,1.1,31.792,M,38.037,M,3.0,*78
$GPRMC,160451.00,A,3606.2180140,N,14005.1791100,E,0.08,0.00,270819,0.0,E,D*38
$GPGGA,160451.00,3606.2180140,N,14005.1791100,E,4,11,1.1,31.800,M,38.037,M,4.0,*73
$GPRMC,160452.00,A,3606.2180147,N,14005.1791061,E,0.03,0.00,270819,0.0,E,D*31
$GPGGA,160452.00,3606.2180147,N,14005.1791061,E,4,11,1.1,31.784,M,38.037,M,0.0,*76
$GPRMC,160453.00,A,3606.2180159,N,14005.1791071,E,0.07,0.00,270819,0.0,E,D*3A
$GPGGA,160453.00,3606.2180159,N,14005.1791071,E,4,11,1.1,31.787,M,38.037,M,1.0,*7B
$GPRMC,160454.00,A,3606.2180165,N,14005.1791055,E,0.02,0.00,270819,0.0,E,D*31
$GPGGA,160454.00,3606.2180165,N,14005.1791055,E,4,11,1.1,31.782,M,38.037,M,2.0,*73
$GPRMC,160455.00,A,3606.2180145,N,14005.1791070,E,0.06,0.00,270819,0.0,E,D*31
$GPGGA,160455.00,3606.2180145,N,14005.1791070,E,4,11,1.1,31.775,M,38.037,M,3.0,*7E
$GPRMC,160456.00,A,3606.2180165,N,14005.1791073,E,0.04,0.00,270819,0.0,E,D*31
$GPGGA,160456.00,3606.2180165,N,14005.1791073,E,4,11,1.1,31.789,M,38.037,M,4.0,*78
$GPRMC,160457.00,A,3606.2180178,N,14005.1791075,E,0.03,0.00,270819,0.0,E,D*3D
$GPGGA,160457.00,3606.2180178,N,14005.1791075,E,4,11,1.1,31.764,M,38.037,M,0.0,*74
$GPRMC,160458.00,A,3606.2180167,N,14005.1791067,E,0.06,0.00,270819,0.0,E,D*3A
$GPGGA,160458.00,3606.2180167,N,14005.1791067,E,4,11,1.1,31.752,M,38.037,M,1.0,*72
$GPRMC,160459.00,A,3606.2180188,N,14005.1791067,E,0.02,0.00,270819,0.0,E,D*3E
$GPGGA,160459.00,3606.2180188,N,14005.1791067,E,4,11,1.1,31.743,M,38.037,M,2.0,*71
$GPRMC,160500.00,A,3606.2180193,N,14005.1791061,E,0.08,0.00,270819,0.0,E,D*35
$GPGGA,160500.00,3606.2180193,N,14005.1791061,E,4,11,1.1,31.764,M,38.037,M,3.0,*74
$GPRMC,160501.00,A,3606.2180167,N,14005.1791068,E,0.03,0.00,270819,0.0,E,D*3D
$GPGGA,160501.00,3606.2180167,N,14005.1791068,E,4,11,1.1,31.754,M,38.037,M,4.0,*73
$GPRMC,160502.00,A,3606.2180202,N,14005.1791040,E,0.09,0.00,270819,0.0,E,D*3E
$GPGGA,160502.00,3606.2180202,N,14005.1791040,E,4,11,1.1,31.742,M,38.037,M,0.0,*79
$GPRMC,160503.00,A,3606.2180201,N,14005.1791048,E,0.09,0.00,270819,0.0,E,D*34
$GPGGA,160503.00,3606.2180201,N,14005.1791048,E,4,11,1.1,31.744,M,38.037,M,1.0,*74
$GPRMC,160504.00,A,3606.2180217,N,14005.1791066,E,0.05,0.00,270819,0.0,E,D*34
$GPGGA,160504.00,3606.2180217,N,14005.1791066,E,4,11,1.1,31.752,M,38.037,M,2.0,*7C
$GPRMC,160505.00,A,3606.2180194,N,14005.1791065,E,0.03,0.00,270819,0.0,E,D*38
$GPGGA,160505.00,3606.2180194,N,14005.1791065,E,4,11,1.1,31.752,M,38.037,M,3.0,*77
$GPRMC,160506.00,A,3606.2180204,N,14005.1791077,E,0.03,0.00,270819,0.0,E,D*32
$GPGGA,160506.00,3606.2180204,N,14005.1791077,E,4,11,1.1,31.755,M,38.037,M,4.0,*7D
$GPRMC,160507.00,A,3606.2180191,N,14005.1791082,E,0.04,0.00,270819,0.0,E,D*31
$GPGGA,160507.00,3606.2180191,N,14005.1791082,E,4,11,1.1,31.762,M,38.037,M,0.0,*79
$GPRMC,160508.00,A,3606.2180200,N,14005.1791073,E,0.05,0.00,270819,0.0,E,D*3A
$GPGGA,160508.00,3606.2180200,N,14005.1791073,E,4,11,1.1,31.744,M,38.037,M,1.0,*76
$GPRMC,160509.00,A,3606.2180201,N,14005.1791064,E,0.03,0.00,270819,0.0,E,D*3A
$GPGGA,160509.00,3606.2180201,N,14005.1791064,E,4,11,1.1,31.756,M,38.037,M,2.0,*70
$GPRMC,160510.00,A,3606.2180189,N,14005.1791064,E,0.05,0.00,270819,0.0,E,D*37
$GPGGA,160510.00,3606.2180189,N,14005.1791064,E,4,11,1.1,31.751,M,38.037,M,3.0,*7D
$GPRMC,160511.00,A,3606.2180196,N,14005.1791091,E,0.07,0.00,270819,0.0,E,D*30
$GPGGA,160511.00,3606.2180196,N,14005.1791091,E,4,11,1.1,31.750,M,38.037,M,4.0,*7E
$GPRMC,160512.00,A,3606.2180200,N,14005.1791088,E,0.04,0.00,270819,0.0,E,D*34
$GPGGA,160512.00,3606.2180200,N,14005.1791088,E,4,11,1.1,31.744,M,38.037,M,0.0,*78
$GPRMC,160513.00,A,3606.2180210,N,14005.1791090,E,0.02,0.00,270819,0.0,E,D*3B
$GPGGA,160513.00,3606.2180210,N,14005.1791090,E,4,11,1.1,31.759,M,38.037,M,1.0,*7C
$GPRMC,160514.00,A,3606.2180191,N,14005.1791100,E,0.07,0.00,270819,0.0,E,D*3B
$GPGGA,160514.00,3606.2180191,N,14005.1791100,E,4,11,1.1,31.763,M,38.037,M,2.0,*73
$GPRMC,160515.00,A,3606.2180206,N,14005.1791082,E,0.07,0.00,270819,0.0,E,D*3C
$GPGGA,160515.00,3606.2180206,N,14005.1791082,E,4,11,1.1,31.753,M,38.037,M,3.0,*76
$GPRMC,160516.00,A,3606.2180206,N,14005.1791095,E,0.08,0.00,270819,0.0,E,D*36
$GPGGA,160516.00,3606.2180206,N,14005.1791095,E,4,11,1.1,31.753,M,38.037,M,4.0,*74
$GPRMC,160517.00,A,3606.2180193,N,14005.1791109,E,0.05,0.00,270819,0.0,E,D*31
$GPGGA,160517.00,3606.2180193,N,14005.1791109,E,4,11,1.1,31.752,M,38.037,M,0.0,*7B
$GPRMC,160518.00,A,3606.2180200,N,14005.1791120,E,0.06,0.00,270819,0.0,E,D*3F
$GPGGA,160518.00,3606.2180200,N,14005.1791120,E,4,11,1.1,31.758,M,38.037,M,1.0,*7D
$GPRMC,160519.00,A,3606.2180196,N,14005.1791105,E,0.02,0.00,270819,0.0,E,D*31
$GPGGA,160519.00,3606.2180196,N,14005.1791105,E,4,11,1.1,31.760,M,38.037,M,2.0,*7F
$GPRMC,160520.00,A,3606.2180201,N,14005.1791102,E,0.05,0.00,270819,0.0,E,D*36
$GPGGA,160520.00,3606.2180201,N,14005.1791102,E,4,11,1.1,31.765,M,38.037,M,3.0,*7B
$GPRMC,160521.00,A,3606.2180202,N,14005.1791108,E,0.03,0.00,270819,0.0,E,D*38
$GPGGA,160521.00,3606.2180202,N,14005.1791108,E,4,11,1.1,31.759,M,38.037,M,4.0,*7B
$GPRMC,160522.00,A,3606.2180195,N,14005.1791099,E,0.11,0.00,270819,0.0,E,D*3C
$GPGGA,160522.00,3606.2180195,N,14005.1791099,E,4,11,1.1,31.752,M,38.037,M,0.0,*73
$GPRMC,160523.00,A,3606.2180222,N,14005.1791106,E,0.03,0.00,270819,0.0,E,D*36
$GPGGA,160523.00,3606.2180222,N,14005.1791106,E,4,11,1.1,31.752,M,38.037,M,1.0,*7B
$GPRMC,160524.00,A,3606.2180207,N,14005.1791092,E,0.04,0.00,270819,0.0,E,D*3D
$GPGGA,160524.00,3606.2180207,N,14005.1791092,E,4,11,1.1,31.765,M,38.037,M,2.0,*70
$GPRMC,160525.00,A,3606.2180203,N,14005.1791074,E,0.02,0.00,270819,0.0,E,D*36
$GPGGA,160525.00,3606.2180203,N,14005.1791074,E,4,11,1.1,31.750,M,38.037,M,3.0,*7A
$GPRMC,160526.00,A,3606.2180220,N,14005.1791096,E,0.03,0.00,270819,0.0,E,D*39
$GPGGA,160526.00,3606.2180220,N,14005.1791096,E,4,11,1.1,31.748,M,38.037,M,4.0,*7A
$GPRMC,160527.00,A,3606.2180188,N,14005.1791099,E,0.02,0.00,270819,0.0,E,D*37
$GPGGA,160527.00,3606.2180188,N,14005.1791099,E,4,09,1.1,31.758,M,38.037,M,0.0,*79
$GPRMC,160528.00,A,3606.2180163,N,14005.1791110,E,0.02,0.00,270819,0.0,E,D*3D
$GPGGA,160528.00,3606.2180163,N,14005.1791110,E,4,09,1.1,31.753,M,38.037,M,1.0,*79
$GPRMC,160529.00,A,3606.2180146,N,14005.1791111,E,0.06,0.00,270819,0.0,E,D*3E
$GPGGA,160529.00,3606.2180146,N,14005.1791111,E,4,09,1.1,31.750,M,38.037,M,2.0,*7E
$GPRMC,160530.00,A,3606.2180154,N,14005.1791113,E,0.03,0.00,270819,0.0,E,D*32
$GPGGA,160530.00,3606.2180154,N,14005.1791113,E,4,09,1.1,31.753,M,38.037,M,3.0,*75
$GPRMC,160531.00,A,3606.2180167,N,14005.1791114,E,0.03,0.00,270819,0.0,E,D*34
$GPGGA,160531.00,3606.2180167,N,14005.1791114,E,4,09,1.1,31.752,M,38.037,M,4.0,*75
$GPRMC,160532.00,A,3606.2180131,N,14005.1791148,E,0.11,0.00,270819,0.0,E,D*3E
$GPGGA,160532.00,3606.2180131,N,14005.1791148,E,4,09,1.1,31.745,M,38.037,M,0.0,*7E
$GPRMC,160533.00,A,3606.2180141,N,14005.1791140,E,0.04,0.00,270819,0.0,E,D*34
$GPGGA,160533.00,3606.2180141,N,14005.1791140,E,4,09,1.1,31.736,M,38.037,M,1.0,*75
$GPRMC,160534.00,A,3606.2180153,N,14005.1791116,E,0.05,0.00,270819,0.0,E,D*32
$GPGGA,160534.00,3606.2180153,N,14005.1791116,E,4,09,1.1,31.734,M,38.037,M,2.0,*73
$GPRMC,160535.00,A,3606.2180161,N,14005.1791129,E,0.02,0.00,270819,0.0,E,D*39
$GPGGA,160535.00,3606.2180161,N,14005.1791129,E,4,09,1.1,31.754,M,38.037,M,3.0,*78
$GPRMC,160536.00,A,3606.2180146,N,14005.1791121,E,0.02,0.00,270819,0.0,E,D*37
$GPGGA,160536.00,3606.2180146,N,14005.1791121,E,4,09,1.1,31.750,M,38.037,M,4.0,*75
$GPRMC,160537.00,A,3606.2180137,N,14005.1791121,E,0.02,0.00,270819,0.0,E,D*30
$GPGGA,160537.00,3606.2180137,N,14005.1791121,E,4,09,1.1,31.756,M,38.037,M,0.0,*70
$GPRMC,160538.00,A,3606.2180133,N,14005.1791112,E,0.04,0.00,270819,0.0,E,D*3D
$GPGGA,160538.00,3606.2180133,N,14005.1791112,E,4,09,1.1,31.757,M,38.037,M,1.0,*7B
$GPRMC,160539.00,A,3606.2180137,N,14005.1791104,E,0.02,0.00,270819,0.0,E,D*39
$GPGGA,160539.00,3606.2180137,N,14005.1791104,E,4,09,1.1,31.762,M,38.037,M,2.0,*7C
$GPRMC,160540.00,A,3606.2180154,N,14005.1791122,E,0.06,0.00,270819,0.0,E,D*32
$GPGGA,160540.00,3606.2180154,N,14005.1791122,E,4,09,1.1,31.779,M,38.037,M,3.0,*78
$GPRMC,160541.00,A,3606.2180171,N,14005.1791118,E,0.03,0.00,270819,0.0,E,D*38
$GPGGA,160541.00,3606.2180171,N,14005.1791118,E,4,09,1.1,31.770,M,38.037,M,4.0,*79
$GPRMC,160542.00,A,3606.2180173,N,14005.1791121,E,0.11,0.00,270819,0.0,E,D*30
$GPGGA,160542.00,3606.2180173,N,14005.1791121,E,4,09,1.1,31.780,M,38.037,M,0.0,*79
$GPRMC,160543.00,A,3606.2180181,N,14005.1791113,E,0.02,0.00,270819,0.0,E,D*3F
$GPGGA,160543.00,3606.2180181,N,14005.1791113,E,4,09,1.1,31.775,M,38.037,M,1.0,*7F
$GPRMC,160544.00,A,3606.2180165,N,14005.1791109,E,0.06,0.00,270819,0.0,E,D*3D
$GPGGA,160544.00,3606.2180165,N,14005.1791109,E,4,09,1.1,31.769,M,38.037,M,2.0,*77
$GPRMC,160545.00,A,3606.2180180,N,14005.1791088,E,0.03,0.00,270819,0.0,E,D*3A
$GPGGA,160545.00,3606.2180180,N,14005.1791088,E,4,09,1.1,31.782,M,38.037,M,3.0,*71
$GPRMC,160546.00,A,3606.2180197,N,14005.1791105,E,0.04,0.00,270819,0.0,E,D*3C
$GPGGA,160546.00,3606.2180197,N,14005.1791105,E,4,09,1.1,31.794,M,38.037,M,4.0,*70
$GPRMC,160547.00,A,3606.2180174,N,14005.1791099,E,0.04,0.00,270819,0.0,E,D*34
$GPGGA,160547.00,3606.2180174,N,14005.1791099,E,4,09,1.1,31.787,M,38.037,M,0.0,*7E
$GPRMC,160548.00,A,3606.2180199,N,14005.1791104,E,0.08,0.00,270819,0.0,E,D*31
$GPGGA,160548.00,3606.2180199,N,14005.1791104,E,4,09,1.1,31.782,M,38.037,M,1.0,*73
$GPRMC,160549.00,A,3606.2180211,N,14005.1791089,E,0.05,0.00,270819,0.0,E,D*3A
$GPGGA,160549.00,3606.2180211,N,14005.1791089,E,4,09,1.1,31.786,M,38.037,M,2.0,*72
$GPRMC,160550.00,A,3606.2180186,N,14005.1791087,E,0.12,0.00,270819,0.0,E,D*37
$GPGGA,160550.00,3606.2180186,N,14005.1791087,E,4,09,1.1,31.775,M,38.037,M,3.0,*74
$GPRMC,160551.00,A,3606.2180188,N,14005.1791100,E,0.02,0.00,270819,0.0,E,D*37
$GPGGA,160551.00,3606.2180188,N,14005.1791100,E,4,09,1.1,31.779,M,38.037,M,4.0,*7E
$GPRMC,160552.00,A,3606.2180199,N,14005.1791078,E,0.04,0.00,270819,0.0,E,D*3C
$GPGGA,160552.00,3606.2180199,N,14005.1791078,E,4,09,1.1,31.774,M,38.037,M,0.0,*7A
$GPRMC,160553.00,A,3606.2180190,N,14005.1791081,E,0.02,0.00,270819,0.0,E,D*34
$GPGGA,160553.00,3606.2180190,N,14005.1791081,E,4,09,1.1,31.773,M,38.037,M,1.0,*72
$GPRMC,160554.00,A,3606.2180200,N,14005.1791058,E,0.05,0.00,270819,0.0,E,D*3A
$GPGGA,160554.00,3606.2180200,N,14005.1791058,E,4,09,1.1,31.778,M,38.037,M,2.0,*73
$GPRMC,160555.00,A,3606.2180220,N,14005.1791062,E,0.03,0.00,270819,0.0,E,D*36
$GPGGA,160555.00,3606.2180220,N,14005.1791062,E,4,09,1.1,31.778,M,38.037,M,3.0,*78
$GPRMC,160556.00,A,3606.2180218,N,14005.1791071,E,0.02,0.00,270819,0.0,E,D*3D
$GPGGA,160556.00,3606.2180218,N,14005.1791071,E,4,09,1.1,31.787,M,38.037,M,4.0,*75
$GPRMC,160557.00,A,3606.2180244,N,14005.1791025,E,0.03,0.00,270819,0.0,E,D*35
$GPGGA,160557.00,3606.2180244,N,14005.1791025,E,4,11,1.1,31.754,M,38.037,M,0.0,*7F
$GPRMC,160558.00,A,3606.2180212,N,14005.1791024,E,0.05,0.00,270819,0.0,E,D*3E
$GPGGA,160558.00,3606.2180212,N,14005.1791024,E,4,11,1.1,31.743,M,38.037,M,1.0,*75
$GPRMC,160559.00,A,3606.2180239,N,14005.1791056,E,0.10,0.00,270819,0.0,E,D*37
$GPGGA,160559.00,3606.2180239,N,14005.1791056,E,4,11,1.1,31.748,M,38.037,M,2.0,*70
$GPRMC,160600.00,A,3606.2180235,N,14005.1791036,E,0.04,0.00,270819,0.0,E,D*37
$GPGGA,160600.00,3606.2180235,N,14005.1791036,E,4,11,1.1,31.740,M,38.037,M,3.0,*7C
$GPRMC,160601.00,A,3606.2180239,N,14005.1791044,E,0.04,0.00,270819,0.0,E,D*3F
$GPGGA,160601.00,3606.2180239,N,14005.1791044,E,4,11,1.1,31.744,M,38.037,M,4.0,*77
$GPRMC,160602.00,A,3606.2180205,N,14005.1791060,E,0.02,0.00,270819,0.0,E,D*33
$GPGGA,160602.00,3606.2180205,N,14005.1791060,E,4,11,1.1,31.723,M,38.037,M,0.0,*78
$GPRMC,160603.00,A,3606.2180224,N,14005.1791057,E,0.03,0.00,270819,0.0,E,D*34
$GPGGA,160603.00,3606.2180224,N,14005.1791057,E,4,11,1.1,31.742,M,38.037,M,1.0,*78
$GPRMC,160604.00,A,3606.2180228,N,14005.1791052,E,0.01,0.00,270819,0.0,E,D*38
$GPGGA,160604.00,3606.2180228,N,14005.1791052,E,4,11,1.1,31.737,M,38.037,M,2.0,*77
$GPRMC,160605.00,A,3606.2180200,N,14005.1791070,E,0.02,0.00,270819,0.0,E,D*30
$GPGGA,160605.00,3606.2180200,N,14005.1791070,E,4,11,1.1,31.749,M,38.037,M,3.0,*74
$GPRMC,160606.00,A,3606.2180223,N,14005.1791057,E,0.06,0.00,270819,0.0,E,D*33
$GPGGA,160606.00,3606.2180223,N,14005.1791057,E,4,11,1.1,31.738,M,38.037,M,4.0,*72
$GPRMC,160607.00,A,3606.2180192,N,14005.1791082,E,0.04,0.00,270819,0.0,E,D*31
$GPGGA,160607.00,3606.2180192,N,14005.1791082,E,4,11,1.1,31.733,M,38.037,M,0.0,*7D
$GPRMC,160608.00,A,3606.2180194,N,14005.1791082,E,0.06,0.00,270819,0.0,E,D*3A
$GPGGA,160608.00,3606.2180194,N,14005.1791082,E,4,11,1.1,31.742,M,38.037,M,1.0,*73
$GPRMC,160609.00,A,3606.2180203,N,14005.1791084,E,0.05,0.00,270819,0.0,E,D*33
$GPGGA,160609.00,3606.2180203,N,14005.1791084,E,4,11,1.1,31.753,M,38.037,M,2.0,*7A
$GPRMC,160610.00,A,3606.2180201,N,14005.1791083,E,0.05,0.00,270819,0.0,E,D*3E
$GPGGA,160610.00,3606.2180201,N,14005.1791083,E,4,11,1.1,31.739,M,38.037,M,3.0,*7A
$GPRMC,160611.00,A,3606.2180190,N,14005.1791099,E,0.04,0.00,270819,0.0,E,D*3E
$GPGGA,160611.00,3606.2180190,N,14005.1791099,E,4,11,1.1,31.738,M,38.037,M,4.0,*7D
$GPRMC,160612.00,A,3606.2180173,N,14005.1791127,E,0.04,0.00,270819,0.0,E,D*34
$GPGGA,160612.00,3606.2180173,N,14005.1791127,E,4,11,1.1,31.740,M,38.037,M,0.0,*7C
$GPRMC,160613.00,A,3606.2180182,N,14005.1791142,E,0.07,0.00,270819,0.0,E,D*3B
$GPGGA,160613.00,3606.2180182,N,14005.1791142,E,4,11,1.1,31.740,M,38.037,M,1.0,*71
$GPRMC,160614.00,A,3606.2180157,N,14005.1791137,E,0.03,0.00,270819,0.0,E,D*32
