% (lat/lon/height=WGS84/ellipsoidal,Q=1:fix,2:float,3:sbas,4:dgps,5:single,6:ppp,ns=# of satellites)
%  GPST                  latitude(deg) longitude(deg)  height(m)   Q  ns   sdn(m)   sde(m)   sdu(m)  sdne(m)  sdeu(m)  sdun(m) age(s)  ratio
2024/08/22 10:59:49.000   36.068732345  140.128350843   114.5030   6   9   4.4131   3.6037   8.5066  -1.0332  -2.2648  -1.7736   0.00    1.2
2024/08/22 10:59:50.000   36.068732468  140.128350701   114.5244   6   9   3.1853   2.5934   6.1610  -0.6934  -1.6444  -1.2516   0.00    1.1
2024/08/22 10:59:51.000   36.068733060  140.128349778   114.4692   6   9   2.6190   2.1303   5.0741  -0.5546  -1.3543  -1.0202   0.00    1.1
2024/08/22 10:59:52.000   36.068733952  140.128349278   114.4364   6   9   2.2760   1.8505   4.4147  -0.4750  -1.1777  -0.8824   0.00    1.2
2024/08/22 10:59:53.000   36.068734673  140.128349012   114.4546   6   9   2.0399   1.6582   3.9604  -0.4219  -1.0557  -0.7887   0.00    1.3
2024/08/22 10:59:54.000   36.068724257  140.128346751   113.0064   6   6   1.9334   1.5489   3.7048  -0.3713  -0.9465  -0.3625   0.00    1.3
2024/08/22 10:59:55.000   36.068722782  140.128359230   114.1024   6   7   1.8174   1.4661   3.4617  -0.4758  -0.8631  -0.3639   0.00    4.5
2024/08/22 10:59:56.000   36.068723373  140.128359019   113.9127   6   7   1.7244   1.3981   3.2630  -0.5330  -0.7960  -0.3582   0.00    4.3
2024/08/22 10:59:57.000   36.068724067  140.128359161   113.7590   6   7   1.6472   1.3409   3.0954  -0.5681  -0.7408  -0.3524   0.00    4.0
2024/08/22 10:59:58.000   36.068724605  140.128359353   113.6164   6   7   1.5816   1.2918   2.9515  -0.5906  -0.6944  -0.3468   0.00    3.9
2024/08/22 10:59:59.000   36.068726164  140.128358588   112.4585   6  14   1.4170   1.1878   2.6728  -0.5199  -0.5760  -0.3219   0.00    4.5
2024/08/22 11:00:00.000   36.068727394  140.128357828   111.6372   6  15   1.2922   1.0942   2.4573  -0.4464  -0.5305  -0.2593   0.00    4.5
2024/08/22 11:00:01.000   36.068728366  140.128357332   111.1045   6  15   1.1962   1.0210   2.2879  -0.3948  -0.4916  -0.2178   0.00    3.8
2024/08/22 11:00:02.000   36.068728967  140.128357040   110.7000   6  15   1.1190   0.9611   2.1497  -0.3556  -0.4597  -0.1866   0.00    3.1
2024/08/22 11:00:03.000   36.068729334  140.128356977   110.3722   6  15   1.0551   0.9107   2.0342  -0.3247  -0.4331  -0.1625   0.00    2.7
2024/08/22 11:00:04.000   36.068729599  140.128356923   110.1070   6  15   1.0011   0.8676   1.9359  -0.2996  -0.4105  -0.1434   0.00    2.3
2024/08/22 11:00:05.000   36.068729702  140.128356812   109.8702   6  15   0.9546   0.8302   1.8508  -0.2790  -0.3908  -0.1280   0.00    2.2
2024/08/22 11:00:06.000   36.068729833  140.128356644   109.6856   6  15   0.9141   0.7973   1.7762  -0.2615  -0.3736  -0.1156   0.00    2.0
2024/08/22 11:00:07.000   36.068729967  140.128356434   109.5307   6  15   0.8783   0.7680   1.7101  -0.2466  -0.3584  -0.1054   0.00    1.8
2024/08/22 11:00:08.000   36.068730104  140.128356267   109.4106   6  15   0.8464   0.7417   1.6511  -0.2337  -0.3447  -0.0971   0.00    1.7
2024/08/22 11:00:09.000   36.068730276  140.128356086   109.3034   6  15   0.8177   0.7180   1.5979  -0.2224  -0.3324  -0.0903   0.00    1.5
2024/08/22 11:00:10.000   36.068730492  140.128355921   109.2187   6  15   0.7917   0.6965   1.5496  -0.2124  -0.3212  -0.0847   0.00    1.4
2024/08/22 11:00:11.000   36.068730658  140.128355782   109.1444   6  15   0.7680   0.6767   1.5056  -0.2035  -0.3110  -0.0803   0.00    1.4
2024/08/22 11:00:12.000   36.068730794  140.128355727   109.0812   6  15   0.7463   0.6586   1.4652  -0.1955  -0.3017  -0.0767   0.00    1.3
2024/08/22 11:00:13.000   36.068731009  140.128355698   109.0325   6  15   0.7264   0.6419   1.4280  -0.1883  -0.2930  -0.0739   0.00    1.3
2024/08/22 11:00:14.000   36.068731191  140.128355665   108.9768   6  15   0.7079   0.6263   1.3936  -0.1817  -0.2850  -0.0716   0.00    1.2
2024/08/22 11:00:15.000   36.068731285  140.128355635   108.9382   6  15   0.6907   0.6119   1.3616  -0.1757  -0.2775  -0.0700   0.00    1.2
2024/08/22 11:00:16.000   36.068731445  140.128355576   108.9059   6  15   0.6747   0.5984   1.3317  -0.1702  -0.2705  -0.0688   0.00    1.1
2024/08/22 11:00:17.000   36.068731608  140.128355571   108.8678   6  15   0.6598   0.5858   1.3039  -0.1651  -0.2640  -0.0680   0.00    1.1
2024/08/22 11:00:18.000   36.068731724  140.128355583   108.8368   6  15   0.6458   0.5739   1.2777  -0.1604  -0.2578  -0.0675   0.00    1.0
2024/08/22 11:00:19.000   36.068731827  140.128355542   108.8153   6  15   0.6326   0.5627   1.2531  -0.1561  -0.2520  -0.0672   0.00    1.0
2024/08/22 11:00:20.000   36.068731934  140.128355438   108.7947   6  15   0.6201   0.5522   1.2299  -0.1520  -0.2466  -0.0671   0.00    1.0
2024/08/22 11:00:21.000   36.068732077  140.128355287   108.7832   6  15   0.6084   0.5422   1.2080  -0.1481  -0.2414  -0.0673   0.00    1.0
2024/08/22 11:00:22.000   36.068732277  140.128355202   108.7845   6  15   0.5972   0.5328   1.1873  -0.1446  -0.2364  -0.0676   0.00    1.0
2024/08/22 11:00:23.000   36.068732452  140.128355143   108.7869   6  15   0.5867   0.5238   1.1677  -0.1412  -0.2318  -0.0679   0.00    1.0
2024/08/22 11:00:24.000   36.068732652  140.128355137   108.7838   6  15   0.5766   0.5153   1.1490  -0.1381  -0.2273  -0.0684   0.00    1.0
2024/08/22 11:00:25.000   36.068732816  140.128355156   108.7790   6  15   0.5671   0.5071   1.1312  -0.1351  -0.2230  -0.0689   0.00    1.0
2024/08/22 11:00:26.000   36.068732980  140.128355177   108.7773   6  15   0.5579   0.4994   1.1143  -0.1322  -0.2190  -0.0695   0.00    1.0
2024/08/22 11:00:27.000   36.068733118  140.128355200   108.7737   6  15   0.5492   0.4919   1.0981  -0.1295  -0.2151  -0.0701   0.00    1.0
2024/08/22 11:00:28.000   36.068733258  140.128355190   108.7768   6  15   0.5409   0.4848   1.0826  -0.1270  -0.2113  -0.0707   0.00    1.0
2024/08/22 11:00:29.000   36.068733351  140.128355134   108.7644   6  15   0.5329   0.4780   1.0678  -0.1245  -0.2077  -0.0714   0.00    1.0
2024/08/22 11:00:30.000   36.068733454  140.128355103   108.7554   6  15   0.5252   0.4715   1.0536  -0.1222  -0.2043  -0.0721   0.00    1.1
2024/08/22 11:00:31.000   36.068733541  140.128355077   108.7471   6  15   0.5178   0.4653   1.0400  -0.1200  -0.2010  -0.0728   0.00    1.1
2024/08/22 11:00:32.000   36.068733691  140.128355051   108.7417   6  15   0.5107   0.4593   1.0269  -0.1179  -0.1978  -0.0735   0.00    1.1
2024/08/22 11:00:33.000   36.068733865  140.128355008   108.7397   6  15   0.5039   0.4535   1.0144  -0.1159  -0.1947  -0.0741   0.00    1.1
2024/08/22 11:00:34.000   36.068734022  140.128354953   108.7359   6  15   0.4973   0.4479   1.0023  -0.1139  -0.1917  -0.0748   0.00    1.1
2024/08/22 11:00:35.000   36.068734197  140.128354885   108.7304   6  15   0.4910   0.4425   0.9906  -0.1120  -0.1888  -0.0755   0.00    1.1
2024/08/22 11:00:36.000   36.068734345  140.128354806   108.7279   6  15   0.4849   0.4373   0.9794  -0.1102  -0.1861  -0.0761   0.00    1.1
2024/08/22 11:00:37.000   36.068734484  140.128354710   108.7255   6  15   0.4790   0.4323   0.9685  -0.1085  -0.1834  -0.0767   0.00    1.1
2024/08/22 11:00:38.000   36.068734600  140.128354640   108.7305   6  15   0.4732   0.4274   0.9580  -0.1068  -0.1808  -0.0774   0.00    1.1
2024/08/22 11:00:39.000   36.068734699  140.128354603   108.7376   6  15   0.4677   0.4227   0.9479  -0.1052  -0.1783  -0.0780   0.00    1.1
2024/08/22 11:00:40.000   36.068734801  140.128354582   108.7433   6  15   0.4623   0.4182   0.9381  -0.1037  -0.1758  -0.0786   0.00    1.1
2024/08/22 11:00:41.000   36.068734901  140.128354548   108.7513   6  15   0.4571   0.4138   0.9286  -0.1022  -0.1734  -0.0792   0.00    1.1
2024/08/22 11:00:42.000   36.068734994  140.128354514   108.7610   6  15   0.4521   0.4096   0.9194  -0.1007  -0.1711  -0.0797   0.00    1.1
2024/08/22 11:00:43.000   36.068735119  140.128354534   108.7749   6  15   0.4472   0.4054   0.9105  -0.0993  -0.1689  -0.0803   0.00    1.1
2024/08/22 11:00:44.000   36.068735210  140.128354499   108.7878   6  15   0.4424   0.4014   0.9019  -0.0980  -0.1667  -0.0808   0.00    1.1
2024/08/22 11:00:45.000   36.068735270  140.128354506   108.7941   6  15   0.4378   0.3975   0.8935  -0.0967  -0.1646  -0.0813   0.00    1.1
2024/08/22 11:00:46.000   36.068735362  140.128354486   108.8047   6  15   0.4333   0.3937   0.8854  -0.0954  -0.1625  -0.0818   0.00    1.1
2024/08/22 11:00:47.000   36.068735469  140.128354461   108.8104   6  15   0.4289   0.3900   0.8775  -0.0941  -0.1605  -0.0822   0.00    1.1
2024/08/22 11:00:48.000   36.068735575  140.128354455   108.8155   6  15   0.4246   0.3865   0.8698  -0.0930  -0.1585  -0.0827   0.00    1.1
2024/08/22 11:00:49.000   36.068735688  140.128354445   108.8222   6  15   0.4205   0.3830   0.8623  -0.0918  -0.1566  -0.0831   0.00    1.1
2024/08/22 11:00:50.000   36.068735788  140.128354437   108.8359   6  15   0.4164   0.3796   0.8551  -0.0906  -0.1548  -0.0835   0.00    1.1
2024/08/22 11:00:51.000   36.068735872  140.128354432   108.8447   6  15   0.4125   0.3763   0.8480  -0.0895  -0.1530  -0.0839   0.00    1.1
2024/08/22 11:00:52.000   36.068735956  140.128354437   108.8528   6  15   0.4086   0.3731   0.8411  -0.0885  -0.1512  -0.0843   0.00    1.1
2024/08/22 11:00:53.000   36.068736018  140.128354442   108.8631   6  15   0.4048   0.3699   0.8344  -0.0874  -0.1494  -0.0846   0.00    1.1
2024/08/22 11:00:54.000   36.068736088  140.128354354   108.8715   6  15   0.4012   0.3669   0.8278  -0.0864  -0.1478  -0.0850   0.00    1.1
2024/08/22 11:00:55.000   36.068736145  140.128354349   108.8726   6  15   0.3976   0.3639   0.8214  -0.0854  -0.1461  -0.0853   0.00    1.1
2024/08/22 11:00:56.000   36.068736201  140.128354347   108.8783   6  15   0.3941   0.3609   0.8152  -0.0844  -0.1445  -0.0856   0.00    1.1
2024/08/22 11:00:57.000   36.068736249  140.128354336   108.8814   6  15   0.3907   0.3581   0.8091  -0.0835  -0.1430  -0.0859   0.00    1.1
2024/08/22 11:00:58.000   36.068736315  140.128354304   108.8886   6  15   0.3873   0.3553   0.8032  -0.0826  -0.1414  -0.0862   0.00    1.1
2024/08/22 11:00:59.000   36.068736393  140.128354219   108.8982   6  15   0.3840   0.3526   0.7974  -0.0817  -0.1399  -0.0865   0.00    1.1
2024/08/22 11:01:00.000   36.068736463  140.128354173   108.8983   6  15   0.3808   0.3499   0.7917  -0.0808  -0.1385  -0.0867   0.00    1.1
2024/08/22 11:01:01.000   36.068736558  140.128354111   108.8964   6  15   0.3777   0.3473   0.7862  -0.0799  -0.1370  -0.0869   0.00    1.1
2024/08/22 11:01:02.000   36.068736617  140.128354083   108.8983   6  15   0.3746   0.3448   0.7808  -0.0791  -0.1356  -0.0871   0.00    1.1
2024/08/22 11:01:03.000   36.068736660  140.128354067   108.9024   6  15   0.3715   0.3423   0.7755  -0.0783  -0.1342  -0.0873   0.00    1.1
2024/08/22 11:01:04.000   36.068736713  140.128354053   108.8987   6  15   0.3686   0.3398   0.7703  -0.0775  -0.1329  -0.0875   0.00    1.1
2024/08/22 11:01:05.000   36.068736784  140.128354031   108.8950   6  15   0.3657   0.3375   0.7652  -0.0767  -0.1316  -0.0877   0.00    1.1
2024/08/22 11:01:06.000   36.068736854  140.128354021   108.8889   6  15   0.3628   0.3351   0.7602  -0.0759  -0.1303  -0.0878   0.00    1.2
2024/08/22 11:01:07.000   36.068736908  140.128353980   108.8815   6  15   0.3600   0.3328   0.7554  -0.0752  -0.1290  -0.0880   0.00    1.2
2024/08/22 11:01:08.000   36.068736975  140.128353978   108.8758   6  15   0.3573   0.3306   0.7506  -0.0744  -0.1278  -0.0881   0.00    1.2
2024/08/22 11:01:09.000   36.068737016  140.128353959   108.8719   6  15   0.3546   0.3284   0.7459  -0.0737  -0.1266  -0.0882   0.00    1.2
2024/08/22 11:01:10.000   36.068737052  140.128353975   108.8696   6  15   0.3520   0.3262   0.7414  -0.0730  -0.1254  -0.0884   0.00    1.2
2024/08/22 11:01:11.000   36.068737075  140.128353984   108.8691   6  15   0.3494   0.3241   0.7369  -0.0724  -0.1242  -0.0884   0.00    1.2
2024/08/22 11:01:12.000   36.068737091  140.128354004   108.8657   6  15   0.3468   0.3220   0.7324  -0.0716  -0.1231  -0.0885   0.00    1.2
2024/08/22 11:01:13.000   36.068737130  140.128354017   108.8617   6  15   0.3443   0.3200   0.7281  -0.0710  -0.1220  -0.0886   0.00    1.2
2024/08/22 11:01:14.000   36.068737177  140.128354018   108.8596   6  15   0.3419   0.3180   0.7239  -0.0704  -0.1209  -0.0887   0.00    1.2
2024/08/22 11:01:15.000   36.068737207  140.128354028   108.8578   6  15   0.3395   0.3160   0.7197  -0.0697  -0.1198  -0.0887   0.00    1.2
2024/08/22 11:01:16.000   36.068737254  140.128354029   108.8589   6  15   0.3371   0.3141   0.7156  -0.0692  -0.1188  -0.0887   0.00    1.3
2024/08/22 11:01:17.000   36.068737303  140.128354053   108.8605   6  15   0.3347   0.3122   0.7116  -0.0686  -0.1177  -0.0888   0.00    1.3
2024/08/22 11:01:18.000   36.068737339  140.128354063   108.8607   6  15   0.3324   0.3104   0.7076  -0.0679  -0.1167  -0.0888   0.00    1.3
2024/08/22 11:01:19.000   36.068737358  140.128354048   108.8610   6  15   0.3302   0.3085   0.7038  -0.0673  -0.1157  -0.0888   0.00    1.3
2024/08/22 11:01:20.000   36.068737413  140.128354038   108.8623   6  15   0.3280   0.3067   0.6999  -0.0668  -0.1148  -0.0888   0.00    1.3
2024/08/22 11:01:21.000   36.068737461  140.128354036   108.8659   6  15   0.3258   0.3050   0.6962  -0.0662  -0.1138  -0.0888   0.00    1.3
2024/08/22 11:01:22.000   36.068737509  140.128354029   108.8704   6  15   0.3236   0.3032   0.6925  -0.0657  -0.1129  -0.0888   0.00    1.3
2024/08/22 11:01:23.000   36.068737545  140.128354013   108.8716   6  15   0.3215   0.3015   0.6889  -0.0652  -0.1120  -0.0888   0.00    1.3
2024/08/22 11:01:24.000   36.068737599  140.128354010   108.8761   6  15   0.3194   0.2998   0.6853  -0.0646  -0.1111  -0.0887   0.00    1.4
2024/08/22 11:01:25.000   36.068737672  140.128354013   108.8743   6  15   0.3173   0.2982   0.6818  -0.0642  -0.1102  -0.0887   0.00    1.4
2024/08/22 11:01:26.000   36.068737731  140.128354024   108.8727   6  15   0.3153   0.2966   0.6783  -0.0636  -0.1093  -0.0887   0.00    1.4
2024/08/22 11:01:27.000   36.068737770  140.128354028   108.8701   6  15   0.3133   0.2950   0.6749  -0.0631  -0.1085  -0.0886   0.00    1.4
2024/08/22 11:01:28.000   36.068737829  140.128354037   108.8657   6  15   0.3113   0.2934   0.6715  -0.0626  -0.1076  -0.0886   0.00    1.4
2024/08/22 11:01:29.000   36.068737895  140.128354050   108.8636   6  15   0.3094   0.2918   0.6682  -0.0621  -0.1068  -0.0885   0.00    1.5
2024/08/22 11:01:30.000   36.068737952  140.128354062   108.8600   6  15   0.3075   0.2903   0.6650  -0.0617  -0.1060  -0.0884   0.00    1.5
2024/08/22 11:01:31.000   36.068738021  140.128354081   108.8577   6  15   0.3056   0.2888   0.6617  -0.0613  -0.1052  -0.0884   0.00    1.5
2024/08/22 11:01:32.000   36.068738063  140.128354115   108.8546   6  15   0.3037   0.2873   0.6586  -0.0608  -0.1044  -0.0883   0.00    1.5
2024/08/22 11:01:33.000   36.068738092  140.128354103   108.8507   6  15   0.3019   0.2859   0.6554  -0.0604  -0.1037  -0.0882   0.00    1.5
2024/08/22 11:01:34.000   36.068738104  140.128354085   108.8435   6  15   0.3001   0.2844   0.6523  -0.0599  -0.1029  -0.0881   0.00    1.5
2024/08/22 11:01:35.000   36.068738148  140.128354059   108.8360   6  15   0.2983   0.2830   0.6493  -0.0595  -0.1021  -0.0880   0.00    1.6
2024/08/22 11:01:36.000   36.068738188  140.128354031   108.8249   6  15   0.2965   0.2816   0.6463  -0.0592  -0.1014  -0.0879   0.00    1.6
2024/08/22 11:01:37.000   36.068738214  140.128353994   108.8147   6  15   0.2948   0.2803   0.6433  -0.0587  -0.1007  -0.0878   0.00    1.6
2024/08/22 11:01:38.000   36.068738250  140.128353951   108.8021   6  15   0.2930   0.2789   0.6404  -0.0583  -0.1000  -0.0877   0.00    1.6
2024/08/22 11:01:39.000   36.068738278  140.128353964   108.7920   6  15   0.2913   0.2776   0.6375  -0.0579  -0.0993  -0.0876   0.00    1.6
2024/08/22 11:01:40.000   36.068738307  140.128353964   108.7786   6  15   0.2897   0.2762   0.6346  -0.0576  -0.0986  -0.0875   0.00    1.6
2024/08/22 11:01:41.000   36.068738333  140.128353986   108.7715   6  15   0.2880   0.2750   0.6318  -0.0572  -0.0980  -0.0874   0.00    1.6
2024/08/22 11:01:42.000   36.068738371  140.128353986   108.7672   6  15   0.2864   0.2737   0.6290  -0.0568  -0.0973  -0.0873   0.00    1.7
2024/08/22 11:01:43.000   36.068738407  140.128353984   108.7602   6  15   0.2847   0.2724   0.6263  -0.0565  -0.0967  -0.0871   0.00    1.7
2024/08/22 11:01:44.000   36.068738453  140.128353939   108.7554   6  15   0.2832   0.2711   0.6235  -0.0561  -0.0960  -0.0870   0.00    1.7
2024/08/22 11:01:45.000   36.068738482  140.128353903   108.7470   6  15   0.2816   0.2699   0.6208  -0.0557  -0.0954  -0.0869   0.00    1.7
2024/08/22 11:01:46.000   36.068738511  140.128353846   108.7385   6  15   0.2800   0.2687   0.6182  -0.0554  -0.0948  -0.0868   0.00    1.7
2024/08/22 11:01:47.000   36.068738538  140.128353792   108.7299   6  15   0.2785   0.2675   0.6155  -0.0551  -0.0941  -0.0866   0.00    1.7
2024/08/22 11:01:48.000   36.068738547  140.128353727   108.7200   6  15   0.2770   0.2663   0.6129  -0.0547  -0.0935  -0.0865   0.00    1.7
2024/08/22 11:01:49.000   36.068738592  140.128353682   108.7075   6  15   0.2755   0.2652   0.6103  -0.0544  -0.0929  -0.0864   0.00    1.8
2024/08/22 11:01:50.000   36.068738612  140.128353643   108.6950   6  15   0.2740   0.2640   0.6078  -0.0541  -0.0924  -0.0862   0.00    1.8
2024/08/22 11:01:51.000   36.068738645  140.128353617   108.6817   6  15   0.2725   0.2629   0.6053  -0.0538  -0.0918  -0.0861   0.00    1.8
2024/08/22 11:01:52.000   36.068738658  140.128353609   108.6685   6  15   0.2711   0.2618   0.6028  -0.0535  -0.0912  -0.0860   0.00    1.8
2024/08/22 11:01:53.000   36.068738682  140.128353586   108.6608   6  15   0.2696   0.2606   0.6003  -0.0532  -0.0907  -0.0858   0.00    1.8
2024/08/22 11:01:54.000   36.068738688  140.128353600   108.6507   6  15   0.2682   0.2595   0.5978  -0.0529  -0.0901  -0.0857   0.00    1.8
2024/08/22 11:01:55.000   36.068738708  140.128353564   108.6467   6  15   0.2668   0.2585   0.5954  -0.0526  -0.0896  -0.0855   0.00    1.9
2024/08/22 11:01:56.000   36.068738728  140.128353532   108.6447   6  15   0.2654   0.2574   0.5930  -0.0524  -0.0890  -0.0854   0.00    1.9
2024/08/22 11:01:57.000   36.068738763  140.128353512   108.6450   6  15   0.2641   0.2563   0.5906  -0.0521  -0.0885  -0.0853   0.00    1.9
2024/08/22 11:01:58.000   36.068738792  140.128353484   108.6450   6  15   0.2627   0.2553   0.5883  -0.0518  -0.0880  -0.0851   0.00    1.9
2024/08/22 11:01:59.000   36.068738817  140.128353459   108.6418   6  15   0.2613   0.2543   0.5859  -0.0516  -0.0875  -0.0850   0.00    2.0
2024/08/22 11:02:00.000   36.068738851  140.128353449   108.6366   6  15   0.2600   0.2532   0.5836  -0.0513  -0.0870  -0.0848   0.00    2.0
2024/08/22 11:02:01.000   36.068738871  140.128353419   108.6359   6  15   0.2587   0.2523   0.5813  -0.0510  -0.0865  -0.0846   0.00    2.0
2024/08/22 11:02:02.000   36.068738905  140.128353379   108.6327   6  15   0.2574   0.2513   0.5790  -0.0508  -0.0859  -0.0845   0.00    2.0
2024/08/22 11:02:03.000   36.068738938  140.128353335   108.6279   6  15   0.2561   0.2503   0.5767  -0.0505  -0.0855  -0.0844   0.00    2.1
2024/08/22 11:02:04.000   36.068738953  140.128353317   108.6333   6  20   0.2547   0.2492   0.5743  -0.0505  -0.0845  -0.0841   0.00    2.1
2024/08/22 11:02:05.000   36.068738980  140.128353229   108.6358   6  20   0.2533   0.2481   0.5718  -0.0501  -0.0835  -0.0838   0.00    2.1
2024/08/22 11:02:06.000   36.068739018  140.128353151   108.6388   6  20   0.2519   0.2470   0.5693  -0.0499  -0.0826  -0.0835   0.00    2.1
2024/08/22 11:02:07.000   36.068739048  140.128353068   108.6411   6  20   0.2506   0.2460   0.5669  -0.0497  -0.0818  -0.0833   0.00    2.2
2024/08/22 11:02:08.000   36.068739086  140.128352990   108.6445   6  20   0.2492   0.2450   0.5646  -0.0495  -0.0810  -0.0830   0.00    2.2
2024/08/22 11:02:09.000   36.068739111  140.128352956   108.6543   6  20   0.2479   0.2440   0.5623  -0.0492  -0.0802  -0.0827   0.00    2.2
2024/08/22 11:02:10.000   36.068739158  140.128352884   108.6576   6  20   0.2466   0.2429   0.5600  -0.0491  -0.0794  -0.0825   0.00    2.3
2024/08/22 11:02:11.000   36.068739186  140.128352808   108.6629   6  20   0.2453   0.2420   0.5577  -0.0488  -0.0787  -0.0823   0.00    2.3
2024/08/22 11:02:12.000   36.068739221  140.128352734   108.6637   6  20   0.2440   0.2410   0.5554  -0.0486  -0.0779  -0.0820   0.00    2.3
2024/08/22 11:02:13.000   36.068739239  140.128352660   108.6652   6  20   0.2428   0.2400   0.5532  -0.0485  -0.0772  -0.0819   0.00    2.3
2024/08/22 11:02:14.000   36.068739230  140.128352604   108.6700   6  20   0.2416   0.2391   0.5510  -0.0482  -0.0765  -0.0816   0.00    2.4
2024/08/22 11:02:15.000   36.068739264  140.128352512   108.6715   6  20   0.2403   0.2382   0.5488  -0.0481  -0.0759  -0.0814   0.00    2.4
2024/08/22 11:02:16.000   36.068739281  140.128352427   108.6710   6  20   0.2391   0.2373   0.5466  -0.0479  -0.0752  -0.0812   0.00    2.4
2024/08/22 11:02:17.000   36.068739319  140.128352352   108.6737   6  20   0.2379   0.2364   0.5445  -0.0477  -0.0746  -0.0810   0.00    2.4
2024/08/22 11:02:18.000   36.068739338  140.128352276   108.6802   6  20   0.2368   0.2354   0.5423  -0.0475  -0.0739  -0.0808   0.00    2.4
2024/08/22 11:02:19.000   36.068739361  140.128352191   108.6828   6  20   0.2356   0.2346   0.5402  -0.0474  -0.0732  -0.0806   0.00    2.5
2024/08/22 11:02:20.000   36.068739390  140.128352106   108.6879   6  20   0.2344   0.2337   0.5381  -0.0473  -0.0726  -0.0804   0.00    2.5
2024/08/22 11:02:21.000   36.068739408  140.128352040   108.6944   6  20   0.2333   0.2328   0.5360  -0.0470  -0.0720  -0.0803   0.00    2.5
2024/08/22 11:02:22.000   36.068739422  140.128351964   108.6981   6  20   0.2321   0.2320   0.5339  -0.0470  -0.0714  -0.0800   0.00    2.6
2024/08/22 11:02:23.000   36.068739448  140.128351903   108.6993   6  20   0.2310   0.2311   0.5319  -0.0468  -0.0708  -0.0799   0.00    2.6
2024/08/22 11:02:24.000   36.068739483  140.128351905   108.7075   6  20   0.2299   0.2303   0.5298  -0.0466  -0.0702  -0.0797   0.00    2.6
2024/08/22 11:02:25.000   36.068739520  140.128351830   108.7110   6  20   0.2287   0.2294   0.5278  -0.0465  -0.0696  -0.0796   0.00    2.7
2024/08/22 11:02:26.000   36.068739563  140.128351758   108.7174   6  20   0.2277   0.2286   0.5258  -0.0463  -0.0690  -0.0794   0.00    2.7
2024/08/22 11:02:27.000   36.068739615  140.128351687   108.7214   6  20   0.2266   0.2278   0.5238  -0.0462  -0.0684  -0.0792   0.00    2.7
2024/08/22 11:02:28.000   36.068739642  140.128351604   108.7287   6  20   0.2255   0.2270   0.5218  -0.0460  -0.0679  -0.0791   0.00    2.7
2024/08/22 11:02:29.000   36.068739676  140.128351567   108.7311   6  20   0.2244   0.2262   0.5198  -0.0459  -0.0673  -0.0789   0.00    2.7
2024/08/22 11:02:30.000   36.068739715  140.128351487   108.7371   6  20   0.2234   0.2254   0.5178  -0.0457  -0.0667  -0.0788   0.00    2.8
2024/08/22 11:02:31.000   36.068739739  140.128351393   108.7457   6  20   0.2223   0.2246   0.5159  -0.0456  -0.0662  -0.0786   0.00    2.8
2024/08/22 11:02:32.000   36.068739759  140.128351309   108.7554   6  20   0.2213   0.2239   0.5140  -0.0455  -0.0657  -0.0785   0.00    2.8
2024/08/22 11:02:33.000   36.068739788  140.128351230   108.7648   6  20   0.2203   0.2231   0.5121  -0.0453  -0.0652  -0.0784   0.00    2.8
2024/08/22 11:02:34.000   36.068739745  140.128351199   108.7759   6  20   0.2193   0.2223   0.5101  -0.0452  -0.0646  -0.0782   0.00    2.8
2024/08/22 11:02:35.000   36.068739774  140.128351130   108.7867   6  20   0.2183   0.2216   0.5082  -0.0451  -0.0641  -0.0781   0.00    2.8
2024/08/22 11:02:36.000   36.068739803  140.128351075   108.7960   6  20   0.2173   0.2209   0.5063  -0.0449  -0.0636  -0.0779   0.00    2.8
2024/08/22 11:02:37.000   36.068739822  140.128350987   108.8052   6  20   0.2163   0.2201   0.5045  -0.0448  -0.0631  -0.0778   0.00    2.8
2024/08/22 11:02:38.000   36.068739849  140.128350920   108.8122   6  20   0.2153   0.2194   0.5026  -0.0447  -0.0625  -0.0777   0.00    2.8
2024/08/22 11:02:39.000   36.068739870  140.128350847   108.8226   6  20   0.2143   0.2187   0.5007  -0.0446  -0.0621  -0.0776   0.00    2.8
2024/08/22 11:02:40.000   36.068739917  140.128350773   108.8310   6  20   0.2134   0.2180   0.4989  -0.0445  -0.0616  -0.0775   0.00    2.8
2024/08/22 11:02:41.000   36.068739957  140.128350689   108.8444   6  20   0.2124   0.2173   0.4971  -0.0443  -0.0611  -0.0774   0.00    2.8
2024/08/22 11:02:42.000   36.068739989  140.128350604   108.8548   6  20   0.2115   0.2165   0.4953  -0.0442  -0.0606  -0.0773   0.00    2.8
2024/08/22 11:02:43.000   36.068740025  140.128350542   108.8660   6  20   0.2105   0.2159   0.4934  -0.0441  -0.0601  -0.0771   0.00    2.8
2024/08/22 11:02:44.000   36.068740040  140.128350495   108.8773   6  20   0.2096   0.2152   0.4916  -0.0440  -0.0597  -0.0770   0.00    2.8
2024/08/22 11:02:45.000   36.068740066  140.128350454   108.8899   6  20   0.2087   0.2145   0.4898  -0.0438  -0.0591  -0.0769   0.00    2.8
2024/08/22 11:02:46.000   36.068740095  140.128350383   108.8998   6  20   0.2078   0.2138   0.4881  -0.0437  -0.0587  -0.0768   0.00    2.7
2024/08/22 11:02:47.000   36.068740117  140.128350318   108.9128   6  20   0.2068   0.2131   0.4863  -0.0438  -0.0582  -0.0767   0.00    2.7
2024/08/22 11:02:48.000   36.068740141  140.128350233   108.9233   6  20   0.2060   0.2125   0.4845  -0.0436  -0.0578  -0.0766   0.00    2.7
2024/08/22 11:02:49.000   36.068740175  140.128350141   108.9317   6  20   0.2051   0.2118   0.4828  -0.0435  -0.0573  -0.0765   0.00    2.7
2024/08/22 11:02:50.000   36.068740195  140.128350069   108.9435   6  20   0.2042   0.2112   0.4810  -0.0435  -0.0569  -0.0764   0.00    2.7
2024/08/22 11:02:51.000   36.068740229  140.128349991   108.9512   6  20   0.2033   0.2105   0.4793  -0.0433  -0.0564  -0.0764   0.00    2.7
2024/08/22 11:02:52.000   36.068740264  140.128349901   108.9615   6  20   0.2024   0.2099   0.4776  -0.0433  -0.0560  -0.0763   0.00    2.7
2024/08/22 11:02:53.000   36.068740315  140.128349822   108.9692   6  20   0.2016   0.2093   0.4758  -0.0432  -0.0555  -0.0762   0.00    2.8
2024/08/22 11:02:54.000   36.068740347  140.128349748   108.9742   6  20   0.2007   0.2087   0.4742  -0.0431  -0.0551  -0.0760   0.00    2.8
2024/08/22 11:02:55.000   36.068740367  140.128349688   108.9812   6  20   0.1998   0.2080   0.4724  -0.0430  -0.0546  -0.0760   0.00    2.8
2024/08/22 11:02:56.000   36.068740389  140.128349620   108.9865   6  20   0.1990   0.2074   0.4707  -0.0429  -0.0542  -0.0759   0.00    2.8
2024/08/22 11:02:57.000   36.068740421  140.128349568   108.9917   6  20   0.1982   0.2068   0.4691  -0.0428  -0.0538  -0.0758   0.00    2.8
2024/08/22 11:02:58.000   36.068740457  140.128349496   108.9972   6  20   0.1974   0.2062   0.4674  -0.0427  -0.0533  -0.0758   0.00    2.8
2024/08/22 11:02:59.000   36.068740513  140.128349436   109.0005   6  20   0.1965   0.2056   0.4657  -0.0426  -0.0529  -0.0757   0.00    2.8
2024/08/22 11:03:00.000   36.068740539  140.128349391   109.0042   6  20   0.1957   0.2050   0.4641  -0.0425  -0.0525  -0.0756   0.00    2.8
2024/08/22 11:03:01.000   36.068740564  140.128349357   109.0108   6  20   0.1949   0.2044   0.4624  -0.0425  -0.0520  -0.0756   0.00    2.7
2024/08/22 11:03:02.000   36.068740589  140.128349316   109.0134   6  20   0.1941   0.2038   0.4608  -0.0424  -0.0516  -0.0755   0.00    2.7
2024/08/22 11:03:03.000   36.068740621  140.128349293   109.0190   6  20   0.1933   0.2032   0.4591  -0.0424  -0.0512  -0.0754   0.00    2.7
2024/08/22 11:03:04.000   36.068740586  140.128349314   109.0181   6  20   0.1925   0.2027   0.4575  -0.0423  -0.0508  -0.0754   0.00    2.7
2024/08/22 11:03:05.000   36.068740609  140.128349272   109.0233   6  20   0.1917   0.2021   0.4559  -0.0422  -0.0504  -0.0753   0.00    2.7
2024/08/22 11:03:06.000   36.068740640  140.128349225   109.0267   6  20   0.1909   0.2015   0.4543  -0.0421  -0.0500  -0.0752   0.00    2.7
2024/08/22 11:03:07.000   36.068740681  140.128349175   109.0332   6  20   0.1902   0.2010   0.4527  -0.0420  -0.0495  -0.0752   0.00    2.7
2024/08/22 11:03:08.000   36.068740712  140.128349140   109.0374   6  20   0.1894   0.2004   0.4511  -0.0420  -0.0492  -0.0752   0.00    2.7
2024/08/22 11:03:09.000   36.068740763  140.128349107   109.0397   6  20   0.1886   0.1999   0.4495  -0.0418  -0.0487  -0.0751   0.00    2.7
2024/08/22 11:03:10.000   36.068740780  140.128349074   109.0428   6  20   0.1879   0.1993   0.4479  -0.0418  -0.0483  -0.0750   0.00    2.7
2024/08/22 11:03:11.000   36.068740792  140.128349035   109.0474   6  20   0.1871   0.1987   0.4464  -0.0418  -0.0480  -0.0750   0.00    2.7
2024/08/22 11:03:12.000   36.068740820  140.128349002   109.0538   6  20   0.1863   0.1982   0.4448  -0.0417  -0.0475  -0.0749   0.00    2.7
2024/08/22 11:03:13.000   36.068740844  140.128348963   109.0558   6  20   0.1856   0.1977   0.4433  -0.0416  -0.0471  -0.0749   0.00    2.7
2024/08/22 11:03:14.000   36.068740890  140.128348926   109.0578   6  20   0.1849   0.1971   0.4417  -0.0415  -0.0467  -0.0749   0.00    2.7
2024/08/22 11:03:15.000   36.068740900  140.128348901   109.0638   6  20   0.1842   0.1966   0.4402  -0.0414  -0.0463  -0.0748   0.00    2.7
2024/08/22 11:03:16.000   36.068740915  140.128348862   109.0683   6  20   0.1834   0.1961   0.4386  -0.0414  -0.0459  -0.0747   0.00    2.6
2024/08/22 11:03:17.000   36.068740933  140.128348827   109.0763   6  20   0.1827   0.1955   0.4371  -0.0414  -0.0456  -0.0747   0.00    2.6
2024/08/22 11:03:18.000   36.068740973  140.128348793   109.0842   6  20   0.1820   0.1951   0.4356  -0.0414  -0.0451  -0.0747   0.00    2.6
2024/08/22 11:03:19.000   36.068740996  140.128348757   109.0918   6  20   0.1812   0.1946   0.4341  -0.0413  -0.0447  -0.0746   0.00    2.6
2024/08/22 11:03:20.000   36.068741033  140.128348723   109.1000   6  20   0.1805   0.1940   0.4326  -0.0412  -0.0443  -0.0745   0.00    2.7
2024/08/22 11:03:21.000   36.068741056  140.128348683   109.1090   6  20   0.1799   0.1935   0.4311  -0.0412  -0.0440  -0.0745   0.00    2.7
2024/08/22 11:03:22.000   36.068741077  140.128348662   109.1165   6  20   0.1791   0.1930   0.4296  -0.0410  -0.0435  -0.0745   0.00    2.7
2024/08/22 11:03:23.000   36.068741085  140.128348643   109.1229   6  20   0.1784   0.1925   0.4281  -0.0410  -0.0432  -0.0745   0.00    2.7
2024/08/22 11:03:24.000   36.068741124  140.128348599   109.1343   6  20   0.1778   0.1921   0.4266  -0.0409  -0.0427  -0.0744   0.00    2.7
2024/08/22 11:03:25.000   36.068741136  140.128348576   109.1425   6  20   0.1771   0.1915   0.4251  -0.0409  -0.0424  -0.0744   0.00    2.7
2024/08/22 11:03:26.000   36.068741146  140.128348572   109.1499   6  20   0.1764   0.1911   0.4237  -0.0408  -0.0420  -0.0743   0.00    2.7
2024/08/22 11:03:27.000   36.068741146  140.128348562   109.1587   6  20   0.1757   0.1906   0.4222  -0.0407  -0.0415  -0.0743   0.00    2.7
2024/08/22 11:03:28.000   36.068741169  140.128348537   109.1663   6  20   0.1750   0.1901   0.4207  -0.0408  -0.0412  -0.0743   0.00    2.7
2024/08/22 11:03:29.000   36.068741203  140.128348529   109.1714   6  20   0.1744   0.1896   0.4193  -0.0406  -0.0408  -0.0742   0.00    2.7
2024/08/22 11:03:30.000   36.068741214  140.128348514   109.1802   6  20   0.1737   0.1892   0.4179  -0.0405  -0.0403  -0.0741   0.00    2.7
2024/08/22 11:03:31.000   36.068741233  140.128348510   109.1867   6  20   0.1731   0.1887   0.4164  -0.0405  -0.0400  -0.0741   0.00    2.7
2024/08/22 11:03:32.000   36.068741234  140.128348510   109.1942   6  20   0.1724   0.1882   0.4150  -0.0405  -0.0396  -0.0741   0.00    2.7
2024/08/22 11:03:33.000   36.068741259  140.128348494   109.1969   6  20   0.1717   0.1877   0.4136  -0.0405  -0.0393  -0.0741   0.00    2.7
2024/08/22 11:03:34.000   36.068741225  140.128348519   109.1999   6  20   0.1711   0.1873   0.4122  -0.0404  -0.0389  -0.0741   0.00    2.7
2024/08/22 11:03:35.000   36.068741261  140.128348515   109.2084   6  20   0.1705   0.1868   0.4108  -0.0404  -0.0385  -0.0740   0.00    2.7
2024/08/22 11:03:36.000   36.068741294  140.128348515   109.2189   6  20   0.1698   0.1864   0.4094  -0.0403  -0.0380  -0.0739   0.00    2.7
2024/08/22 11:03:37.000   36.068741321  140.128348509   109.2293   6  20   0.1692   0.1859   0.4080  -0.0402  -0.0377  -0.0739   0.00    2.7
2024/08/22 11:03:38.000   36.068741338  140.128348485   109.2378   6  20   0.1686   0.1855   0.4066  -0.0402  -0.0373  -0.0739   0.00    2.7
2024/08/22 11:03:39.000   36.068741340  140.128348506   109.2377   6  20   0.1680   0.1850   0.4052  -0.0401  -0.0369  -0.0739   0.00    2.7
2024/08/22 11:03:40.000   36.068741366  140.128348488   109.2457   6  20   0.1673   0.1846   0.4038  -0.0400  -0.0366  -0.0739   0.00    2.7
2024/08/22 11:03:41.000   36.068741377  140.128348477   109.2549   6  20   0.1667   0.1842   0.4025  -0.0401  -0.0362  -0.0738   0.00    2.7
2024/08/22 11:03:42.000   36.068741394  140.128348470   109.2654   6  20   0.1661   0.1837   0.4011  -0.0401  -0.0358  -0.0738   0.00    2.7
2024/08/22 11:03:43.000   36.068741407  140.128348468   109.2723   6  20   0.1655   0.1833   0.3997  -0.0400  -0.0355  -0.0738   0.00    2.7
2024/08/22 11:03:44.000   36.068741431  140.128348482   109.2780   6  20   0.1649   0.1829   0.3984  -0.0398  -0.0350  -0.0737   0.00    2.7
2024/08/22 11:03:45.000   36.068741448  140.128348463   109.2856   6  20   0.1643   0.1824   0.3971  -0.0399  -0.0346  -0.0737   0.00    2.8
2024/08/22 11:03:46.000   36.068741471  140.128348448   109.2963   6  20   0.1637   0.1820   0.3957  -0.0399  -0.0343  -0.0737   0.00    2.8
2024/08/22 11:03:47.000   36.068741497  140.128348443   109.3045   6  20   0.1631   0.1816   0.3944  -0.0398  -0.0338  -0.0736   0.00    2.8
2024/08/22 11:03:48.000   36.068741515  140.128348430   109.3134   6  20   0.1625   0.1812   0.3930  -0.0398  -0.0334  -0.0736   0.00    2.8
2024/08/22 11:03:49.000   36.068741517  140.128348421   109.3236   6  20   0.1619   0.1807   0.3917  -0.0398  -0.0330  -0.0736   0.00    2.8
2024/08/22 11:03:50.000   36.068741520  140.128348421   109.3318   6  20   0.1613   0.1803   0.3904  -0.0398  -0.0327  -0.0736   0.00    2.8
2024/08/22 11:03:51.000   36.068741528  140.128348410   109.3391   6  20   0.1607   0.1799   0.3891  -0.0397  -0.0324  -0.0735   0.00    2.8
2024/08/22 11:03:52.000   36.068741531  140.128348393   109.3483   6  21   0.1602   0.1795   0.3878  -0.0396  -0.0319  -0.0734   0.00    2.9
2024/08/22 11:03:53.000   36.068741534  140.128348387   109.3567   6  21   0.1596   0.1791   0.3865  -0.0396  -0.0314  -0.0734   0.00    2.9
2024/08/22 11:03:54.000   36.068741537  140.128348353   109.3702   6  21   0.1590   0.1787   0.3852  -0.0395  -0.0309  -0.0734   0.00    2.9
2024/08/22 11:03:55.000   36.068741548  140.128348329   109.3796   6  21   0.1585   0.1782   0.3839  -0.0394  -0.0304  -0.0734   0.00    2.9
2024/08/22 11:03:56.000   36.068741550  140.128348315   109.3880   6  21   0.1579   0.1779   0.3826  -0.0395  -0.0299  -0.0734   0.00    2.9
2024/08/22 11:03:57.000   36.068741564  140.128348310   109.3965   6  21   0.1573   0.1774   0.3813  -0.0394  -0.0295  -0.0734   0.00    2.9
2024/08/22 11:03:58.000   36.068741574  140.128348311   109.4062   6  21   0.1568   0.1770   0.3800  -0.0393  -0.0290  -0.0734   0.00    2.9
2024/08/22 11:03:59.000   36.068741548  140.128348307   109.4108   6  21   0.1562   0.1766   0.3788  -0.0393  -0.0286  -0.0733   0.00    2.9
2024/08/22 11:04:00.000   36.068741569  140.128348286   109.4221   6  21   0.1556   0.1762   0.3775  -0.0394  -0.0280  -0.0733   0.00    2.9
2024/08/22 11:04:01.000   36.068741589  140.128348276   109.4311   6  21   0.1551   0.1758   0.3762  -0.0393  -0.0276  -0.0732   0.00    3.0
2024/08/22 11:04:02.000   36.068741612  140.128348258   109.4374   6  21   0.1545   0.1754   0.3750  -0.0393  -0.0271  -0.0732   0.00    3.0
2024/08/22 11:04:03.000   36.068741628  140.128348248   109.4462   6  21   0.1541   0.1751   0.3737  -0.0391  -0.0267  -0.0732   0.00    3.0
2024/08/22 11:04:04.000   36.068741577  140.128348282   109.4565   6  21   0.1535   0.1747   0.3725  -0.0390  -0.0263  -0.0732   0.00    3.0
2024/08/22 11:04:05.000   36.068741590  140.128348271   109.4642   6  21   0.1529   0.1743   0.3712  -0.0392  -0.0257  -0.0731   0.00    3.0
2024/08/22 11:04:06.000   36.068741603  140.128348256   109.4686   6  21   0.1525   0.1739   0.3700  -0.0390  -0.0252  -0.0731   0.00    3.0
2024/08/22 11:04:07.000   36.068741610  140.128348243   109.4767   6  21   0.1519   0.1735   0.3688  -0.0391  -0.0247  -0.0731   0.00    3.1
2024/08/22 11:04:08.000   36.068741626  140.128348227   109.4858   6  21   0.1514   0.1731   0.3676  -0.0390  -0.0243  -0.0731   0.00    3.1
2024/08/22 11:04:09.000   36.068741651  140.128348214   109.4855   6  21   0.1508   0.1728   0.3664  -0.0390  -0.0237  -0.0730   0.00    3.1
2024/08/22 11:04:10.000   36.068741663  140.128348205   109.4930   6  21   0.1503   0.1724   0.3651  -0.0390  -0.0233  -0.0730   0.00    3.1
2024/08/22 11:04:11.000   36.068741665  140.128348185   109.4985   6  21   0.1498   0.1720   0.3639  -0.0390  -0.0230  -0.0730   0.00    3.1
2024/08/22 11:04:12.000   36.068741684  140.128348183   109.5057   6  21   0.1493   0.1716   0.3627  -0.0388  -0.0224  -0.0729   0.00    3.1
2024/08/22 11:04:13.000   36.068741714  140.128348167   109.5137   6  21   0.1488   0.1713   0.3616  -0.0389  -0.0218  -0.0729   0.00    3.1
2024/08/22 11:04:14.000   36.068741739  140.128348145   109.5135   6  21   0.1483   0.1709   0.3604  -0.0387  -0.0213  -0.0729   0.00    3.2
2024/08/22 11:04:15.000   36.068741761  140.128348130   109.5241   6  21   0.1478   0.1705   0.3592  -0.0388  -0.0207  -0.0728   0.00    3.2
2024/08/22 11:04:16.000   36.068741781  140.128348114   109.5363   6  21   0.1473   0.1702   0.3580  -0.0387  -0.0202  -0.0728   0.00    3.2
2024/08/22 11:04:17.000   36.068741809  140.128348090   109.5438   6  21   0.1468   0.1698   0.3568  -0.0387  -0.0197  -0.0728   0.00    3.2
2024/08/22 11:04:18.000   36.068741829  140.128348086   109.5517   6  21   0.1463   0.1695   0.3557  -0.0387  -0.0192  -0.0727   0.00    3.2
2024/08/22 11:04:19.000   36.068741842  140.128348071   109.5606   6  21   0.1458   0.1691   0.3545  -0.0387  -0.0186  -0.0727   0.00    3.2
2024/08/22 11:04:20.000   36.068741860  140.128348060   109.5707   6  21   0.1453   0.1688   0.3533  -0.0385  -0.0180  -0.0727   0.00    3.2
2024/08/22 11:04:21.000   36.068741870  140.128348039   109.5815   6  21   0.1448   0.1684   0.3522  -0.0387  -0.0174  -0.0726   0.00    3.2
2024/08/22 11:04:22.000   36.068741888  140.128348025   109.5930   6  21   0.1443   0.1681   0.3510  -0.0386  -0.0168  -0.0726   0.00    3.2
2024/08/22 11:04:23.000   36.068741908  140.128348024   109.6008   6  21   0.1439   0.1677   0.3499  -0.0384  -0.0162  -0.0726   0.00    3.3
2024/08/22 11:04:24.000   36.068741908  140.128348029   109.6014   6  21   0.1434   0.1674   0.3488  -0.0384  -0.0155  -0.0725   0.00    3.3
2024/08/22 11:04:25.000   36.068741933  140.128348029   109.6108   6  21   0.1429   0.1670   0.3476  -0.0385  -0.0148  -0.0725   0.00    3.3
2024/08/22 11:04:26.000   36.068741944  140.128348016   109.6201   6  21   0.1424   0.1667   0.3465  -0.0385  -0.0144  -0.0725   0.00    3.3
2024/08/22 11:04:27.000   36.068741966  140.128348004   109.6300   6  21   0.1420   0.1664   0.3454  -0.0384  -0.0136  -0.0724   0.00    3.3
2024/08/22 11:04:28.000   36.068741982  140.128348002   109.6408   6  21   0.1415   0.1660   0.3442  -0.0384  -0.0128  -0.0724   0.00    3.3
2024/08/22 11:04:29.000   36.068741983  140.128348046   109.6444   6  21   0.1410   0.1657   0.3431  -0.0383  -0.0118  -0.0724   0.00    3.3
2024/08/22 11:04:30.000   36.068741991  140.128348040   109.6605   6  21   0.1406   0.1653   0.3420  -0.0383  -0.0111  -0.0723   0.00    3.3
2024/08/22 11:04:31.000   36.068742018  140.128348031   109.6692   6  21   0.1401   0.1650   0.3409  -0.0383  -0.0101  -0.0723   0.00    3.4
2024/08/22 11:04:32.000   36.068742045  140.128348025   109.6787   6  21   0.1396   0.1647   0.3398  -0.0382  -0.0091  -0.0723   0.00    3.4
2024/08/22 11:04:33.000   36.068742057  140.128348026   109.6870   6  21   0.1392   0.1643   0.3387  -0.0382  -0.0082  -0.0722   0.00    3.4
2024/08/22 11:04:34.000   36.068742025  140.128348068   109.6929   6  21   0.1387   0.1640   0.3376  -0.0382  -0.0070  -0.0722   0.00    3.4
2024/08/22 11:04:35.000   36.068742029  140.128348054   109.6978   6  21   0.1383   0.1637   0.3365  -0.0381  -0.0054  -0.0722   0.00    3.4
2024/08/22 11:04:36.000   36.068742034  140.128348031   109.7040   6  21   0.1379   0.1634   0.3354  -0.0380  -0.0027  -0.0721   0.00    3.4
2024/08/22 11:04:37.000   36.068742055  140.128348025   109.7110   6  21   0.1374   0.1631   0.3344  -0.0380   0.0032  -0.0721   0.00    3.4
2024/08/22 11:04:38.000   36.068742074  140.128348012   109.7201   6  21   0.1369   0.1628   0.3333  -0.0381   0.0053  -0.0720   0.00    3.4
2024/08/22 11:04:39.000   36.068742078  140.128348010   109.7259   6  21   0.1365   0.1624   0.3322  -0.0380   0.0069  -0.0720   0.00    3.4
2024/08/22 11:04:40.000   36.068742075  140.128347997   109.7279   6  21   0.1360   0.1621   0.3312  -0.0380   0.0081  -0.0719   0.00    3.4
2024/08/22 11:04:41.000   36.068742079  140.128347984   109.7316   6  21   0.1356   0.1618   0.3301  -0.0380   0.0088  -0.0719   0.00    3.4
2024/08/22 11:04:42.000   36.068742070  140.128347977   109.7354   6  21   0.1351   0.1615   0.3291  -0.0380   0.0100  -0.0719   0.00    3.4
2024/08/22 11:04:43.000   36.068742062  140.128347971   109.7352   6  21   0.1348   0.1611   0.3280  -0.0379   0.0110  -0.0718   0.00    3.4
2024/08/22 11:04:44.000   36.068742045  140.128347954   109.7417   6  21   0.1343   0.1608   0.3269  -0.0380   0.0117  -0.0718   0.00    3.4
2024/08/22 11:04:45.000   36.068742031  140.128347945   109.7493   6  21   0.1339   0.1605   0.3259  -0.0378   0.0125  -0.0717   0.00    3.4
2024/08/22 11:04:46.000   36.068742020  140.128347928   109.7561   6  21   0.1335   0.1602   0.3249  -0.0378   0.0131  -0.0717   0.00    3.4
2024/08/22 11:04:47.000   36.068742021  140.128347906   109.7617   6  21   0.1330   0.1599   0.3239  -0.0378   0.0135  -0.0717   0.00    3.4
2024/08/22 11:04:48.000   36.068742025  140.128347894   109.7662   6  21   0.1327   0.1596   0.3228  -0.0377   0.0143  -0.0716   0.00    3.4
2024/08/22 11:04:49.000   36.068742021  140.128347895   109.7721   6  21   0.1322   0.1593   0.3218  -0.0378   0.0149  -0.0716   0.00    3.4
2024/08/22 11:04:50.000   36.068742024  140.128347885   109.7759   6  21   0.1317   0.1590   0.3208  -0.0379   0.0154  -0.0715   0.00    3.4
2024/08/22 11:04:51.000   36.068742016  140.128347886   109.7787   6  21   0.1313   0.1587   0.3198  -0.0376   0.0160  -0.0715   0.00    3.4
2024/08/22 11:04:52.000   36.068742011  140.128347891   109.7842   6  21   0.1310   0.1584   0.3188  -0.0376   0.0164  -0.0715   0.00    3.4
2024/08/22 11:04:53.000   36.068742012  140.128347910   109.7876   6  21   0.1305   0.1581   0.3178  -0.0376   0.0170  -0.0713   0.00    3.4
2024/08/22 11:04:54.000   36.068741983  140.128347876   109.7930   6  21   0.1301   0.1578   0.3168  -0.0377   0.0173  -0.0714   0.00    3.4
2024/08/22 11:04:55.000   36.068741984  140.128347881   109.7934   6  21   0.1297   0.1575   0.3158  -0.0375   0.0179  -0.0713   0.00    3.3
2024/08/22 11:04:56.000   36.068742005  140.128347885   109.7970   6  21   0.1293   0.1572   0.3148  -0.0375   0.0182  -0.0713   0.00    3.3
2024/08/22 11:04:57.000   36.068742025  140.128347876   109.8015   6  21   0.1289   0.1569   0.3138  -0.0375   0.0186  -0.0712   0.00    3.3
2024/08/22 11:04:58.000   36.068742014  140.128347881   109.8071   6  21   0.1285   0.1567   0.3128  -0.0375   0.0192  -0.0711   0.00    3.3
2024/08/22 11:04:59.000   36.068742003  140.128347913   109.8093   6  21   0.1281   0.1564   0.3118  -0.0374   0.0195  -0.0711   0.00    3.3
2024/08/22 11:05:00.000   36.068741998  140.128347907   109.8151   6  21   0.1277   0.1560   0.3108  -0.0375   0.0199  -0.0711   0.00    3.3
2024/08/22 11:05:01.000   36.068741998  140.128347905   109.8172   6  21   0.1273   0.1558   0.3099  -0.0374   0.0203  -0.0711   0.00    3.3
2024/08/22 11:05:02.000   36.068741998  140.128347907   109.8193   6  21   0.1269   0.1555   0.3089  -0.0375   0.0206  -0.0710   0.00    3.3
2024/08/22 11:05:03.000   36.068742007  140.128347915   109.8221   6  21   0.1266   0.1552   0.3080  -0.0373   0.0210  -0.0709   0.00    3.3
2024/08/22 11:05:04.000   36.068741984  140.128347980   109.8334   6  21   0.1262   0.1549   0.3070  -0.0372   0.0213  -0.0709   0.00    3.3
2024/08/22 11:05:05.000   36.068741991  140.128347964   109.8382   6  21   0.1258   0.1547   0.3060  -0.0372   0.0218  -0.0708   0.00    3.3
2024/08/22 11:05:06.000   36.068742001  140.128347954   109.8424   6  21   0.1254   0.1544   0.3051  -0.0372   0.0222  -0.0708   0.00    3.3
2024/08/22 11:05:07.000   36.068742023  140.128347958   109.8454   6  21   0.1250   0.1541   0.3041  -0.0372   0.0225  -0.0707   0.00    3.3
2024/08/22 11:05:08.000   36.068742037  140.128347954   109.8479   6  21   0.1246   0.1538   0.3032  -0.0372   0.0228  -0.0707   0.00    3.3
2024/08/22 11:05:09.000   36.068742025  140.128347996   109.8453   6  21   0.1242   0.1535   0.3022  -0.0372   0.0231  -0.0706   0.00    3.3
2024/08/22 11:05:10.000   36.068742023  140.128347990   109.8483   6  21   0.1239   0.1532   0.3013  -0.0372   0.0234  -0.0705   0.00    3.2
2024/08/22 11:05:11.000   36.068742025  140.128347990   109.8527   6  21   0.1235   0.1530   0.3004  -0.0371   0.0237  -0.0705   0.00    3.2
2024/08/22 11:05:12.000   36.068742045  140.128347992   109.8532   6  21   0.1231   0.1527   0.2995  -0.0371   0.0239  -0.0705   0.00    3.2
2024/08/22 11:05:13.000   36.068742064  140.128347993   109.8518   6  21   0.1228   0.1524   0.2986  -0.0371   0.0241  -0.0704   0.00    3.2
2024/08/22 11:05:14.000   36.068742064  140.128348027   109.8555   6  21   0.1224   0.1521   0.2976  -0.0370   0.0246  -0.0703   0.00    3.2
2024/08/22 11:05:15.000   36.068742052  140.128348033   109.8566   6  21   0.1220   0.1519   0.2967  -0.0371   0.0249  -0.0703   0.00    3.2
2024/08/22 11:05:16.000   36.068742060  140.128348048   109.8605   6  21   0.1217   0.1516   0.2958  -0.0369   0.0251  -0.0702   0.00    3.2
2024/08/22 11:05:17.000   36.068742063  140.128348056   109.8608   6  21   0.1213   0.1513   0.2949  -0.0370   0.0254  -0.0702   0.00    3.2
2024/08/22 11:05:18.000   36.068742062  140.128348067   109.8656   6  21   0.1209   0.1511   0.2940  -0.0370   0.0256  -0.0701   0.00    3.2
2024/08/22 11:05:19.000   36.068742057  140.128348079   109.8727   6  21   0.1206   0.1508   0.2931  -0.0370   0.0260  -0.0701   0.00    3.2
2024/08/22 11:05:20.000   36.068742059  140.128348085   109.8785   6  21   0.1202   0.1505   0.2922  -0.0369   0.0261  -0.0700   0.00    3.2
2024/08/22 11:05:21.000   36.068742059  140.128348094   109.8823   6  21   0.1198   0.1503   0.2913  -0.0368   0.0264  -0.0699   0.00    3.2
2024/08/22 11:05:22.000   36.068742058  140.128348121   109.8849   6  21   0.1195   0.1500   0.2904  -0.0368   0.0267  -0.0699   0.00    3.2
2024/08/22 11:05:23.000   36.068742065  140.128348139   109.8865   6  21   0.1192   0.1498   0.2895  -0.0368   0.0268  -0.0698   0.00    3.2
2024/08/22 11:05:24.000   36.068742043  140.128348208   109.8850   6  21   0.1188   0.1495   0.2886  -0.0368   0.0271  -0.0698   0.00    3.2
2024/08/22 11:05:25.000   36.068742054  140.128348223   109.8907   6  21   0.1185   0.1492   0.2878  -0.0367   0.0275  -0.0697   0.00    3.2
2024/08/22 11:05:26.000   36.068742060  140.128348242   109.8968   6  21   0.1181   0.1490   0.2869  -0.0367   0.0275  -0.0696   0.00    3.2
2024/08/22 11:05:27.000   36.068742070  140.128348261   109.9036   6  21   0.1178   0.1487   0.2861  -0.0367   0.0278  -0.0696   0.00    3.2
2024/08/22 11:05:28.000   36.068742084  140.128348284   109.9079   6  21   0.1174   0.1485   0.2852  -0.0367   0.0281  -0.0695   0.00    3.2
2024/08/22 11:05:29.000   36.068742087  140.128348328   109.9126   6  21   0.1171   0.1482   0.2843  -0.0367   0.0282  -0.0695   0.00    3.2
2024/08/22 11:05:30.000   36.068742096  140.128348349   109.9185   6  21   0.1167   0.1479   0.2835  -0.0366   0.0285  -0.0694   0.00    3.2
2024/08/22 11:05:31.000   36.068742097  140.128348374   109.9242   6  21   0.1164   0.1477   0.2826  -0.0366   0.0288  -0.0693   0.00    3.2
2024/08/22 11:05:32.000   36.068742100  140.128348410   109.9275   6  21   0.1161   0.1474   0.2818  -0.0366   0.0288  -0.0693   0.00    3.2
2024/08/22 11:05:33.000   36.068742097  140.128348443   109.9309   6  21   0.1157   0.1472   0.2809  -0.0365   0.0291  -0.0692   0.00    3.2
2024/08/22 11:05:34.000   36.068742045  140.128348540   109.9369   6  21   0.1154   0.1469   0.2801  -0.0366   0.0293  -0.0692   0.00    3.2
2024/08/22 11:05:35.000   36.068742050  140.128348558   109.9464   6  21   0.1150   0.1467   0.2792  -0.0365   0.0295  -0.0691   0.00    3.2
2024/08/22 11:05:36.000   36.068742058  140.128348570   109.9516   6  21   0.1147   0.1464   0.2784  -0.0365   0.0296  -0.0691   0.00    3.2
2024/08/22 11:05:37.000   36.068742058  140.128348570   109.9560   6  21   0.1144   0.1462   0.2776  -0.0364   0.0300  -0.0690   0.00    3.2
2024/08/22 11:05:38.000   36.068742081  140.128348588   109.9630   6  21   0.1140   0.1460   0.2768  -0.0364   0.0300  -0.0689   0.00    3.2
2024/08/22 11:05:39.000   36.068742093  140.128348640   109.9646   6  21   0.1137   0.1457   0.2759  -0.0363   0.0303  -0.0689   0.00    3.2
2024/08/22 11:05:40.000   36.068742102  140.128348652   109.9676   6  21   0.1134   0.1455   0.2751  -0.0364   0.0305  -0.0688   0.00    3.2
2024/08/22 11:05:41.000   36.068742098  140.128348680   109.9733   6  21   0.1131   0.1452   0.2743  -0.0363   0.0306  -0.0687   0.00    3.2
2024/08/22 11:05:42.000   36.068742099  140.128348718   109.9796   6  21   0.1128   0.1450   0.2735  -0.0363   0.0308  -0.0686   0.00    3.2
2024/08/22 11:05:43.000   36.068742094  140.128348744   109.9847   6  21   0.1125   0.1447   0.2727  -0.0362   0.0311  -0.0686   0.00    3.3
2024/08/22 11:05:44.000   36.068742097  140.128348791   109.9923   6  21   0.1121   0.1445   0.2719  -0.0362   0.0311  -0.0686   0.00    3.3
2024/08/22 11:05:45.000   36.068742102  140.128348812   109.9987   6  21   0.1118   0.1442   0.2711  -0.0362   0.0313  -0.0685   0.00    3.3
2024/08/22 11:05:46.000   36.068742108  140.128348828   110.0068   6  21   0.1115   0.1440   0.2703  -0.0362   0.0315  -0.0684   0.00    3.3
2024/08/22 11:05:47.000   36.068742109  140.128348846   110.0140   6  21   0.1112   0.1438   0.2695  -0.0362   0.0317  -0.0683   0.00    3.3
2024/08/22 11:05:48.000   36.068742112  140.128348868   110.0191   6  21   0.1109   0.1435   0.2687  -0.0362   0.0318  -0.0683   0.00    3.3
2024/08/22 11:05:49.000   36.068742118  140.128348897   110.0248   6  21   0.1106   0.1433   0.2679  -0.0362   0.0320  -0.0681   0.00    3.3
2024/08/22 11:05:50.000   36.068742116  140.128348925   110.0310   6  21   0.1102   0.1431   0.2672  -0.0361   0.0321  -0.0681   0.00    3.3
2024/08/22 11:05:51.000   36.068742116  140.128348930   110.0370   6  21   0.1099   0.1428   0.2664  -0.0362   0.0323  -0.0680   0.00    3.4
2024/08/22 11:05:52.000   36.068742114  140.128348956   110.0406   6  21   0.1096   0.1426   0.2656  -0.0360   0.0325  -0.0680   0.00    3.4
2024/08/22 11:05:53.000   36.068742121  140.128348991   110.0480   6  21   0.1093   0.1423   0.2648  -0.0361   0.0325  -0.0679   0.00    3.4
2024/08/22 11:05:54.000   36.068742101  140.128349008   110.0528   6  21   0.1090   0.1422   0.2640  -0.0361   0.0328  -0.0678   0.00    3.4
2024/08/22 11:05:55.000   36.068742120  140.128349018   110.0609   6  21   0.1087   0.1419   0.2633  -0.0359   0.0330  -0.0678   0.00    3.4
2024/08/22 11:05:56.000   36.068742128  140.128349028   110.0661   6  21   0.1085   0.1417   0.2625  -0.0360   0.0330  -0.0677   0.00    3.5
2024/08/22 11:05:57.000   36.068742134  140.128349039   110.0731   6  21   0.1081   0.1414   0.2618  -0.0360   0.0332  -0.0676   0.00    3.5
2024/08/22 11:05:58.000   36.068742141  140.128349056   110.0778   6  21   0.1078   0.1413   0.2610  -0.0359   0.0334  -0.0675   0.00    3.5
2024/08/22 11:05:59.000   36.068742134  140.128349045   110.0788   6  21   0.1075   0.1410   0.2603  -0.0358   0.0335  -0.0675   0.00    3.6
2024/08/22 11:06:00.000   36.068742145  140.128349053   110.0822   6  21   0.1072   0.1408   0.2595  -0.0359   0.0337  -0.0674   0.00    3.6
2024/08/22 11:06:01.000   36.068742137  140.128349064   110.0878   6  21   0.1069   0.1405   0.2588  -0.0359   0.0338  -0.0674   0.00    3.6
2024/08/22 11:06:02.000   36.068742141  140.128349077   110.0936   6  21   0.1066   0.1403   0.2580  -0.0358   0.0339  -0.0673   0.00    3.6
2024/08/22 11:06:03.000   36.068742145  140.128349077   110.1005   6  21   0.1063   0.1401   0.2573  -0.0358   0.0341  -0.0672   0.00    3.7
2024/08/22 11:06:04.000   36.068742124  140.128349113   110.1067   6  21   0.1061   0.1398   0.2566  -0.0357   0.0341  -0.0671   0.00    3.7
2024/08/22 11:06:05.000   36.068742133  140.128349105   110.1116   6  21   0.1058   0.1396   0.2558  -0.0357   0.0344  -0.0670   0.00    3.8
2024/08/22 11:06:06.000   36.068742134  140.128349110   110.1167   6  21   0.1055   0.1394   0.2551  -0.0357   0.0344  -0.0670   0.00    3.8
2024/08/22 11:06:07.000   36.068742137  140.128349100   110.1211   6  21   0.1052   0.1392   0.2544  -0.0355   0.0346  -0.0669   0.00    3.9
2024/08/22 11:06:08.000   36.068742140  140.128349130   110.1272   6  21   0.1049   0.1390   0.2537  -0.0357   0.0347  -0.0668   0.00    3.9
2024/08/22 11:06:09.000   36.068742145  140.128349125   110.1273   6  21   0.1046   0.1388   0.2529  -0.0356   0.0348  -0.0668   0.00    3.9
2024/08/22 11:06:10.000   36.068742149  140.128349117   110.1341   6  21   0.1044   0.1385   0.2522  -0.0356   0.0348  -0.0667   0.00    4.0
2024/08/22 11:06:11.000   36.068742160  140.128349119   110.1368   6  21   0.1041   0.1383   0.2515  -0.0355   0.0351  -0.0666   0.00    4.0
2024/08/22 11:06:12.000   36.068742167  140.128349111   110.1404   6  21   0.1038   0.1381   0.2508  -0.0356   0.0351  -0.0665   0.00    4.1
2024/08/22 11:06:13.000   36.068742184  140.128349120   110.1454   6  21   0.1036   0.1379   0.2501  -0.0354   0.0353  -0.0665   0.00    4.1
2024/08/22 11:06:14.000   36.068742167  140.128349135   110.1482   6  21   0.1032   0.1376   0.2494  -0.0355   0.0353  -0.0664   0.00    4.2
2024/08/22 11:06:15.000   36.068742183  140.128349135   110.1535   6  21   0.1029   0.1374   0.2487  -0.0355   0.0355  -0.0663   0.00    4.2
2024/08/22 11:06:16.000   36.068742194  140.128349132   110.1578   6  21   0.1027   0.1372   0.2480  -0.0354   0.0356  -0.0663   0.00    4.3
2024/08/22 11:06:17.000   36.068742210  140.128349129   110.1627   6  21   0.1024   0.1370   0.2473  -0.0354   0.0357  -0.0662   0.00    4.3
2024/08/22 11:06:18.000   36.068742209  140.128349127   110.1682   6  21   0.1021   0.1368   0.2466  -0.0355   0.0358  -0.0661   0.00    4.4
2024/08/22 11:06:19.000   36.068742229  140.128349140   110.1766   6  21   0.1019   0.1366   0.2459  -0.0352   0.0359  -0.0660   0.00    4.4
2024/08/22 11:06:20.000   36.068742213  140.128349151   110.1789   6  21   0.1016   0.1363   0.2453  -0.0353   0.0360  -0.0660   0.00    4.5
2024/08/22 11:06:21.000   36.068742218  140.128349168   110.1816   6  21   0.1014   0.1362   0.2446  -0.0353   0.0362  -0.0659   0.00    4.5
2024/08/22 11:06:22.000   36.068742233  140.128349169   110.1857   6  21   0.1011   0.1360   0.2439  -0.0353   0.0363  -0.0658   0.00    4.6
2024/08/22 11:06:23.000   36.068742229  140.128349183   110.1911   6  21   0.1008   0.1358   0.2432  -0.0353   0.0364  -0.0657   0.00    4.7
2024/08/22 11:06:24.000   36.068742194  140.128349253   110.1829   6  21   0.1006   0.1355   0.2425  -0.0352   0.0365  -0.0657   0.00    4.7
2024/08/22 11:06:25.000   36.068742203  140.128349261   110.1862   6  21   0.1003   0.1353   0.2419  -0.0352   0.0365  -0.0656   0.00    4.8
2024/08/22 11:06:26.000   36.068742215  140.128349262   110.1899   6  21   0.1000   0.1351   0.2412  -0.0351   0.0366  -0.0655   0.00    4.8
2024/08/22 11:06:27.000   36.068742230  140.128349271   110.1944   6  21   0.0998   0.1349   0.2406  -0.0351   0.0368  -0.0654   0.00    4.9
2024/08/22 11:06:28.000   36.068742234  140.128349291   110.1981   6  21   0.0995   0.1347   0.2399  -0.0351   0.0368  -0.0654   0.00    5.0
2024/08/22 11:06:29.000   36.068742268  140.128349309   110.1917   6  21   0.0993   0.1345   0.2393  -0.0350   0.0370  -0.0652   0.00    5.0
2024/08/22 11:06:30.000   36.068742288  140.128349322   110.1956   6  21   0.0990   0.1343   0.2386  -0.0350   0.0370  -0.0652   0.00    5.1
2024/08/22 11:06:31.000   36.068742297  140.128349328   110.2012   6  21   0.0987   0.1341   0.2379  -0.0351   0.0371  -0.0651   0.00    5.2
2024/08/22 11:06:32.000   36.068742311  140.128349331   110.2061   6  21   0.0985   0.1339   0.2373  -0.0349   0.0373  -0.0650   0.00    5.3
2024/08/22 11:06:33.000   36.068742324  140.128349326   110.2142   6  21   0.0982   0.1337   0.2366  -0.0350   0.0372  -0.0649   0.00    5.3
2024/08/22 11:06:34.000   36.068742291  140.128349387   110.2225   6  21   0.0980   0.1335   0.2360  -0.0350   0.0373  -0.0649   0.00    5.4
2024/08/22 11:06:35.000   36.068742314  140.128349380   110.2266   6  21   0.0977   0.1333   0.2354  -0.0349   0.0375  -0.0648   0.00    5.5
2024/08/22 11:06:36.000   36.068742331  140.128349372   110.2333   6  21   0.0974   0.1330   0.2347  -0.0350   0.0375  -0.0647   0.00    5.6
2024/08/22 11:06:37.000   36.068742344  140.128349364   110.2404   6  21   0.0972   0.1329   0.2341  -0.0349   0.0376  -0.0646   0.00    5.7
2024/08/22 11:06:38.000   36.068742368  140.128349372   110.2482   6  21   0.0970   0.1327   0.2335  -0.0349   0.0377  -0.0645   0.00    5.7
2024/08/22 11:06:39.000   36.068742383  140.128349368   110.2587   6  21   0.0967   0.1325   0.2328  -0.0349   0.0377  -0.0645   0.00    5.8
2024/08/22 11:06:40.000   36.068742403  140.128349376   110.2656   6  21   0.0965   0.1323   0.2322  -0.0348   0.0379  -0.0644   0.00    5.9
2024/08/22 11:06:41.000   36.068742423  140.128349369   110.2735   6  21   0.0963   0.1321   0.2316  -0.0348   0.0379  -0.0643   0.00    6.0
2024/08/22 11:06:42.000   36.068742438  140.128349373   110.2821   6  21   0.0960   0.1319   0.2310  -0.0348   0.0380  -0.0642   0.00    6.1
2024/08/22 11:06:43.000   36.068742455  140.128349361   110.2927   6  21   0.0957   0.1317   0.2303  -0.0348   0.0381  -0.0641   0.00    6.2
2024/08/22 11:06:44.000   36.068742485  140.128349343   110.3034   6  21   0.0955   0.1315   0.2297  -0.0346   0.0383  -0.0640   0.00    6.3
2024/08/22 11:06:45.000   36.068742496  140.128349329   110.3131   6  21   0.0952   0.1313   0.2291  -0.0346   0.0383  -0.0640   0.00    6.4
2024/08/22 11:06:46.000   36.068742510  140.128349331   110.3205   6  21   0.0950   0.1311   0.2285  -0.0347   0.0384  -0.0639   0.00    6.5
2024/08/22 11:06:47.000   36.068742526  140.128349322   110.3324   6  21   0.0948   0.1309   0.2279  -0.0346   0.0384  -0.0638   0.00    6.6
2024/08/22 11:06:48.000   36.068742540  140.128349314   110.3446   6  21   0.0946   0.1308   0.2273  -0.0345   0.0385  -0.0637   0.00    6.6
2024/08/22 11:06:49.000   36.068742553  140.128349312   110.3518   6  21   0.0943   0.1305   0.2267  -0.0346   0.0386  -0.0636   0.00    6.7
2024/08/22 11:06:50.000   36.068742585  140.128349286   110.3589   6  21   0.0941   0.1304   0.2261  -0.0344   0.0386  -0.0635   0.00    6.8
2024/08/22 11:06:51.000   36.068742601  140.128349273   110.3694   6  21   0.0938   0.1301   0.2255  -0.0345   0.0387  -0.0635   0.00    7.0
